     2.11           OBSERVATION DATA    M                   RINEX VERSION / TYPE
LEICA GEO OFFICE 8.4                    27-9-20 23:27       PGM / RUN BY / DATE
                                                            OBSERVER / AGENCY
BAYN                                                        MARKER NAME
BAYN                                                        MARKER NUMBER
468588              LEICA GX1220GG      5.60                REC # / TYPE / VERS
                    LEIAX1202GG                             ANT # / TYPE
 -1128237.2622  3851487.7577  4941231.0178                  APPROX POSITION XYZ
        1.3130        0.0000        0.0000                  ANTENNA: DELTA H/E/N
L1PhaOff:   0.0644  L2PhaOff:   0.0640                      COMMENT
     1     1                                                WAVELENGTH FACT L1/2
     6    C1    L1    D1    P2    L2    D2                  # / TYPES OF OBSERV
  2020     9    27     7    34   35.0000000     GPS         TIME OF FIRST OBS
  2020     9    27     9    19    0.0000000     GPS         TIME OF LAST OBS
    18                                                      LEAP SECONDS
    23                                                      # OF SATELLITES
          C1    L1    D1    P2    L2    D2                  COMMENT
   G 1     0     0     0     0     0     0                  PRN / # OF OBS
   G 2     0     0     0     0     0     0                  PRN / # OF OBS
   G 3     0     0     0     0     0     0                  PRN / # OF OBS
   G 4     0     0     0     0     0     0                  PRN / # OF OBS
   G 5     0     0     0     0     0     0                  PRN / # OF OBS
   G 6     0     0     0     0     0     0                  PRN / # OF OBS
   G 7     0     0     0     0     0     0                  PRN / # OF OBS
   G 8   551   551   551   549   549   549                  PRN / # OF OBS
   G 9     0     0     0     0     0     0                  PRN / # OF OBS
   G10  1254  1254  1254  1254  1254  1254                  PRN / # OF OBS
   G11   447   447   447   446   446   446                  PRN / # OF OBS
   G12   296   296   296   294   294   294                  PRN / # OF OBS
   G13   316   316   316   316   316   316                  PRN / # OF OBS
   G14     0     0     0     0     0     0                  PRN / # OF OBS
   G15  1253  1253  1253  1252  1252  1252                  PRN / # OF OBS
   G16     0     0     0     0     0     0                  PRN / # OF OBS
   G17     0     0     0     0     0     0                  PRN / # OF OBS
   G18  1038  1038  1038  1038  1038  1038                  PRN / # OF OBS
   G19     0     0     0     0     0     0                  PRN / # OF OBS
   G20  1254  1254  1254  1254  1254  1254                  PRN / # OF OBS
   G21  1234  1234  1234  1232  1232  1232                  PRN / # OF OBS
   G22     0     0     0     0     0     0                  PRN / # OF OBS
   G23     0     0     0     0     0     0                  PRN / # OF OBS
   G24  1254  1254  1254  1254  1254  1254                  PRN / # OF OBS
   G25     0     0     0     0     0     0                  PRN / # OF OBS
   G26     0     0     0     0     0     0                  PRN / # OF OBS
   G27   482   482   482   481   481   481                  PRN / # OF OBS
   G28     0     0     0     0     0     0                  PRN / # OF OBS
   G29     0     0     0     0     0     0                  PRN / # OF OBS
   G30     0     0     0     0     0     0                  PRN / # OF OBS
   G31     0     0     0     0     0     0                  PRN / # OF OBS
   G32  1084  1084  1084  1084  1084  1084                  PRN / # OF OBS
   R 1  1163  1163  1163  1163  1163  1163                  PRN / # OF OBS
   R 2  1254  1254  1254  1254  1254  1254                  PRN / # OF OBS
   R 3  1101  1101  1101  1100  1100  1100                  PRN / # OF OBS
   R 4     0     0     0     0     0     0                  PRN / # OF OBS
   R 5     0     0     0     0     0     0                  PRN / # OF OBS
   R 6     0     0     0     0     0     0                  PRN / # OF OBS
   R 7     0     0     0     0     0     0                  PRN / # OF OBS
   R 8     0     0     0     0     0     0                  PRN / # OF OBS
   R 9     0     0     0     0     0     0                  PRN / # OF OBS
   R10   632   632   632     0     0     0                  PRN / # OF OBS
   R11  1254  1254  1254  1254  1254  1254                  PRN / # OF OBS
   R12  1173  1173  1173  1172  1172  1172                  PRN / # OF OBS
   R13   118   118   118   118   118   118                  PRN / # OF OBS
   R14     0     0     0     0     0     0                  PRN / # OF OBS
   R15     0     0     0     0     0     0                  PRN / # OF OBS
   R16     0     0     0     0     0     0                  PRN / # OF OBS
   R17  1044  1044  1044  1044  1044  1044                  PRN / # OF OBS
   R18  1244  1244  1244  1246  1246  1246                  PRN / # OF OBS
   R19   511   511   511   511   511   511                  PRN / # OF OBS
   R20     0     0     0     0     0     0                  PRN / # OF OBS
   R21     0     0     0     0     0     0                  PRN / # OF OBS
   R22     0     0     0     0     0     0                  PRN / # OF OBS
   R23     0     0     0     0     0     0                  PRN / # OF OBS
   R24   258   258   258   260   260   260                  PRN / # OF OBS
                                                            END OF HEADER
 20 09 27 07 34 35.0000000  0 16G 8G27G15G13G21G18G24G20G10R10R 2R17
                                R11R24R 1R18
  24626884.521   129415151.70048       545.421    24626886.874   100842984.56344
       425.004  
  24051093.252   126389346.91146     -1298.191    24051095.780    98485219.47346
     -1011.582  
  21094210.306   110850824.12048     -2369.660    21094210.384    86377266.47747
     -1846.491  
  23598068.379   124008687.94648     -3444.894    23598067.978    96630130.94843
     -2684.332  
  24850257.376   130588987.57047      2788.668    24850257.195   101757641.62544
      2172.991  
  21264617.059   111746330.52649     -2421.645    21264617.494    87075059.23247
     -1886.996  
  21159478.239   111193805.55048      1974.843    21159480.317    86644534.34847
      1538.840  
  20079720.273   105519676.51749       860.683    20079719.163    82223139.26948
       670.664  
  22225907.804   116797967.29948      2647.637    22225909.721    91011385.20747
      2063.089  
  22045726.803   117516146.59506     -1524.940           0.000           0.0000 
         0.000  
  20035855.593   106915185.13708      1863.668    20035860.837    83156306.72007
      1449.515  
  20342227.543   108855382.75109     -1442.085    20342231.368    84665326.15208
     -1121.625  
  21584151.731   115339159.04908      2651.688    21584156.664    89708259.11507
      2062.422  
  22501935.887   120327962.95707     -4346.999    22501940.871    93588435.31806
     -3380.999  
  20342380.684   108741683.10007     -2221.461    20342387.099    84576890.84906
     -1727.808  
  21826895.245   116513446.57206      2454.577    21826900.843    90621596.04706
      1909.116  
 20 09 27 07 34 40.0000000  0 16G 8G27G15G13G21G18G24G20G10R10R 2R17
                                R11R24R 1R18
  24626367.718   129412436.00948       541.960    24626369.907   100840868.45043
       422.309  
  24052330.643   126395849.35046     -1301.448    24052333.549    98490286.27346
     -1014.120  
  21096466.462   110862680.20948     -2372.016    21096466.508    86386504.99347
     -1848.323  
  23601346.782   124025916.07048     -3445.895    23601346.318    96643555.45344
     -2685.113  
  24847605.396   130575051.01047      2786.937    24847605.206   101746781.98344
      2171.644  
  21266922.932   111758447.87749     -2424.487    21266923.326    87084501.32247
     -1889.215  
  21157601.202   111183941.84148      1971.413    21157603.333    86636848.35247
      1536.168  
  20078902.983   105515381.66049       857.979    20078901.863    82219792.62448
       668.550  
  22223389.558   116784734.07548      2646.270    22223391.534    91001073.62147
      2062.027  
  22047159.302   117523782.80706     -1529.370           0.000           0.0000 
         0.000  
  20034110.761   106905874.41108      1861.395    20034116.015    83149065.06107
      1447.749  
  20343577.390   108862606.11809     -1446.742    20343581.221    84670944.30308
     -1125.246  
  21581672.664   115325911.85508      2647.870    21581677.620    89697955.75207
      2059.457  
  22506000.898   120349700.27508     -4347.874    22506005.899    93605342.07006
     -3381.688  
  20344459.882   108752797.35607     -2223.285    20344466.266    84585535.27206
     -1729.227  
  21824598.019   116501184.50906      2450.336    21824603.864    90612058.91006
      1905.820  
 20 09 27 07 34 45.0000000  0 16G 8G27G15G13G21G18G24G20G10R10R 2R17
                                R11R24R 1R18
  24625853.304   129409732.86748       539.409    24625855.241   100838762.07244
       420.313  
  24053570.249   126402363.33446     -1303.948    24053572.832    98495362.11746
     -1016.065  
  21098723.797   110874542.64348     -2373.242    21098723.861    86395748.44247
     -1849.284  
  23604625.198   124043144.51248     -3445.766    23604624.841    96656980.17844
     -2685.019  
  24844953.970   130561117.23547      2786.309    24844954.203   101735924.47844
      2171.145  
  21269230.678   111770575.13449     -2426.644    21269231.070    87093951.11747
     -1890.894  
  21155726.518   111174090.55848      1968.625    21155728.719    86629172.02647
      1533.987  
  20078087.440   105511095.91949       856.121    20078086.304    82216453.07648
       667.101  
  22220871.816   116771503.34748      2645.922    22220873.798    90990763.94447
      2061.754  
  22048595.263   117531437.19206     -1533.101           0.000           0.0000 
         0.000  
  20032367.177   106896570.49808      1860.113    20032372.460    83141828.66107
      1446.750  
  20344930.879   108869848.94109     -1450.608    20344934.717    84676577.61508
     -1128.253  
  21579196.187   115312678.40908      2645.190    21579201.160    89687663.06807
      2057.366  
  22510066.530   120371441.25407     -4348.590    22510071.564    93622251.72006
     -3382.242  
  20346539.999   108763916.93007     -2224.586    20346546.421    84594183.83506
     -1730.234  
  21822303.762   116488938.33006      2447.019    21822309.708    90602534.08906
      1903.234  
 20 09 27 07 34 50.0000000  0 16G 8G27G15G13G21G18G24G20G10R10R 2R17
                                R11R24R 1R18
  24625341.500   129407043.41448       535.852    24625343.564   100836666.40244
       417.542  
  24054812.181   126408889.98446     -1306.996    24054814.910    98500447.81545
     -1018.445  
  21100982.558   110886412.54448     -2375.093    21100982.621    86404997.71947
     -1850.722  
  23607903.944   124060374.43848     -3446.895    23607903.529    96670406.10744
     -2685.894  
  24842303.250   130547187.41747      2785.137    24842303.157   101725070.07544
      2170.234  
  21271540.511   111782713.35649     -2429.382    21271540.914    87103409.47847
     -1893.026  
  21153854.388   111164252.57748      1965.909    21153856.607    86621506.07247
      1531.878  
  20077273.838   105506820.41249       853.492    20077272.687    82213121.51548
       665.101  
  22218354.747   116758276.25048      2644.676    22218356.828    90980457.12147
      2060.784  
  22050034.851   117539110.75806     -1537.187           0.000           0.0000 
         0.000  
  20030624.973   106887273.85508      1857.956    20030630.275    83134597.94607
      1445.078  
  20346288.231   108877112.37509     -1455.215    20346292.063    84682226.95008
     -1131.836  
  21576722.522   115299459.82808      2641.667    21576727.472    89677381.96807
      2054.628  
  22514132.994   120393186.71307     -4349.640    22514138.082    93639164.85306
     -3383.059  
  20348621.326   108775042.84307     -2226.297    20348627.783    84602837.32206
     -1731.563  
  21820012.579   116476709.15306      2443.715    21820018.795    90593022.51406
      1900.668  
 20 09 27 07 34 55.0000000  0 16G 8G27G15G13G21G18G24G20G10R10R 2R17
                                R11R24R 1R18
  24624832.961   129404371.12048       533.145    24624834.828   100834584.09244
       415.433  
  24056057.277   126415432.81846     -1309.909    24056059.657    98505546.12546
     -1020.715  
  21103243.422   110898293.40548     -2376.922    21103243.475    86414255.53747
     -1852.148  
  23611183.614   124077609.28348     -3447.108    23611183.197    96683835.83044
     -2686.062  
  24839653.986   130533265.03747      2784.211    24839653.839   101714221.46543
      2169.511  
  21273853.095   111794866.06949     -2431.577    21273853.498    87112879.12447
     -1894.738  
  21151985.486   111154431.55148      1962.977    21151987.705    86613853.32447
      1529.594  
  20076462.840   105502558.61949       851.363    20076461.687    82209800.63648
       663.395  
  22215839.042   116745056.31648      2643.563    22215841.128    90970155.87647
      2059.918  
  22051478.725   117546807.26006     -1541.413           0.000           0.0000 
         0.000  
  20028885.007   106877988.94108      1856.198    20028890.294    83127376.35007
      1443.711  
  20347650.081   108884399.88009     -1459.469    20347653.921    84687895.00608
     -1135.145  
  21574252.318   115286259.74408      2638.550    21574257.296    89667115.24607
      2052.206  
  22518200.983   120414940.29807     -4351.023    22518206.160    93656084.28706
     -3384.137  
  20350704.555   108786178.77507     -2227.808    20350710.989    84611498.60206
     -1732.741  
  21817725.463   116464500.49706      2440.051    21817731.689    90583526.89906
      1897.816  
 20 09 27 07 35  0.0000000  0 16G 8G27G15G13G21G18G24G20G10R10R 2R17
                                R11R24R 1R18
  24624327.240   129401713.62948       530.081    24624329.188   100832513.32844
       413.050  
  24057304.969   126421989.42346     -1313.120    24057307.477    98510655.18046
     -1023.210  
  21105505.910   110910182.79448     -2379.063    21105505.912    86423519.99447
     -1853.820  
  23614463.774   124094846.63948     -3447.883    23614463.398    96697267.54644
     -2686.663  
  24837005.508   130519347.69046      2782.847    24837005.343   101703376.81744
      2168.499  
  21276167.974   111807030.84049     -2434.293    21276168.384    87122358.16447
     -1896.854  
  21150119.326   111144625.03548      1959.871    21150121.550    86606211.88747
      1527.171  
  20075653.991   105498308.15049       848.780    20075652.850    82206488.58448
       661.382  
  22213324.246   116731841.10148      2642.483    22213326.358    90959858.31147
      2059.077  
  22052926.473   117554524.07406     -1545.405           0.000           0.0000 
         0.000  
  20027146.616   106868712.42808      1854.305    20027151.889    83120161.29107
      1442.237  
  20349015.957   108891708.95709     -1464.055    20349019.805    84693579.84408
     -1138.715  
  21571785.131   115273075.72408      2635.051    21571790.088    89656861.01407
      2049.483  
  22522270.044   120436699.46107     -4352.500    22522275.289    93673008.06506
     -3385.281  
  20352789.198   108797322.32407     -2229.452    20352795.628    84620165.80806
     -1734.042  
  21815441.592   116452309.97406      2435.602    21815447.987    90574045.38606
      1894.354  
 20 09 27 07 35  5.0000000  0 16G 8G27G15G13G21G18G24G20G10R10R 2R17
                                R11R24R 1R18
  24623824.260   129399070.63748       527.003    24623826.380   100830453.88444
       410.656  
  24058555.238   126428559.59746     -1315.601    24058557.648    98515774.79545
     -1025.145  
  21107769.979   110922080.52748     -2380.398    21107769.967    86432790.95447
     -1854.859  
  23617744.359   124112086.32348     -3447.972    23617743.983    96710701.05744
     -2686.734  
  24834357.988   130505435.25346      2781.750    24834357.875   101692535.94445
      2167.593  
  21278485.129   111819207.54048     -2436.914    21278485.530    87131846.52247
     -1898.894  
  21148255.909   111134832.89948      1956.770    21148258.153    86598581.65047
      1524.750  
  20074847.282   105494068.86649       846.496    20074846.152    82203185.25848
       659.605  
  22210810.320   116718630.48748      2641.379    22210812.480    90949564.33847
      2058.218  
  22054377.952   117562261.14605     -1549.968           0.000           0.0000 
         0.000  
  20025409.831   106859444.63908      1852.398    20025415.112    83112953.02107
      1440.753  
  20350385.839   108899039.53509     -1468.308    20350389.715    84699281.41108
     -1142.020  
  21569320.887   115259907.60908      2631.831    21569325.876    89646619.14307
      2046.976  
  22526340.193   120458464.06206     -4353.492    22526345.425    93689936.06004
     -3386.059  
  20354875.178   108808473.20707     -2230.577    20354881.660    84628838.71206
     -1734.898  
  21813161.128   116440137.42306      2432.522    21813167.656    90564577.84006
      1891.957  
 20 09 27 07 35 10.0000000  0 16G 8G27G15G13G21G18G24G20G10R10R 2R17
                                R11R24R 1R18
  24623324.202   129396442.94448       523.867    24623326.329   100828406.32144
       408.202  
  24059808.263   126435144.22446     -1318.151    24059810.419    98520905.65245
     -1027.140  
  21110035.790   110933987.47748     -2382.277    21110035.778    86442069.10447
     -1856.319  
  23621025.561   124129329.22248     -3449.026    23621025.149    96724137.10244
     -2687.555  
  24831711.607   130491528.58347      2780.862    24831711.373   101681699.55244
      2166.902  
  21280804.680   111831396.92349     -2439.285    21280805.106    87141344.70447
     -1900.746  
  21146395.429   111125056.13748      1953.680    21146397.657    86590963.38947
      1522.343  
  20074042.843   105489841.57749       844.176    20074041.731    82199891.25948
       657.797  
  22208297.409   116705425.29848      2640.440    22208299.547    90939274.58147
      2057.488  
  22055833.308   117570019.11006     -1553.804           0.000           0.0000 
         0.000  
  20023674.781   106850186.17608      1850.612    20023680.087    83105751.99307
      1439.367  
  20351759.873   108906392.42309     -1472.976    20351763.797    84705000.34308
     -1145.647  
  21566859.784   115246756.25608      2628.315    21566864.765    89636390.31407
      2044.245  
  22530411.532   120480235.12306     -4354.921    22530416.735    93706869.12504
     -3387.163  
  20356962.709   108819632.28907     -2232.644    20356969.215    84637518.00806
     -1736.499  
  21810884.455   116427983.76206      2428.940    21810890.912    90555124.99406
      1889.175  
 20 09 27 07 35 15.0000000  0 13G15G13G18G24G20G10R10R 2R17R11R24R 1
                                R18
  21112303.582   110945904.77248     -2383.862    21112303.573    86451355.31247
     -1857.554  
  23624307.593   124146576.41348     -3449.367    23624307.201    96737576.46344
     -2687.820  
  21283126.882   111843600.18049     -2441.305    21283127.312    87150853.74947
     -1902.319  
  21144538.070   111115295.77448      1951.109    21144540.349    86583357.92847
      1520.347  
  20073240.910   105485627.42049       842.188    20073239.811    82196607.49948
       656.245  
  22205785.794   116692226.79648      2639.805    22205787.971    90928990.03547
      2056.988  
  22057292.835   117577799.14606     -1557.445           0.000           0.0000 
         0.000  
  20021941.682   106840938.21508      1849.082    20021947.044    83098559.12707
      1438.171  
  20353138.345   108913768.81208     -1476.878    20353142.249    84710737.52207
     -1148.687  
  21564401.989   115233622.82508      2625.604    21564407.027    89626175.44106
      2042.137  
  22534484.213   120502013.54907     -4355.878    22534489.401    93723807.89206
     -3387.905  
  20359051.997   108830800.85307     -2234.073    20359058.531    84646204.66106
     -1737.617  
  21808611.510   116415850.47105      2424.973    21808617.971    90545687.97205
      1886.082  
 20 09 27 07 35 20.0000000  0 13G27G15G13G18G24G20G10R10R 2R17R11R24
                                R 1
  24062323.572   126448363.04857     -1325.179    24062325.095    98531197.26754
     -1032.613  
  21114573.727   110957834.46548     -2387.059    21114573.715    86460651.19747
     -1860.046  
  23627590.831   124163829.85548     -3451.414    23627590.384    96751020.67344
     -2689.422  
  21285452.088   111855819.28349     -2445.421    21285452.522    87160375.12547
     -1905.523  
  21142684.206   111105553.78048      1946.585    21142686.503    86575766.77047
      1516.819  
  20072441.883   105481428.50648       838.229    20072440.791    82193335.64447
       653.167  
  22203275.834   116679036.64946      2636.882    22203278.012    90918712.14045
      2054.733  
  22058756.899   117585603.46204     -1563.137           0.000           0.0000 
         0.000  
  20020210.926   106831702.69307      1846.104    20020216.378    83091376.06305
      1435.875  
  20354521.571   108921170.70308     -1483.004    20354525.480    84716494.56307
     -1153.448  
  21561948.030   115220509.32908      2620.683    21561953.013    89615976.04707
      2038.304  
  22538558.627   120523801.52307     -4358.382    22538563.874    93740754.11207
     -3389.855  
  20361143.395   108841980.73207     -2237.316    20361149.963    84654900.10706
     -1740.140  
 20 09 27 07 35 25.0000000  0 14G27G15G13G18G24G20G10R10R 2R17R11R24
                                R 1R18
  24063585.309   126454993.48947     -1327.133    24063587.119    98536363.79645
     -1034.137  
  21116845.265   110969771.47948     -2387.848    21116845.229    86469952.76147
     -1860.659  
  23630874.312   124181084.63448     -3450.813    23630873.835    96764465.97944
     -2688.949  
  21287779.397   111868049.37449     -2446.913    21287779.836    87169905.05746
     -1906.688  
  21140832.908   111095825.26848      1944.625    21140835.198    86568186.10847
      1515.292  
  20071644.809   105477239.91548       837.152    20071643.718    82190071.79647
       652.323  
  22200766.595   116665850.35746      2637.155    22200768.821    90908437.14145
      2054.929  
  22060224.569   117593427.00205     -1566.352           0.000           0.0000 
         0.000  
  20018481.692   106822475.42206      1844.895    20018487.176    83084199.26506
      1434.913  
  20355908.619   108928593.17208     -1486.296    20355912.574    84722267.61807
     -1156.007  
  21559496.853   115207411.01608      2618.621    21559501.836    89605788.47507
      2036.703  
  22542633.892   120545593.88907     -4358.722    22542639.131    93757703.68607
     -3390.124  
  20363236.042   108853167.09907     -2237.979    20363242.606    84663600.65505
     -1740.651  
  21804078.782   116391665.46415      2417.523    21804084.327    90526863.08215
      1880.297  
 20 09 27 07 35 30.0000000  0 14G27G15G13G18G24G20G10R10R 2R17R11R24
                                R 1R18
  24064849.270   126461635.80447     -1330.167    24064851.113    98541539.66946
     -1036.499  
  21119118.054   110981715.03148     -2389.781    21119118.015    86479259.40647
     -1862.171  
  23634157.886   124198339.93248     -3451.793    23634157.426    96777911.64344
     -2689.710  
  21290108.630   111880289.54149     -2449.543    21290109.082    87179442.86647
     -1908.733  
  21138983.985   111086109.45548      1941.370    21138986.320    86560615.35547
      1512.757  
  20070849.530   105473060.66449       834.301    20070848.440    82186815.23248
       650.104  
  22198257.867   116652667.02348      2635.952    22198260.105    90898164.21247
      2053.969  
  22061695.750   117601268.97306     -1571.206           0.000           0.0000 
         0.000  
  20016753.725   106813254.69008      1843.000    20016759.176    83077027.48607
      1433.430  
  20357299.348   108936035.21209     -1490.823    20357303.286    84728055.82408
     -1159.538  
  21557048.310   115194326.77707      2615.102    21557053.298    89595611.87107
      2033.968  
  22546709.880   120567389.83907     -4360.145    22546715.069    93774656.09706
     -3391.227  
  20365329.791   108864358.98207     -2239.309    20365336.285    84672305.41606
     -1741.688  
  21801813.214   116379586.80104      2414.301    21801820.468    90517468.61005
      1877.800  
 20 09 27 07 35 35.0000000  0 15G 8G27G15G13G21G18G24G20G10R10R 2R17
                                R11R24R 1
  24620869.252   129383541.27816       509.257           0.000           0.0000 
         0.000  
  24066115.694   126468290.71746     -1331.777    24066117.555    98546725.31846
     -1037.750  
  21121392.292   110993666.07948     -2390.840    21121392.214    86488571.90447
     -1862.996  
  23637441.749   124215596.71748     -3451.414    23637441.166    96791358.51245
     -2689.417  
  24818497.015   130422084.77956      2776.901    24818491.566   101627561.77651
      2163.819  
  21292439.943   111892540.73848     -2451.276    21292440.406    87188989.24847
     -1910.085  
  21137137.656   111076407.27548      1939.167    21137140.041    86553055.21747
      1511.035  
  20070056.260   105468891.87649       832.809    20070055.150    82183566.81248
       648.938  
  22195749.844   116639487.40148      2635.714    22195752.061    90887894.40847
      2053.800  
  22063170.552   117609130.12205     -1573.800           0.000           0.0000 
         0.000  
  20015027.195   106804041.68908      1841.977    20015032.680    83069861.82407
      1432.641  
  20358693.935   108943497.83508     -1494.457    20358697.860    84733860.10808
     -1162.355  
  21554602.628   115181257.79307      2612.206    21554607.579    89585447.11206
      2031.711  
  22550786.653   120589190.30107     -4360.319    22550791.889    93791611.98206
     -3391.367  
  20367424.635   108875557.40507     -2240.249    20367431.203    84681015.29205
     -1742.425  
 20 09 27 07 35 40.0000000  0 13G27G15G13G18G24G20G10R 2R17R11R24R 1
                                R18
  24067385.412   126474962.94545     -1336.293    24067387.452    98551924.52144
     -1041.253  
  21123668.821   111005629.22348     -2394.016    21123668.733    86497893.86747
     -1865.465  
  23640726.767   124232859.50947     -3453.769    23640726.123    96804809.98443
     -2691.253  
  21294774.232   111904807.48048     -2455.128    21294774.687    87198547.74047
     -1913.089  
  21135294.827   111066723.32748      1934.796    21135297.254    86545509.31047
      1507.632  
  20069265.804   105464738.03448       829.030    20069264.712    82180330.07048
       645.999  
  22193243.422   116626316.28548      2633.238    22193245.717    90877631.19247
      2051.871  
  20013303.042   106794841.21408      1838.573    20013308.520    83062705.92207
      1430.003  
  20360093.233   108950985.69908     -1500.472    20360097.160    84739683.99307
     -1167.039  
  21552160.645   115168208.69908      2607.535    21552165.600    89575297.79607
      2028.077  
  22554865.075   120610999.95807     -4363.230    22554870.408    93808575.06306
     -3393.625  
  20369521.624   108886766.94607     -2243.129    20369528.195    84689733.82805
     -1744.659  
         0.000           0.0000          0.000    21797306.802    90498723.13416
      1870.559  
 20 09 27 07 35 45.0000000  0 15G 8G27G15G13G21G18G24G20G10R 2R17R11
                                R24R 1R18
  24619908.148   129378486.42556       502.383    24619908.770   100814423.23751
       391.469  
  24068658.117   126481650.77245     -1338.394    24068659.949    98557135.87444
     -1042.895  
  21125947.298   111017602.67348     -2395.183    21125947.195    86507223.81947
     -1866.378  
  23644012.588   124250126.64647     -3453.616    23644011.989    96818264.90343
     -2691.133  
  24813219.236   130394351.76715      2772.238           0.000           0.0000 
         0.000  
  21297111.169   111917088.13548     -2457.039    21297111.589    87208117.08847
     -1914.578  
  21133455.141   111057055.87248      1932.266    21133457.596    86537976.21847
      1505.655  
  20068477.886   105460597.43348       827.227    20068476.774    82177103.62747
       644.589  
  22190738.285   116613151.79148      2632.655    22190740.569    90867373.15546
      2051.422  
  20011580.847   106785651.31708      1837.211    20011586.315    83055558.22207
      1428.940  
  20361496.926   108958497.08008     -1504.152    20361500.825    84745526.17507
     -1169.898  
  21549722.004   115155177.65208      2604.737    21549727.008    89565162.53207
      2025.901  
  22558945.010   120632817.01707     -4363.808    22558950.363    93825543.89806
     -3394.074  
  20371620.422   108897985.91307     -2244.218    20371626.939    84698459.67905
     -1745.508  
  21795048.942   116343455.84216      2402.227    21795054.744    90489375.06506
      1868.394  
 20 09 27 07 35 50.0000000  0 15G 8G27G15G13G21G18G24G20G10R 2R17R11
                                R24R 1R18
  24619431.634   129375983.73246       498.852    24619430.459   100812473.01041
       388.715  
  24069933.346   126488351.98945     -1341.422    24069935.129    98562357.55445
     -1045.272  
  21128227.356   111029584.36148     -2397.426    21128227.267    86516560.20747
     -1868.125  
  23647298.860   124267395.96547     -3453.883    23647298.177    96831721.47943
     -2691.343  
  24810582.347   130380492.97945      2771.245    24810583.893   101595195.95953
      2159.413  
  21299450.335   111929380.53648     -2459.781    21299450.777    87217695.57947
     -1916.714  
  21131618.237   111047402.97048      1928.652    21131620.696    86530454.48247
      1502.847  
  20067692.067   105456468.02048       824.551    20067690.981    82173885.90448
       642.507  
  22188234.056   116599991.88548      2631.530    22188236.309    90857118.69347
      2050.543  
  20009860.274   106776470.00808      1835.445    20009865.736    83048417.21407
      1427.570  
  20362904.571   108966029.73508     -1508.851    20362908.490    84751384.90907
     -1173.550  
  21547286.380   115142162.57708      2601.258    21547291.412    89555039.71907
      2023.198  
  22563025.852   120654639.35907     -4365.199    22563031.311    93842516.80006
     -3395.164  
  20373720.516   108909212.15207     -2245.965    20373727.032    84707191.19805
     -1746.866  
  21792800.485   116331454.99206      2398.293    21792806.596    90480041.07106
      1865.340  
 20 09 27 07 35 55.0000000  0 15G 8G27G15G13G21G18G24G20G10R 2R17R11
                                R24R 1R18
  24618958.565   129373498.11346       495.897    24618958.128   100810536.11042
       386.401  
  24071211.579   126495069.21245     -1345.265    24071213.217    98567591.79644
     -1048.253  
  21130509.432   111041576.78348     -2399.305    21130509.332    86525904.94447
     -1869.593  
  23650586.022   124284670.02447     -3455.140    23650585.288    96845181.80444
     -2692.320  
  24807946.217   130366641.64745      2769.645    24807946.233   101584402.74543
      2158.199  
  21301792.235   111941687.20648     -2462.566    21301792.651    87227285.19047
     -1918.886  
  21129784.521   111037766.88448      1925.694    21129787.018    86522945.84847
      1500.542  
  20066908.863   105452352.28848       821.875    20066907.791    82170678.84148
       640.422  
  22185731.141   116586839.10748      2630.047    22185733.456    90846869.77147
      2049.383  
  20008141.743   106767299.65908      1832.996    20008147.209    83041284.72107
      1425.663  
  20364316.696   108973586.33008     -1513.772    20364320.635    84757262.26007
     -1177.383  
  21544854.286   115129166.14008      2597.484    21544859.280    89544931.39607
      2020.266  
  22567108.164   120676469.41407     -4366.772    22567113.679    93859495.69906
     -3396.386  
  20375822.438   108920448.16107     -2248.234    20375828.961    84715930.32005
     -1748.727  
  21790556.157   116319474.80006      2393.859    21790562.311    90470723.15006
      1861.891  
 20 09 27 07 36  0.0000000  0 16G 8G27G15G13G21G18G24G20G10R10R 2R17
                                R11R24R 1R18
  24618488.083   129371023.46545       494.546    24618490.275   100808607.92343
       385.370  
  24072491.733   126501796.34545     -1345.511    24072493.337    98572833.58045
     -1048.472  
  21132792.412   111053573.89648     -2399.488    21132792.281    86535253.33348
     -1869.734  
  23653872.910   124301942.73648     -3454.144    23653872.155    96858641.07044
     -2691.543  
  24805310.614   130352791.80344      2770.148    24805312.729   101573610.67443
      2158.566  
  21304135.672   111954002.11548     -2463.527    21304136.096    87236881.20647
     -1919.636  
  21127952.878   111028141.72348      1924.285    21127955.408    86515445.70947
      1499.437  
  20066127.128   105448244.21449       821.144    20066126.061    82167477.72748
       639.848  
  22183228.417   116573687.35748      2630.491    22183230.759    90836621.67747
      2049.737  
  22070606.514   117648748.51716     -1594.917           0.000           0.0000 
         0.000  
  20006424.155   106758134.27808      1832.930    20006429.616    83034156.10107
      1425.612  
  20365732.136   108981160.57309     -1516.305    20365736.065    84763153.31508
     -1179.352  
  21542424.455   115116182.11008      2595.995    21542429.496    89534832.73807
      2019.112  
  22571190.719   120698301.10707     -4366.233    22571196.280    93876475.88306
     -3395.969  
  20377925.150   108931687.98607     -2247.977    20377931.593    84724672.42806
     -1748.421  
  21788313.734   116307508.94204      2392.211    21788320.597    90461416.37006
      1860.605  
 20 09 27 07 36  5.0000000  0 16G 8G27G15G13G21G18G24G20G10R10R 2R17
                                R11R24R 1R18
  24618021.060   129368567.36846       488.628    24618024.698   100806694.02845
       380.746  
  24073775.170   126508540.78646     -1351.195    24073776.861    98578088.99045
     -1052.882  
  21135077.672   111065583.04948     -2403.598    21135077.540    86544611.11948
     -1872.934  
  23657160.955   124319221.46548     -3456.784    23657160.147    96872105.00444
     -2693.605  
  24802676.640   130338950.64544      2767.222    24802677.762   101562825.30144
      2156.270  
  21306482.063   111966332.57748     -2468.156    21306482.519    87246489.35447
     -1923.241  
  21126124.711   111018534.79448      1918.729    21126127.287    86507959.79747
      1495.113  
  20065348.246   105444151.19249       816.559    20065347.177    82164288.35748
       636.276  
  22180727.308   116560544.12648      2627.167    22180729.658    90826380.21047
      2047.144  
  22072105.820   117656738.84506     -1601.023           0.000           0.0000 
         0.000  
  20004708.914   106748981.42508      1828.883    20004714.383    83027037.21507
      1422.461  
  20367152.278   108988760.04209     -1522.991    20367156.214    84769064.00808
     -1184.554  
  21539998.386   115103218.08608      2590.358    21540003.465    89524749.61707
      2014.722  
  22575275.018   120720141.81407     -4369.684    22575280.599    93893463.08606
     -3398.648  
  20380029.878   108942938.90007     -2251.827    20380036.308    84733423.13406
     -1751.425  
  21786075.881   116295565.31905      2386.094    21786083.135    90452126.87206
      1855.847  
 20 09 27 07 36 10.0000000  0 16G 8G27G15G13G21G18G24G20G10R10R 2R17
                                R11R24R 1R18
  24617557.414   129366130.70545       485.684    24617561.099   100804795.38643
       378.457  
  24075062.073   126515303.57245     -1353.285    24075063.874    98583358.71845
     -1054.507  
  21137365.439   111077605.31348     -2405.195    21137365.301    86553979.11647
     -1874.183  
  23660450.336   124336507.24948     -3457.449    23660449.644    96885574.44444
     -2694.120  
  24800044.901   130325119.45044      2766.351    24800045.738   101552047.60243
      2155.328  
  21308831.616   111978679.68448     -2470.496    21308832.096    87256110.47847
     -1925.066  
  21124300.235   111008947.29648      1916.214    21124302.875    86500489.01247
      1493.152  
  20064572.449   105440074.28949       814.315    20064571.378    82161111.55748
       634.526  
  22178228.023   116547410.45348      2626.301    22178230.380    90816146.17947
      2046.469  
  22073609.722   117664754.18006     -1604.969           0.000           0.0000 
         0.000  
  20002996.191   106739842.07308      1827.094    20003001.649    83019928.82907
      1421.073  
  20368577.346   108996385.83409     -1527.292    20368581.268    84774995.18108
     -1187.898  
  21537576.263   115090275.15408      2587.063    21537581.363    89514682.88507
      2012.159  
  22579361.156   120741992.69907     -4370.823    22579366.815    93910458.20806
     -3399.535  
  20382136.886   108954202.12907     -2253.460    20382143.360    84742183.43106
     -1752.690  
  21783843.209   116283644.72505      2382.766    21783849.917    90442855.30406
      1853.258  
 20 09 27 07 36 15.0000000  0 13G27G15G13G18G24G20G10R10R 2R17R11R24
                                R 1
  24076352.129   126522082.89046     -1357.538    24076354.030    98588641.28746
     -1057.827  
  21139655.346   111089638.88748     -2407.988    21139655.237    86563355.92847
     -1876.354  
  23663740.748   124353798.35448     -3458.729    23663739.953    96899048.02244
     -2695.113  
  21311184.012   111991041.64348     -2474.136    21311184.498    87265743.17147
     -1927.902  
  21122479.111   110999377.44348      1911.906    21122481.812    86493031.99947
      1489.796  
  20063799.365   105436011.70349       810.761    20063798.310    82157945.91248
       631.762  
  22175730.236   116534284.58648      2623.855    22175732.610    90805918.20047
      2044.559  
  22075118.090   117672792.63006     -1610.277           0.000           0.0000 
         0.000  
  20001285.704   106730714.52108      1823.875    20001291.169    83012829.64007
      1418.570  
  20370006.982   109004036.13809     -1532.613    20370010.905    84780945.42608
     -1192.031  
  21535157.749   115077351.56808      2582.352    21535162.866    89504631.20207
      2008.491  
  22583448.885   120763851.87207     -4372.734    22583454.605    93927459.78406
     -3401.019  
  20384245.898   108965475.69307     -2256.059    20384252.310    84750951.74706
     -1754.714  
 20 09 27 07 36 20.0000000  0 15G27G15G13G21G18G24G20G10R10R 2R17R11
                                R24R 1R18
  24077644.562   126528874.51644     -1359.296    24077646.737    98593933.45341
     -1059.187  
  21141946.583   111101679.35448     -2408.058    21141946.460    86572738.10447
     -1876.410  
  23667031.282   124371090.26148     -3457.824    23667030.575    96912522.22544
     -2694.413  
  24794785.387   130297474.20815      2764.757           0.000           0.0000 
         0.000  
  21313538.379   112003413.98848     -2474.977    21313538.880    87275383.97347
     -1928.554  
  21120660.526   110989820.81148      1910.870    21120663.263    86485585.25148
      1488.988  
  20063028.165   105431959.08548       810.159    20063027.132    82154788.03748
       631.293  
  22173233.092   116521162.13546      2624.284    22173235.487    90795692.95946
      2044.897  
  22076629.449   117680849.86804     -1612.520           0.000           0.0000 
         0.000  
  19999576.541   106721594.31807      1823.913    19999582.047    83005736.14906
      1418.601  
  20371440.340   109011706.35908     -1535.508    20371444.257    84786911.13507
     -1194.289  
  21532742.028   115064442.71808      2580.882    21532747.130    89494590.99107
      2007.348  
  22587537.437   120785714.97907     -4372.312    22587543.111    93944464.40306
     -3400.691  
  20386355.993   108976755.23608     -2256.008    20386362.379    84759724.71306
     -1754.676  
  21779388.011   116259869.13616      2375.504    21779394.831    90424357.51015
      1847.613  
 20 09 27 07 36 25.0000000  0 14G 8G27G15G13G18G24G20G10R10R 2R17R11
                                R24R 1
  24616183.541   129358913.60757       477.226    24616185.557   100799163.83353
       371.863  
  24078939.216   126535677.43646     -1362.066    24078941.326    98599234.48546
     -1061.367  
  21144239.011   111113726.14548     -2410.227    21144238.898    86582125.22348
     -1878.101  
  23670321.891   124388382.46548     -3458.801    23670321.162    96925996.69045
     -2695.168  
  21315894.625   112015796.20348     -2477.605    21315895.117    87285032.43247
     -1930.604  
  21118844.319   110980276.82748      1907.156    21118847.123    86478148.40047
      1486.098  
  20062258.746   105427915.75849       807.449    20062257.718    82151637.38348
       629.176  
  22170736.424   116508042.27348      2623.315    22170738.835    90785469.65147
      2044.140  
  22078144.614   117688925.36006     -1617.055           0.000           0.0000 
         0.000  
  19997868.629   106712480.57308      1821.808    19997874.126    82998647.67607
      1416.961  
  20372877.328   109019396.00109     -1540.121    20372881.246    84792891.98108
     -1197.875  
  21530328.926   115051548.04807      2577.190    21530334.046    89484561.80407
      2004.480  
  22591626.487   120807581.34007     -4373.863    22591632.249    93961471.55306
     -3401.902  
  20388467.071   108988040.15807     -2257.886    20388473.444    84768501.88306
     -1756.133  
 20 09 27 07 36 30.0000000  0 14G 8G27G15G13G18G24G20G10R10R 2R17R11
                                R24R 1
  24615731.698   129356536.62644       473.980    24615732.840   100797311.81544
       369.324  
  24080236.596   126542495.30746     -1365.022    24080238.769    98604547.07846
     -1063.660  
  21146533.279   111125782.57448     -2412.270    21146533.136    86591519.84048
     -1879.690  
  23673613.175   124405678.37148     -3459.629    23673612.460    96939474.00745
     -2695.820  
  21318253.369   112028191.58448     -2480.472    21318253.896    87294691.17447
     -1932.839  
  21117031.175   110970748.87848      1904.163    21117033.993    86470724.03147
      1483.765  
  20061491.759   105423885.21649       804.887    20061490.732    82148496.70548
       627.184  
  22168240.966   116494928.74248      2622.203    22168243.409    90775251.29848
      2043.269  
  22079663.505   117697022.09106     -1621.386           0.000           0.0000 
         0.000  
  19996162.668   106703377.21008      1819.605    19996168.148    82991567.29607
      1415.249  
  20374318.580   109027108.40109     -1544.694    20374322.484    84798890.50808
     -1201.434  
  21527919.139   115038671.09507      2573.690    21527924.286    89474546.40207
      2001.762  
  22595716.825   120829454.28107     -4375.320    22595722.614    93978483.84206
     -3403.031  
  20390579.791   108999333.76507     -2259.563    20390586.119    84777285.80806
     -1757.265  
 20 09 27 07 36 35.0000000  0 14G 8G27G15G13G18G24G20G10R10R 2R17R11
                                R24R 1
  24615282.462   129354176.12444       470.737    24615288.601   100795472.48044
       366.797  
  24081536.980   126549328.53146     -1367.629    24081538.931    98609871.68246
     -1065.684  
  21148829.446   111137849.10848     -2414.015    21148829.345    86600922.33648
     -1881.051  
  23676905.258   124422978.32348     -3459.988    23676904.590    96952954.47944
     -2696.098  
  21320614.728   112040600.60648     -2483.073    21320615.238    87304360.54047
     -1934.867  
  21115221.189   110961237.33648      1900.866    21115223.972    86463312.45247
      1481.194  
  20060727.288   105419867.83149       802.473    20060726.259    82145366.28048
       625.305  
  22165746.773   116481821.76148      2620.969    22165749.211    90765038.06748
      2042.312  
  22081186.459   117705140.82706     -1625.831           0.000           0.0000 
         0.000  
  19994458.617   106694284.22308      1817.906    19994464.117    82984494.96407
      1413.921  
  20375764.168   109034844.03709     -1549.214    20375768.063    84804907.10508
     -1204.949  
  21525512.730   115025812.29207      2570.086    21525517.921    89464545.11007
      1998.956  
  22599808.536   120851334.27607     -4376.593    22599814.288    93995501.60006
     -3404.019  
  20392694.215   109010636.66407     -2261.163    20392700.565    84786076.94306
     -1758.687  
 20 09 27 07 36 40.0000000  0 14G27G15G13G18G24G20G10R10R 2R17R11R24
                                R 1R18
  24082840.169   126556176.58545     -1370.949    24082842.129    98615207.77844
     -1068.288  
  21151127.466   111149925.19148     -2416.336    21151127.354    86610332.27048
     -1882.863  
  23680197.981   124440281.76248     -3461.569    23680197.343    96966437.68844
     -2697.331  
  21322978.556   112053022.67248     -2485.879    21322979.075    87314040.05747
     -1937.050  
  21113414.219   110951741.80148      1897.339    21113417.089    86455913.31847
      1478.441  
  20059965.202   105415863.07049       799.526    20059964.178    82142245.68948
       623.007  
  22163253.732   116468720.80548      2619.367    22163256.194    90754829.58047
      2041.074  
  22082713.362   117713280.95305     -1630.440           0.000           0.0000 
         0.000  
  19992756.474   106685201.22908      1815.343    19992761.961    82977430.41707
      1411.934  
  20377213.966   109042602.22709     -1554.147    20377217.861    84810941.26308
     -1208.780  
  21523109.603   115012970.99107      2566.227    21523114.831    89454557.46107
      1995.952  
  22603901.416   120873220.62107     -4377.930    22603907.146    94012524.29006
     -3405.063  
  20394810.275   109021948.18507     -2263.339    20394816.617    84794874.78506
     -1760.402  
         0.000           0.0000          0.000    21770525.506    90387533.04415
      1834.719  
 20 09 27 07 36 45.0000000  0 15G27G15G13G21G18G24G20G10R10R 2R17R11
                                R24R 1R18
  24084146.293   126563040.12604     -1373.870           0.000           0.0000 
         0.000  
  21153427.394   111162011.48848     -2418.348    21153427.329    86619750.18647
     -1884.422  
  23683491.510   124457589.43848     -3461.969    23683490.903    96979924.17344
     -2697.637  
  24781652.983   130228462.23855      2756.589    24781651.621   101476714.29954
      2147.992  
  21325345.027   112065458.55748     -2488.594    21325345.527    87323730.37547
     -1939.163  
  21111610.410   110942262.84748      1894.156    21111613.304    86448527.12147
      1475.964  
  20059205.658   105411871.70348       796.836    20059204.672    82139135.54348
       620.909  
  22160761.991   116455626.83847      2618.116    22160764.503    90744626.48946
      2039.979  
  22084244.362   117721443.17204     -1634.449           0.000           0.0000 
         0.000  
  19991056.391   106676129.10307      1813.327    19991061.825    82970374.34606
      1410.366  
  20378668.109   109050383.89308     -1558.687    20378672.043    84816993.66707
     -1212.312  
  21520709.940   115000148.22908      2562.719    21520715.181    89444584.10907
      1993.210  
  22607995.606   120895114.25107     -4379.410    22608001.418    94029552.70106
     -3406.203  
  20396928.064   109033269.10907     -2265.102    20396934.414    84803679.94305
     -1761.750  
  21768312.275   116200728.20016      2354.645    21768317.624    90378366.04005
      1831.390  
 20 09 27 07 36 50.0000000  0 14G 8G27G15G13G18G24G20G10R10R 2R17R11
                                R24R 1
  24613953.821   129347201.63255       459.979    24613958.377   100790044.81153
       358.425  
  24085456.055   126569923.00146     -1378.104    24085459.504    98625930.30255
     -1073.848  
  21155730.037   111174111.95948     -2420.871    21155729.968    86629179.11047
     -1886.397  
  23686786.572   124474905.25948     -3463.309    23686786.056    96993416.99245
     -2698.688  
  21327714.846   112077912.10748     -2491.702    21327715.349    87333434.40047
     -1941.593  
  21109810.507   110932804.38648      1890.137    21109813.409    86441156.88247
      1472.827  
  20058449.394   105407897.50949       793.773    20058448.410    82136038.74748
       618.519  
  22158272.272   116442543.36748      2616.320    22158274.820    90734431.53048
      2038.684  
  22085780.553   117729631.49406     -1639.526           0.000           0.0000 
         0.000  
  19989359.034   106667071.61908      1810.848    19989364.442    82963329.57508
      1408.426  
  20380127.423   109058192.91209     -1563.809    20380131.338    84823067.35108
     -1216.296  
  21518314.419   114987347.63407      2558.590    21518319.728    89434628.16907
      1990.019  
  22612091.929   120917018.94707     -4381.085    22612097.731    94046589.63006
     -3407.520  
  20399048.331   109044603.30807     -2267.371    20399054.706    84812495.44706
     -1763.512  
 20 09 27 07 36 55.0000000  0 13G27G15G13G18G24G20G10R10R 2R17R11R24
                                R 1
  24086767.849   126576816.86945     -1379.664    24086771.164    98631302.11644
     -1075.073  
  21158033.759   111186218.06649     -2421.391    21158033.707    86638612.40948
     -1886.805  
  23690081.570   124492220.71548     -3462.612    23690081.105    97006909.60544
     -2698.132  
  21330086.381   112090374.79048     -2493.172    21330086.963    87343145.63947
     -1942.722  
  21108012.919   110923358.06147      1888.698    21108015.852    86433796.18548
      1471.726  
  20057694.818   105403932.09548       792.397    20057693.821    82132948.82948
       617.453  
  22155782.989   116429462.22448      2616.171    22155785.545    90724238.45947
      2038.573  
  22087319.880   117737836.97106     -1642.616           0.000           0.0000 
         0.000  
  19987662.763   106658020.02308      1810.128    19987668.170    82956289.44907
      1407.875  
  20381590.201   109066020.59509     -1567.050    20381594.119    84829155.54608
     -1218.819  
  21515921.535   114974560.76007      2556.324    21515926.844    89424682.84307
      1988.254  
  22616188.664   120938926.09107     -4380.992    22616194.495    94063628.53107
     -3407.441  
  20401169.468   109055942.18407     -2267.917    20401175.854    84821314.53806
     -1763.945  
 20 09 27 07 37  0.0000000  0 14G27G15G13G18G24G20G10R10R 2R17R11R24
                                R 1R18
  24088081.898   126583721.74544     -1382.530    24088085.188    98636682.69944
     -1077.276  
  21160338.622   111198330.20348     -2423.155    21160338.584    86648050.46447
     -1888.167  
  23693376.578   124509536.13447     -3463.358    23693375.997    97020402.10443
     -2698.730  
  21332459.768   112102847.05748     -2495.581    21332460.327    87352864.23047
     -1944.617  
  21106217.718   110913924.30748      1885.359    21106220.636    86426445.17247
      1469.105  
  20056941.987   105399975.87748       790.125    20056940.978    82129866.06648
       615.683  
  22153294.216   116416383.66248      2615.008    22153296.802    90714047.37747
      2037.667  
  22088862.700   117746060.47604     -1646.797           0.000           0.0000 
         0.000  
  19985967.809   106648975.23608      1808.227    19985973.179    82949254.67106
      1406.401  
  20383056.578   109073867.34908     -1571.386    20383060.491    84835258.58908
     -1222.195  
  21513531.303   114961788.05408      2552.902    21513536.589    89414748.50806
      1985.590  
  22620285.954   120960836.20407     -4382.526    22620291.773    94080669.69206
     -3408.641  
  20403291.623   109067286.26107     -2269.612    20403297.995    84830137.72505
     -1765.253  
  21761711.840   116165487.34714      2343.813    21761716.486    90350959.82814
      1822.961  
 20 09 27 07 37  5.0000000  0 15G 8G27G15G13G18G24G20G10R10R 2R17R11
                                R24R 1R18
  24612650.554   129340355.26055       452.215    24612648.183   100784724.69053
       352.374  
  24089398.553   126590640.68745     -1385.129    24089401.606    98642073.95944
     -1079.327  
  21162645.121   111210451.06648     -2425.031    21162645.140    86657495.30047
     -1889.632  
  23696672.077   124526854.16047     -3463.925    23696671.444    97033896.65844
     -2699.167  
  21334835.441   112115331.45848     -2498.000    21334836.051    87362592.32746
     -1946.495  
  21104425.422   110904505.60748      1882.163    21104428.305    86419105.93847
      1466.620  
  20056191.376   105396031.41948       787.663    20056190.370    82126792.45248
       613.762  
  22150806.467   116403310.42548      2614.116    22150809.059    90703860.45747
      2036.969  
  22090409.146   117754304.12304     -1651.097           0.000           0.0000 
         0.000  
  19984274.511   106639939.34908      1806.312    19984279.850    82942226.75607
      1404.905  
  20384526.994   109081735.84608     -1575.816    20384530.911    84841378.51408
     -1225.640  
  21511144.109   114949032.17207      2549.375    21511149.498    89404827.26107
      1982.843  
  22624384.257   120982751.79808     -4383.859    22624390.141    94097715.14106
     -3409.671  
  20405415.175   109078637.92407     -2271.203    20405421.565    84838966.79405
     -1766.496  
  21759517.099   116153775.92006      2339.972    21759522.414    90341850.94506
      1819.984  
 20 09 27 07 37 10.0000000  0 15G 8G27G15G13G18G24G20G10R10R 2R17R11
                                R24R 1R18
  24612222.343   129338103.71645       448.559    24612224.166   100782970.19244
       349.516  
  24090718.039   126597574.35245     -1388.164    24090720.813    98647476.92345
     -1081.679  
  21164953.461   111222581.47448     -2427.112    21164953.510    86666947.56548
     -1891.261  
  23699968.265   124544175.68148     -3464.577    23699967.730    97047393.93045
     -2699.680  
  21337213.611   112127828.91948     -2501.008    21337214.216    87372330.61147
     -1948.840  
  21102636.127   110895102.86048      1878.831    21102639.008    86411779.12747
      1464.023  
  20055443.185   105392099.65148       785.023    20055442.202    82123728.73548
       611.703  
  22148319.860   116390243.27748      2612.804    22148322.456    90693678.26347
      2035.953  
  22091959.806   117762569.38905     -1655.469           0.000           0.0000 
         0.000  
  19982583.117   106630913.65108      1804.059    19982588.442    82935206.75407
      1403.152  
  20386001.660   109089626.98408     -1580.620    20386005.551    84847516.06408
     -1229.370  
  21508760.269   114936294.00107      2545.859    21508765.710    89394919.79907
      1980.112  
  22628483.786   121004673.72708     -4385.237    22628489.663    94114765.51306
     -3410.749  
  20407540.392   109089998.23807     -2273.112    20407546.760    84847802.58406
     -1767.979  
  21757326.137   116142084.38606      2336.163    21757332.021    90332757.55206
      1817.016  
 20 09 27 07 37 15.0000000  0 15G 8G27G15G13G18G24G20G10R10R 2R17R11
                                R24R 1R18
  24611796.812   129335869.12745       445.492    24611800.087   100781204.94154
       347.136  
  24092040.533   126604523.66845     -1391.137    24092043.246    98652891.87644
     -1084.012  
  21167263.793   111234722.31948     -2429.203    21167263.845    86676407.97147
     -1892.886  
  23703265.286   124561501.64448     -3465.562    23703264.803    97060894.67545
     -2700.440  
  21339594.456   112140340.34448     -2503.675    21339595.038    87382079.77147
     -1950.922  
  21100850.061   110885717.08348      1875.605    21100852.969    86404465.53447
      1461.507  
  20054697.591   105388181.55648       782.358    20054696.625    82120675.68848
       609.629  
  22145834.603   116377183.22848      2611.633    22145837.171    90683501.59347
      2035.035  
  22093514.510   117770856.89805     -1659.617           0.000           0.0000 
         0.000  
  19980893.814   106621898.86308      1801.805    19980899.071    82928195.26707
      1401.398  
  20387480.727   109097541.70908     -1585.292    20387484.608    84853671.96708
     -1233.004  
  21506380.005   114923574.59207      2542.046    21506385.430    89385026.95407
      1977.148  
  22632584.709   121026602.98808     -4386.273    22632590.566    94131821.59807
     -3411.554  
  20409667.383   109101368.19507     -2274.754    20409673.741    84856645.89706
     -1769.254  
  21755139.935   116130415.76016      2331.878    21755145.724    90323679.38816
      1813.683  
 20 09 27 07 37 20.0000000  0 16G 8G27G15G13G21G18G24G20G10R10R 2R17
                                R11R24R 1R18
  24611374.648   129333650.01845       443.004    24611376.736   100779475.85941
       345.215  
  24093365.665   126611487.18844     -1393.289    24093368.277    98658318.09445
     -1085.676  
  21169575.813   111246872.09348     -2430.538    21169575.840    86685875.35847
     -1893.922  
  23706562.853   124578830.50747     -3465.922    23706562.375    97074397.71243
     -2700.718  
  24763316.267   130132105.20755      2749.112    24763312.826   101401626.15453
      2142.164  
  21341977.645   112152864.24548     -2505.734    21341978.220    87391838.63147
     -1952.523  
  21099066.893   110876346.68847      1872.616    21099069.860    86397163.97247
      1459.187  
  20053954.306   105384275.59948       780.315    20053953.334    82117632.09948
       608.039  
  22143350.439   116364128.85748      2610.511    22143352.968    90673329.38546
      2034.167  
  22095072.996   117779164.97905     -1663.671           0.000           0.0000 
         0.000  
  19979206.232   106612893.60308      1800.320    19979211.479    82921191.16606
      1400.245  
  20388963.869   109105478.48908     -1589.176    20388967.785    84859845.02007
     -1236.026  
  21504002.932   114910872.29706      2538.820    21504008.348    89375147.49206
      1974.651  
  22636686.681   121048537.98008     -4387.422    22636692.570    94148882.13606
     -3412.440  
  20411795.913   109112746.22007     -2276.304    20411802.248    84865495.52505
     -1770.605  
  21752956.538   116118764.29607      2328.452    21752963.035    90314617.16807
      1811.022  
 20 09 27 07 37 25.0000000  0 16G 8G27G15G13G21G18G24G20G10R10R 2R17
                                R11R24R 1R18
  24610955.114   129331445.78845       438.738    24610958.562   100777758.19644
       341.870  
  24094693.428   126618464.37944     -1397.147    24094695.580    98663754.86845
     -1088.688  
  21171889.437   111259030.24148     -2432.640    21171889.474    86695349.20947
     -1895.570  
  23709860.886   124596161.75448     -3467.000    23709860.380    97087902.55645
     -2701.562  
  24760701.891   130118363.82245      2746.895    24760698.449   101390918.50143
      2140.429  
  21344363.093   112165400.07648     -2508.816    21344363.728    87401606.82347
     -1954.925  
  21097286.557   110866991.33447      1869.258    21097289.569    86389874.07247
      1456.562  
  20053213.254   105380381.28348       777.273    20053212.261    82114597.56248
       605.663  
  22140867.251   116351079.51948      2608.977    22140869.753    90663161.06447
      2032.964  
  22096635.361   117787493.29106     -1668.188           0.000           0.0000 
         0.000  
  19977520.359   106603897.39908      1797.871    19977525.589    82914194.13007
      1398.343  
  20390451.059   109113436.77408     -1594.188    20390454.975    84866034.80508
