     2.11           OBSERVATION DATA    M                   RINEX VERSION / TYPE
LEICA GEO OFFICE 8.4                    27-9-20 23:31       PGM / RUN BY / DATE
                                                            OBSERVER / AGENCY
BLHR                                                        MARKER NAME
BLHR                                                        MARKER NUMBER
196020              LEICA GX1230+ GNSS  7.50                REC # / TYPE / VERS
                    LEIAX1203+GNSS                          ANT # / TYPE
 -1119129.6312  3883942.4992  4918552.4209                  APPROX POSITION XYZ
        1.3700        0.0000        0.0000                  ANTENNA: DELTA H/E/N
L1PhaOff:   0.0585  L2PhaOff:   0.0555                      COMMENT
     1     1                                                WAVELENGTH FACT L1/2
     8    C1    L1    D1    S1    P2    L2    D2    S2      # / TYPES OF OBSERV
  2020     9    27     7    33   50.0000000     GPS         TIME OF FIRST OBS
  2020     9    27     9    15   50.0000000     GPS         TIME OF LAST OBS
    18                                                      LEAP SECONDS
    22                                                      # OF SATELLITES
          C1    L1    D1    S1    P2    L2    D2    S2      COMMENT
   G 1     0     0     0     0     0     0     0     0      PRN / # OF OBS
   G 2     0     0     0     0     0     0     0     0      PRN / # OF OBS
   G 3     0     0     0     0     0     0     0     0      PRN / # OF OBS
   G 4     0     0     0     0     0     0     0     0      PRN / # OF OBS
   G 5     0     0     0     0     0     0     0     0      PRN / # OF OBS
   G 6     0     0     0     0     0     0     0     0      PRN / # OF OBS
   G 7     0     0     0     0     0     0     0     0      PRN / # OF OBS
   G 8   383   383   383   383   376   376   376   376      PRN / # OF OBS
   G 9     0     0     0     0     0     0     0     0      PRN / # OF OBS
   G10  1225  1225  1225  1225  1225  1225  1225  1225      PRN / # OF OBS
   G11   331   331   331   331   323   323   323   323      PRN / # OF OBS
   G12   262   260   262   262   261   260   261   261      PRN / # OF OBS
   G13   315   315   315   315   315   315   315   315      PRN / # OF OBS
   G14     0     0     0     0     0     0     0     0      PRN / # OF OBS
   G15  1225  1225  1225  1225  1225  1225  1225  1225      PRN / # OF OBS
   G16     0     0     0     0     0     0     0     0      PRN / # OF OBS
   G17     0     0     0     0     0     0     0     0      PRN / # OF OBS
   G18  1059  1059  1059  1059  1059  1059  1059  1059      PRN / # OF OBS
   G19     0     0     0     0     0     0     0     0      PRN / # OF OBS
   G20  1225  1225  1225  1225  1225  1225  1225  1225      PRN / # OF OBS
   G21  1196  1196  1196  1196  1194  1194  1194  1194      PRN / # OF OBS
   G22     0     0     0     0     0     0     0     0      PRN / # OF OBS
   G23     0     0     0     0     0     0     0     0      PRN / # OF OBS
   G24  1225  1225  1225  1225  1225  1225  1225  1225      PRN / # OF OBS
   G25     0     0     0     0     0     0     0     0      PRN / # OF OBS
   G26     0     0     0     0     0     0     0     0      PRN / # OF OBS
   G27   340   340   340   340   331   331   331   331      PRN / # OF OBS
   G28     0     0     0     0     0     0     0     0      PRN / # OF OBS
   G29     0     0     0     0     0     0     0     0      PRN / # OF OBS
   G30     0     0     0     0     0     0     0     0      PRN / # OF OBS
   G31     0     0     0     0     0     0     0     0      PRN / # OF OBS
   G32  1057  1056  1057  1057  1055  1055  1055  1055      PRN / # OF OBS
   R 1  1175  1175  1175  1175  1175  1175  1175  1175      PRN / # OF OBS
   R 2  1225  1225  1225  1225  1225  1225  1225  1225      PRN / # OF OBS
   R 3  1016  1016  1016  1016  1014  1013  1014  1014      PRN / # OF OBS
   R 4     0     0     0     0     0     0     0     0      PRN / # OF OBS
   R 5     0     0     0     0     0     0     0     0      PRN / # OF OBS
   R 6     0     0     0     0     0     0     0     0      PRN / # OF OBS
   R 7     0     0     0     0     0     0     0     0      PRN / # OF OBS
   R 8     0     0     0     0     0     0     0     0      PRN / # OF OBS
   R 9     0     0     0     0     0     0     0     0      PRN / # OF OBS
   R10   633   633   633   633     0     0     0     0      PRN / # OF OBS
   R11  1225  1225  1225  1225  1225  1225  1225  1225      PRN / # OF OBS
   R12  1140  1140  1140  1140  1139  1138  1139  1139      PRN / # OF OBS
   R13     0     0     0     0     0     0     0     0      PRN / # OF OBS
   R14     0     0     0     0     0     0     0     0      PRN / # OF OBS
   R15     0     0     0     0     0     0     0     0      PRN / # OF OBS
   R16     0     0     0     0     0     0     0     0      PRN / # OF OBS
   R17  1061  1061  1061  1061  1061  1061  1061  1061      PRN / # OF OBS
   R18  1225  1224  1225  1225  1224  1224  1224  1224      PRN / # OF OBS
   R19    82    82    82    82    82    82    82    82      PRN / # OF OBS
   R20     0     0     0     0     0     0     0     0      PRN / # OF OBS
   R21     0     0     0     0     0     0     0     0      PRN / # OF OBS
   R22     0     0     0     0     0     0     0     0      PRN / # OF OBS
   R23     0     0     0     0     0     0     0     0      PRN / # OF OBS
   R24   283   283   283   283   283   283   283   283      PRN / # OF OBS
                                                            END OF HEADER
 20 09 27 07 33 50.0000000  0 14G18G20G27G24G10G13G15R10R 2R11R18R 1
                                R24R17
  21218312.480   111502979.15009       452.507          49.200    21218308.960  
  86885420.74248       452.506          45.400  
  20085155.280   105548221.27909      -168.510          49.350    20085150.380  
  82245391.52948      -168.510          47.850  
  24038569.180   126323519.88906       237.125          39.550    24038567.360  
  98433907.71444       237.125          35.000  
  21165105.680   111223428.00109      -376.329          48.850    21165104.660  
  86667623.42048      -376.330          46.650  
  22246012.600   116903614.35009      -504.192          48.950    22246011.140  
  91093737.54147      -504.192          44.400  
  23600897.140   124023557.33607       655.131          44.350    23600892.660  
  96641718.86245       655.131          36.200  
  21091933.580   110838866.44709       450.485          49.300    21091929.480  
  86367935.98548       450.485          46.300  
  22068528.680   117637674.13007       280.651          44.200                  
                                                
  20048340.220   106981825.18909      -347.631          48.750    20048343.900  
  83208110.13308      -347.631          46.600  
  21613681.080   115496989.49408      -497.919          46.750    21613684.480  
  89831012.31708      -497.920          45.050  
  21865881.000   116721578.80207      -471.137          41.750    21865885.980  
  90783468.79207      -471.137          44.350  
  20345026.920   108755832.25408       413.339          45.450    20345031.860  
  84587891.01107       413.339          41.800  
  22427453.280   119929649.27008       808.191          44.650    22427456.740  
  93278620.56807       808.191          42.300  
  20315215.560   108710836.58609       255.401          48.850    20315216.760  
  84552893.88308       255.401          46.600  
 20 09 27 07 33 55.0000000  0 14G18G20G27G24G10G13G15R10R 2R11R18R 1
                                R24R17
  21220576.360   111514875.81509       453.053          49.300    21220572.820  
  86894690.86348       453.053          45.250  
  20084313.880   105543799.75809      -167.996          49.350    20084308.980  
  82241946.18448      -167.996          47.650  
  24039756.080   126329757.00105       237.684          38.400    24039754.480  
  98438767.79545       237.685          37.350  
  21163225.440   111213547.18909      -375.722          48.950    21163224.400  
  86659924.08648      -375.722          46.550  
  22243492.120   116890369.13309      -503.962          48.950    22243490.620  
  91083416.58848      -503.962          44.550  
  23604173.120   124040773.08207       655.300          44.150    23604168.840  
  96655133.72745       655.300          37.950  
  21094186.860   110850707.52109       450.864          49.300    21094182.740  
  86377162.79448       450.864          46.400  
  22069934.120   117645165.65207       281.521          43.900                  
                                                
  20046602.940   106972554.97009      -347.229          48.950    20046606.660  
  83200899.96308      -347.229          46.750  
  21611193.020   115483694.24608      -497.241          46.550    21611196.420  
  89820671.57408      -497.242          45.350  
  21863527.040   116709013.43607      -470.433          41.700    21863532.020  
  90773695.74208      -470.434          44.600  
  20347094.500   108766884.41308       413.680          45.600    20347099.380  
  84596487.13307       413.680          41.750  
  22431494.920   119951261.88807       808.504          44.000    22431498.400  
  93295430.37507       808.504          42.000  
  20316494.700   108717681.46309       256.293          48.750    20316495.880  
  84558217.66808       256.293          46.650  
 20 09 27 07 34  0.0000000  0 14G18G20G27G24G10G13G15R10R 2R11R18R 1
                                R24R17
  21222842.960   111526786.76009       453.471          49.350    21222839.400  
  86903972.11848       453.472          45.200  
  20083474.980   105539391.43509      -167.633          49.450    20083470.100  
  82238511.12948      -167.632          47.800  
  24040945.880   126336010.05205       238.101          37.200    24040944.700  
  98443640.32145       238.100          37.150  
  21161348.380   111203682.96709      -375.201          49.100    21161347.280  
  86652237.68448      -375.201          46.600  
  22240972.900   116877130.54709      -503.826          49.150    22240971.380  
  91073100.81047      -503.826          44.300  
  23607449.900   124057993.36507       655.405          44.300    23607445.840  
  96668552.12145       655.406          37.550  
  21096442.140   110862559.15309       451.181          49.400    21096438.000  
  86386397.83048       451.181          46.100  
  22071343.700   117652679.53607       282.236          43.750                  
                                                
  20044867.660   106963295.50309      -346.930          49.000    20044871.420  
  83193698.15608      -346.930          46.850  
  21608708.280   115470416.93608      -496.700          46.550    21608711.740  
  89810344.78808      -496.701          45.400  
  21861176.820   116696468.01307      -469.792          41.800    21861181.780  
  90763938.19308      -469.792          44.900  
  20349163.840   108777946.03408       413.926          45.650    20349168.660  
  84605090.60807       413.926          41.650  
  22435538.120   119972882.52108       808.682          45.250    22435541.520  
  93312246.40507       808.682          42.100  
  20317778.320   108724550.29609       257.063          48.950    20317779.480  
  84563560.10008       257.063          46.500  
 20 09 27 07 34  5.0000000  0 14G18G20G27G24G10G13G15R10R 2R11R18R 1
                                R24R17
  21225112.120   111538711.24209       454.130          49.350    21225108.560  
  86913263.92348       454.130          45.450  
  20082638.460   105534995.60009      -167.015          49.350    20082633.600  
  82235085.80948      -167.015          47.950  
  24042138.360   126342278.30805       238.866          35.950    24042137.420  
  98448524.67444       238.867          35.400  
  21159474.320   111193834.58909      -374.487          49.200    21159473.200  
  86644563.63348      -374.487          46.750  
  22238454.800   116863897.85809      -503.482          49.000    22238453.240  
  91062789.63048      -503.482          44.550  
  23610727.440   124075217.41707       655.626          44.050    23610723.420  
  96681973.45045       655.627          37.100  
  21098699.300   110874420.61109       451.660          49.450    21098695.140  
  86395640.52548       451.660          46.100  
  22072757.360   117660215.13407       283.189          43.700                  
                                                
  20043134.300   106954046.26109      -346.440          48.850    20043138.120  
  83186504.30708      -346.440          46.600  
  21606226.780   115457156.86208      -495.915          46.350    21606230.280  
  89800031.41408      -495.915          45.050  
  21858830.180   116683941.76407      -468.954          41.700    21858835.180  
  90754195.56908      -468.954          44.900  
  20351234.860   108789016.41708       414.391          45.450    20351239.560  
  84613700.90406       414.391          41.150  
  22439582.760   119994510.55008       809.076          45.150    22439586.060  
  93329068.19707       809.076          41.950  
  20319066.260   108731442.30709       258.053          48.850    20319067.420  
  84568920.55508       258.053          46.400  
 20 09 27 07 34 10.0000000  0 14G18G20G27G24G10G13G15R10R 2R11R18R 1
                                R24R17
  21227384.020   111550650.17609       454.732          49.250    21227380.460  
  86922566.98648       454.732          45.700  
  20081804.520   105530613.19709      -166.465          49.250    20081799.660  
  82231670.94848      -166.465          48.150  
  24043333.760   126348562.69504       239.518          35.150    24043333.700  
  98453421.61744       239.517          34.350  
  21157603.460   111184002.92209      -373.821          49.100    21157602.280  
  86636902.60548      -373.821          46.400  
  22235937.980   116850672.03509      -503.170          48.950    22235936.420  
  91052483.79548      -503.170          44.650  
  23614005.860   124092446.23207       655.866          43.700    23614001.740  
  96695398.51145       655.866          36.200  
  21100958.520   110886292.82409       452.117          49.350    21100954.320  
  86404891.60048       452.117          46.300  
  22074175.260   117667773.48807       284.065          43.650                  
                                                
  20041402.940   106944807.45709      -345.986          49.000    20041406.760  
  83179318.57408      -345.986          46.650  
  21603748.660   115443914.93108      -495.191          46.900    21603752.240  
  89789732.13608      -495.191          45.300  
  21856487.280   116671435.65007      -468.115          42.200    21856492.360  
  90744468.59408      -468.115          45.400  
  20353307.700   108800096.56308       414.806          45.600    20353312.300  
  84622318.79306       414.806          41.300  
  22443628.920   120016146.80908       809.446          44.800    22443632.160  
  93345896.39607       809.446          41.950  
  20320358.700   108738358.33709       259.005          48.900    20320359.860  
  84574299.68908       259.005          46.450  
 20 09 27 07 34 15.0000000  0 14G18G20G27G24G10G13G15R10R 2R11R18R 1
                                R24R17
  21229658.560   111562602.92009       455.098          49.200    21229654.980  
  86931880.81048       455.098          45.350  
  20080973.020   105526243.56409      -166.148          49.400    20080968.140  
  82228266.04548      -166.148          47.950  
  24044532.180   126354862.52104       240.018          33.850    24044532.660  
  98458330.58344       240.018          33.350  
  21155735.700   111174187.47509      -373.338          49.250    21155734.440  
  86629254.21648      -373.338          46.600  
  22233422.360   116837452.40509      -503.079          49.050    22233420.800  
  91042182.79348      -503.079          44.750  
  23617285.040   124109679.13307       655.874          43.550    23617281.040  
  96708826.72745       655.874          36.850  
  21103219.680   110898175.14009       452.341          49.450    21103215.440  
  86414150.54948       452.340          46.200  
  22075597.280   117675353.78607       284.742          43.600                  
                                                
  20039673.560   106935579.33009      -345.758          48.950    20039677.400  
  83172141.14408      -345.759          46.550  
  21601273.840   115430690.57708      -494.735          46.300    21601277.480  
  89779446.53608      -494.736          45.300  
  21854148.140   116658948.94607      -467.577          42.150    21854153.220  
  90734756.72708      -467.578          45.600  
  20355382.180   108811185.71108       414.979          45.650    20355386.700  
  84630943.68606       414.979          41.000  
  22447676.460   120037790.69607       809.557          44.400    22447679.680  
  93362730.51407       809.558          41.950  
  20321655.460   108745297.79109       259.735          48.650    20321656.660  
  84579697.04108       259.735          46.650  
 20 09 27 07 34 20.0000000  0 14G18G20G27G24G10G13G15R10R 2R11R18R 1
                                R24R17
  21231935.620   111574568.90109       455.652          49.200    21231932.040  
  86941204.94748       455.653          45.550  
  20080143.840   105521886.19909      -165.595          49.450    20080138.980  
  82224870.69848      -165.596          48.150  
  24045733.480   126361177.28404       240.603          33.300    24045734.180  
  98463251.18144       240.603          32.950  
  21153870.840   111164387.47209      -372.694          49.250    21153869.560  
  86621617.85748      -372.694          46.700  
  22230907.820   116824238.44709      -502.791          49.000    22230906.260  
  91031886.20348      -502.792          45.300  
  23620564.900   124126915.51207       656.034          43.650    23620561.080  
  96722257.66845       656.034          37.300  
  21105482.660   110910066.98009       452.753          49.550    21105478.360  
  86423416.92048       452.753          46.150  
  22077023.360   117682955.54107       285.600          43.550                  
                                                
  20037945.980   106926360.62609      -345.343          49.100    20037949.800  
  83164971.04808      -345.343          46.450  
  21598802.220   115417483.32008      -494.017          46.400    21598805.940  
  89769174.22708      -494.017          45.300  
  21851812.580   116646481.18607      -466.747          42.200    21851817.640  
  90725059.59108      -466.747          45.750  
  20357458.260   108822283.41008       415.357          45.450    20357462.700  
  84639575.22706       415.357          41.300  
  22451725.340   120059441.57008       809.898          45.300    22451728.500  
  93379570.05707       809.899          42.000  
  20322956.500   108752260.13908       260.646          48.400    20322957.760  
  84585112.20208       260.646          46.700  
 20 09 27 07 34 25.0000000  0 14G18G20G27G24G10G13G15R10R 2R11R18R 1
                                R24R17
  21234214.820   111586546.25609       455.945          49.150    21234211.260  
  86950537.94348       455.945          45.400  
  20079316.660   105517539.17609      -165.373          49.400    20079311.780  
  82221483.40548      -165.373          48.000  
  24046937.480   126367505.06105       240.967          36.550    24046937.960  
  98468181.91145       240.967          36.700  
  21152008.600   111154601.15609      -372.347          49.200    21152007.260  
  86613992.15648      -372.347          46.550  
  22228394.020   116811028.27309      -502.818          49.300    22228392.460  
  91021592.57148      -502.818          45.450  
  23623845.020   124144153.43207       656.026          43.450    23623841.380  
  96735689.81945       656.026          36.700  
  21107747.080   110921966.47009       452.880          49.600    21107742.740  
  86432689.24548       452.880          46.050  
  22078453.120   117690576.89207       286.195          43.850                  
                                                
  20036219.900   106917149.90909      -345.205          49.200    20036223.700  
  83157807.15808      -345.205          46.400  
  21596333.440   115404291.13308      -493.600          46.150    21596337.220  
  89758913.64108      -493.600          45.400  
  21849480.200   116634030.45807      -466.310          42.750    21849485.240  
  90715375.69108      -466.310          45.900  
  20359535.580   108833387.76308       415.449          45.550    20359539.980  
  84648211.94706       415.449          41.250  
  22455775.200   120081097.53107       809.922          44.250    22455778.260  
  93396413.58307       809.923          41.750  
  20324261.460   108759243.42208       261.281          48.300    20324262.780  
  84590543.64108       261.281          46.600  
 20 09 27 07 34 30.0000000  0 14G18G20G27G24G10G13G15R10R 2R11R18R 1
                                R24R17
  21236496.220   111598535.10509       456.492          49.250    21236492.680  
  86959879.90348       456.492          45.300  
  20078491.460   105513202.71809      -164.832          49.300    20078486.580  
  82218104.34748      -164.832          48.350  
  24048144.100   126373845.96605       241.605          36.900    24048144.780  
  98473122.90645       241.604          35.750  
  21150148.980   111144828.70109      -371.648          49.050    21150147.620  
  86606377.25648      -371.648          46.950  
  22225880.980   116797822.08808      -502.514          48.000    22225879.420  
  91011302.04147      -502.514          43.650  
  23627125.540   124161393.12807       656.154          43.800    23627121.920  
  96749123.32245       656.155          38.400  
  21110012.980   110933873.75209       453.306          49.600    21110008.620  
  86441967.64148       453.306          46.550  
  22079886.600   117698217.89107       287.048          43.250                  
                                                
  20034495.280   106907947.01409      -344.776          48.600    20034499.080  
  83150649.34308      -344.776          45.050  
  21593867.520   115391114.21808      -492.914          46.350    21593871.380  
  89748664.93008      -492.914          45.150  
  21847151.080   116621597.17206      -465.500          39.200    21847156.120  
  90705705.35807      -465.500          42.800  
  20361614.120   108844498.70808       415.803          45.700    20361618.480  
  84656853.78406       415.804          40.950  
  22459826.020   120102758.72507       810.261          44.500    22459829.000  
  93413261.16406       810.261          41.050  
  20325570.380   108766247.83309       262.162          48.950    20325571.720  
  84595991.50908       262.162          47.150  
 20 09 27 07 34 35.0000000  0 13G18G20G24G10G13G15R10R 2R11R18R 1R24
                                R17
  21238780.540   111610539.26909       457.243          49.400    21238777.020  
  86969233.79347       457.244          43.850  
  20077669.000   105508880.64408      -164.143          47.900    20077664.100  
  82214736.50148      -164.144          46.800  
  21148292.780   111135074.09609      -370.814          49.750    21148291.360  
  86598776.26948      -370.813          47.650  
  22223369.420   116784623.77208      -502.081          47.350    22223367.880  
  91001017.64147      -502.081          41.750  
  23630407.160   124178638.45907       656.563          43.450    23630403.520  
  96762561.25545       656.563          36.550  
  21112281.080   110945792.63709       453.906          50.000    21112276.700  
  86451255.07848       453.907          46.200  
  22081324.480   117705882.46208       288.097          45.300                  
                                                
  20032772.960   106898756.29408      -344.174          47.600    20032776.720  
  83143501.02308      -344.175          45.050  
  21591405.220   115377956.53708      -492.012          47.000    21591409.120  
  89738431.18208      -492.012          45.450  
  21844825.820   116609184.81805      -464.488          35.650    21844830.900  
  90696051.32606      -464.489          41.100  
  20363694.640   108855620.35208       416.399          46.100    20363699.000  
  84665503.94307       416.399          41.500  
  22463878.520   120124429.01508       810.712          45.700    22463881.440  
  93430115.81107       810.715          42.250  
  20326883.960   108773277.16908       263.304          45.650    20326885.320  
  84601458.80607       263.302          44.300  
 20 09 27 07 34 40.0000000  0 13G18G20G24G10G13G15R10R 2R11R18R 1R24
                                R17
  21241067.500   111622557.40409       457.593          49.550    21241064.020  
  86978598.55547       457.594          44.200  
  20076849.020   105504571.50709      -163.845          48.550    20076844.100  
  82211378.73648      -163.845          46.700  
  21146439.660   111125335.82209      -370.373          49.450    21146438.220  
  86591187.99748      -370.372          46.800  
  22220859.080   116771431.82608      -502.020          46.800    22220857.540  
  90990738.20047      -502.021          41.750  
  23633689.600   124195887.95307       656.517          43.400    23633686.060  
  96776002.41444       656.516          34.800  
  21114551.120   110957721.75709       454.142          49.550    21114546.700  
  86460550.50448       454.142          45.900  
  22082766.540   117713569.16507       288.753          44.250                  
                                                
  20031052.520   106889575.59708      -343.962          46.900    20031056.240  
  83136360.48408      -343.962          44.800  
  21588946.280   115364816.67808      -491.524          47.350    21588950.220  
  89728211.30008      -491.524          45.950  
  21842504.280   116596792.18704      -464.034          35.250    21842509.300  
  90686412.61706      -464.034          39.900  
  20365776.920   108866751.26308       416.563          45.600    20365781.260  
  84674161.31206       416.563          41.200  
  22467932.500   120146106.97408       810.866          44.550    22467935.320  
  93446976.44507       810.865          43.700  
  20328201.960   108780330.03208       263.948          45.100    20328203.340  
  84606944.39307       263.946          43.850  
 20 09 27 07 34 45.0000000  0 13G18G20G24G10G13G15R10R 2R11R18R 1R24
                                R17
  21243356.420   111634585.75709       458.016          49.750    21243352.980  
  86987971.30048       458.016          46.400  
  20076030.820   105500271.62909      -163.446          48.650    20076025.860  
  82208028.19448      -163.446          46.450  
  21144588.960   111115610.30709      -369.865          49.100    21144587.500  
  86583609.67448      -369.865          46.850  
  22218349.220   116758242.43008      -501.911          46.900    22218347.720  
  90980460.75547      -501.911          42.950  
  23636972.200   124213137.94607       656.540          43.600    23636968.720  
  96789443.96145       656.540          35.500  
  21116822.380   110969657.36209       454.416          49.400    21116817.940  
  86469850.97148       454.417          45.650  
  22084212.000   117721274.17107       289.458          43.750                  
                                                
  20029333.360   106880401.85209      -343.690          48.700    20029337.060  
  83129225.33208      -343.690          46.300  
  21586489.940   115351690.86808      -490.953          46.650    21586493.940  
  89718002.34208      -490.953          45.900  
  21840185.760   116584415.57506      -463.410          41.050    21840190.760  
  90676786.38207      -463.411          43.650  
  20367860.220   108877887.54008       416.765          45.650    20367864.520  
  84682822.86306       416.764          40.650  
  22471987.120   120167788.90507       811.077          42.200    22471989.940  
  93463840.10307       811.078          43.450  
  20329523.640   108787402.59808       264.721          46.600    20329525.040  
  84612445.23007       264.722          43.600  
 20 09 27 07 34 50.0000000  0 13G18G20G24G10G13G15R10R 2R11R18R 1R24
                                R17
  21245647.660   111646626.33909       458.581          49.100    21245644.240  
  86997353.59648       458.580          45.000  
  20075214.760   105495983.15009      -162.874          49.400    20075209.780  
  82204686.51048      -162.874          47.800  
  21142741.040   111105899.40309      -369.194          49.000    21142739.560  
  86576042.76748      -369.195          46.200  
  22215840.320   116745057.96109      -501.565          49.200    22215838.820  
  90970187.16248      -501.565          45.350  
  23640255.160   124230390.58707       656.787          42.850    23640251.700  
  96802887.58045       656.787          37.200  
  21119095.300   110981601.57609       454.871          49.350    21119090.860  
  86479158.15048       454.872          46.550  
  22085661.280   117728999.60407       290.369          43.600                  
                                                
  20027615.820   106871236.62809      -343.226          49.300    20027619.480  
  83122096.83508      -343.226          46.550  
  21584036.640   115338581.18708      -490.215          46.450    21584040.640  
  89707805.94508      -490.216          45.400  
  21837870.540   116572057.02106      -462.606          40.600    21837875.560  
  90667174.16308      -462.607          44.800  
  20369944.940   108889031.32308       417.206          45.650    20369949.200  
  84691490.24806       417.206          41.250  
  22476042.860   120189476.70507       811.361          44.300    22476045.660  
  93480708.43806       811.360          41.300  
  20330849.420   108794497.21908       265.708          48.150    20330850.840  
  84617963.25808       265.709          46.350  
 20 09 27 07 34 55.0000000  0 13G18G20G24G10G13G15R10R 2R11R18R 1R24
                                R17
  21247941.880   111658682.55609       459.284          49.700    21247938.480  
  87006748.02748       459.286          46.300  
  20074401.500   105491709.35309      -162.247          48.750    20074396.520  
  82201356.26248      -162.246          46.150  
  21140896.560   111096206.55109      -368.426          49.350    21140895.060  
  86568489.89348      -368.426          46.700  
  22213332.940   116731881.67207      -501.188          43.750    22213331.480  
  90959919.90146      -501.187          40.950  
  23643539.300   124247649.04807       657.123          41.700    23643535.760  
  96816335.72544       657.123          33.950  
  21121370.460   110993557.68309       455.374          49.650    21121366.040  
  86488474.58648       455.374          46.950  
  22087115.040   117736748.94407       291.330          43.750                  
                                                
  20025900.660   106862084.19708      -342.666          46.350    20025904.320  
  83114978.27608      -342.665          44.800  
  21581587.040   115325491.13608      -489.435          47.650    21581591.020  
  89697624.78808      -489.434          45.900  
  21835559.440   116559720.29004      -461.633          35.400    21835564.460  
  90657578.88605      -461.631          38.250  
  20372031.700   108900186.04008       417.703          46.300    20372035.920  
  84700166.12407       417.704          41.650  
  22480100.320   120211173.83408       811.813          44.700    22480103.100  
  93497583.95307       811.814          41.650  
  20332179.920   108801616.96108       266.700          47.350    20332181.340  
  84623500.80608       266.701          44.800  
 20 09 27 07 35  0.0000000  0 13G18G20G24G10G13G15R10R 2R11R18R 1R24
                                R17
  21250238.440   111670751.09809       459.455          48.550    21250235.080  
  87016152.06847       459.456          42.950  
  20073590.440   105487447.07708      -162.124          48.050    20073585.440  
  82198035.02948      -162.126          46.650  
  21139054.900   111086528.50709      -368.171          48.850    21139053.380  
  86560948.53748      -368.170          45.300  
  22210826.460   116718710.13806      -501.272          39.350    22210825.140  
  90949656.44644      -501.276          34.700  
  23646823.960   124264910.16906       656.814          40.250    23646820.340  
  96829786.02744       656.811          34.950  
  21123647.280   111005522.45609       455.414          49.200    21123642.880  
  86497797.79048       455.414          46.150  
  22088572.600   117744518.87907       291.819          43.350                  
                                                
  20024187.120   106852940.39808      -342.631          46.050    20024190.780  
  83107866.42807      -342.631          43.400  
  21579140.500   115312417.44808      -489.116          47.800    21579144.500  
  89687456.38308      -489.116          45.050  
  21833252.700                        -461.316          39.100                  
                                                
  20374119.900   108911348.47608       417.668          46.000    20374124.080  
  84708848.01206       417.668          41.200  
  22484158.940   120232876.92807       811.710          43.450    22484161.700  
  93514464.12707       811.711          42.000  
  20333514.540   108808758.69407       267.211          43.950    20333515.980  
  84629055.51007       267.210          41.500  
 20 09 27 07 35  5.0000000  0 13G18G20G24G10G13G15R10R 2R11R18R 1R24
                                R17
  21252537.540   111682832.87909       460.072          49.200    21252534.200  
  87025566.45648       460.072          44.850  
  20072781.700   105483197.05708      -161.500          48.500    20072776.700  
  82194723.33348      -161.500          46.200  
  21137216.260   111076866.23609      -367.432          49.200    21137214.700  
  86553419.50948      -367.432          46.350  
  22208321.140   116705544.62706      -500.912          40.850    22208319.960  
  90939397.58746      -500.912          39.350  
  23650109.240   124282174.86507       657.169          43.850    23650105.420  
  96843238.96144       657.173          34.650  
  21125925.900   111017496.67909       455.900          49.050    21125921.500  
  86507128.37848       455.899          45.300  
  22090034.240   117752310.16807       292.731          41.600                  
                                                
  20022475.380   106843806.43608      -342.140          47.100    20022479.100  
  83100762.24607      -342.140          44.250  
  21576697.160   115299360.98008      -488.333          47.350    21576701.180  
  89677301.34208      -488.334          46.000  
  21830947.680   116535083.65506      -460.470          39.900    21830953.300  
  90638417.08607      -460.470          42.000  
  20376209.640   108922519.30908       418.109          44.700    20376213.800  
  84717536.46206       418.108          39.800  
  22488218.860   120254586.93608       812.101          44.650    22488221.580  
  93531349.68107       812.102          42.300  
  20334853.440   108815923.20707       268.201          42.950    20334854.860  
  84634627.89507       268.201          42.900  
 20 09 27 07 35 10.0000000  0 13G18G20G24G10G13G15R10R 2R11R18R 1R24
                                R17
  21254838.580   111694924.95209       460.373          48.750    21254835.260  
  87034988.85047       460.372          42.550  
  20071974.760   105478956.52208      -161.237          48.150    20071969.740  
  82191419.02648      -161.238          46.750  
  21135380.040   111067216.84309      -367.026          48.700    21135378.460  
  86545900.50447      -367.025          44.500  
  22205816.260   116692381.73805      -500.907          37.750    22205815.160  
  90929140.82344      -500.908          34.000  
  23653394.640   124299440.05606       657.083          39.100    23653390.920  
  96856692.42644       657.080          33.600  
  21128205.800   111029477.58709       456.072          49.050    21128201.380  
  86516464.13248       456.073          46.000  
  22091499.300   117760119.89307       293.338          43.600                  
                                                
  20020764.960   106834679.32108      -342.006          46.850    20020768.660  
  83093663.37607      -342.006          43.600  
  21574256.500   115286318.75808      -487.891          47.600    21574260.480  
  89667157.40208      -487.891          44.850  
  21828646.780   116522800.34107      -459.937          41.550    21828651.840  
  90628863.39107      -459.937          43.050  
  20378300.440   108933695.72408       418.230          45.700    20378304.540  
  84726229.22006       418.230          41.150  
  22492279.580   120276300.91006       812.203          41.350    22492282.220  
  93548238.30407       812.203          42.300  
  20336196.040   108823107.55707       268.836          43.700    20336197.440  
  84640215.71607       268.837          41.750  
 20 09 27 07 35 15.0000000  0 13G18G20G24G10G13G15R10R 2R11R18R 1R24
                                R17
  21257142.380   111707031.54409       461.086          48.700    21257139.080  
  87044422.55547       461.087          43.950  
  20071170.400   105474729.58408      -160.554          48.450    20071165.400  
  82188125.31448      -160.554          46.400  
  21133547.100   111057584.55209      -366.210          49.000    21133545.480  
  86538394.82748      -366.210          45.000  
  22203312.820   116679226.10306      -500.471          40.600    22203311.920  
  90918889.69645      -500.471          37.800  
  23656680.980   124316710.15706       657.445          38.950    23656677.220  
  96870149.64444       657.445          34.900  
  21130487.740   111041469.27409       456.638          49.600    21130483.340  
  86525808.29748       456.638          46.550  
  22092968.600   117767952.15308       294.335          44.700                  
                                                
  20019056.620   106825563.16308      -341.384          47.200    20019060.260  
  83086573.04507      -341.385          43.900  
  21571819.320   115273295.14608      -487.025          47.800    21571823.300  
  89657027.92508      -487.025          44.700  
  21826349.620   116510537.45406      -459.027          40.100    21826354.200  
  90619325.60007      -459.028          41.700  
  20380393.120   108944882.02308       418.788          46.250    20380397.140  
  84734929.67306       418.788          41.400  
  22496341.680   120298022.98707       812.647          43.800    22496344.400  
  93565133.25507       812.647          42.200  
  20337543.160   108830316.05408       269.932          45.550    20337544.580  
  84645822.31207       269.933          42.750  
 20 09 27 07 35 20.0000000  0 13G18G20G24G10G13G15R10R 2R11R18R 1R24
                                R17
  21259448.640   111719151.03309       461.441          49.250    21259445.340  
  87053866.30048       461.442          45.250  
  20070368.360   105470514.70209      -160.214          49.250    20070363.320  
  82184840.95848      -160.214          47.950  
  21131717.060   111047967.68509      -365.757          48.900    21131715.460  
  86530901.20348      -365.758          46.250  
  22200810.460   116666075.96308      -500.438          48.350    22200809.520  
  90908642.74347      -500.435          44.000  
  23659967.840   124333983.30607       657.396          42.100    23659964.060  
  96883609.10644       657.399          35.350  
  21132771.440   111053470.13209       456.859          49.400    21132767.020  
  86535159.60448       456.860          45.950  
  22094441.900   117775805.53807       295.019          43.650                  
                                                
  20017350.060   106816456.35509      -341.175          49.100    20017353.640  
  83079489.99708      -341.176          45.850  
  21569385.300   115260288.39808      -486.537          47.400    21569389.280  
  89646911.60808      -486.539          45.450  
  21824056.720   116498294.42508      -458.425          45.450    21824059.940  
  90609800.51208      -458.426          45.750  
  20382487.260   108956076.34208       418.947          45.300    20382491.260  
  84743636.37006       418.946          41.100  
  22500405.020   120319751.71107       812.786          44.400    22500407.800  
  93582033.34707       812.787          41.750  
  20338894.460   108837547.05808       270.631          47.850    20338895.900  
  84651446.45208       270.630          45.650  
 20 09 27 07 35 25.0000000  0 13G18G20G24G10G13G15R10R 2R11R18R 1R24
                                R17
  21261757.560   111731284.47609       462.087          49.100    21261754.280  
  87063320.93948       462.087          45.550  
  20069568.820   105466313.00609      -159.640          49.200    20069563.760  
  82181566.92648      -159.640          47.800  
  21129890.160   111038367.24709      -365.052          48.850    21129888.540  
  86523420.34048      -365.053          46.150  
  22198309.340   116652932.39908      -500.089          48.350    22198308.380  
  90898401.02647      -500.089          44.200  
  23663255.540   124351260.66207       657.716          42.450    23663251.880  
  96897071.97245       657.718          36.500  
  21135057.080   111065481.24609       457.335          49.300    21135052.660  
  86544518.91748       457.335          46.000  
  22095919.340   117783681.14807       295.935          43.450                  
                                                
  20015645.580   106807360.69309      -340.680          49.450    20015649.080  
  83072415.57308      -340.680          45.900  
  21566954.700   115247299.82708      -485.764          46.850    21566958.660  
  89636809.38608      -485.765          45.800  
  21821766.580   116486070.40408      -457.622          45.750    21821770.060  
  90600292.91408      -457.622          45.850  
  20384583.120   108967280.07608       419.374          45.650    20384587.160  
  84752350.38706       419.374          41.350  
  22504469.800   120341487.93008       813.099          45.250    22504472.640  
  93598939.25707       813.100          42.100  
  20340250.100   108844801.67708       271.607          47.850    20340251.620  
  84657088.94008       271.606          45.700  
 20 09 27 07 35 30.0000000  0 13G18G20G24G10G13G15R10R 2R11R18R 1R24
                                R17
  21264068.720   111743429.66509       462.443          49.300    21264065.460  
  87072784.72248       462.443          45.150  
  20068771.340   105462122.26009      -159.309          49.400    20068766.280  
  82178301.40948      -159.310          47.550  
  21128066.020   111028781.20109      -364.581          49.000    21128064.360  
  86515950.70448      -364.581          46.300  
  22195809.060   116639793.22908      -499.978          48.350    22195808.060  
  90888162.72047      -499.978          43.700  
  23666543.620   124368540.04107       657.710          42.700    23666540.160  
  96910536.41945       657.711          35.900  
  21137344.260   111077500.39009       457.560          49.550    21137339.820  
  86553884.48648       457.560          45.900  
  22097400.520   117791576.63107       296.591          43.250                  
                                                
  20013942.620   106798273.26009      -340.445          49.450    20013946.100  
  83065347.57008      -340.445          46.200  
  21564527.040   115234327.08408      -485.258          46.800    21564531.000  
  89626719.49308      -485.259          45.650  
  21819479.960   116473864.18308      -457.023          45.450    21819483.500  
  90590799.18608      -457.022          46.350  
  20386680.280   108978490.83308       419.572          45.550    20386684.380  
  84761069.87306       419.572          41.400  
  22508535.640   120363229.57108       813.241          45.550    22508538.500  
  93615849.40807       813.242          41.850  
  20341609.740   108852077.57008       272.335          47.950    20341611.320  
  84662747.96508       272.335          45.650  
 20 09 27 07 35 35.0000000  0 13G18G20G24G10G13G15R10R 2R11R18R 1R24
                                R17
  21266382.600   111755589.16809       463.061          49.300    21266379.340  
  87082259.65248       463.061          45.300  
  20067976.460   105457945.07209      -158.693          49.600    20067971.380  
  82175046.45748      -158.693          47.950  
  21126245.080   111019212.10209      -363.849          49.000    21126243.420  
  86508494.26748      -363.849          46.450  
  22193310.080   116626661.04809      -499.654          48.700    22193309.080  
  90877929.83948      -499.654          44.650  
  23669832.600   124385823.97107       657.896          43.200    23669829.200  
  96924004.40245       657.896          35.550  
  21139633.460   111089530.16009       458.064          49.700    21139628.980  
  86563258.32848       458.064          46.000  
  22098885.820   117799494.64907       297.535          43.500                  
                                                
  20012241.740   106789196.78309      -339.970          48.850    20012245.160  
  83058288.09508      -339.971          45.900  
  21562102.860   115221372.90208      -484.483          46.900    21562106.760  
  89616644.03908      -484.484          45.450  
  21817197.120   116461678.25507      -456.118          44.250    21817200.840  
  90581321.25208      -456.119          44.600  
  20388779.300   108989711.23408       419.971          45.800    20388783.420  
  84769796.84307       419.971          41.950  
  22512602.960   120384979.13207       813.622          44.050    22512605.820  
  93632765.73107       813.622          42.350  
  20342973.880   108859377.37508       273.286          48.000    20342975.460  
  84668425.57908       273.286          45.900  
 20 09 27 07 35 40.0000000  0 14G18G20G27G24G10G13G15R10R 2R11R18R 1
                                R24R17
  21268697.020   111767751.52209       463.051          49.200    21268693.780  
  87091736.81548       463.051          45.100  
  20067181.960   105453769.90709      -158.743          49.600    20067176.860  
  82171793.08248      -158.743          47.650  
  24065333.300   126464187.49005       249.286          35.500    24065330.700  
  98543508.19544       249.285          31.500  
  21124425.180   111009648.50709      -363.736          49.000    21124423.520  
  86501042.12048      -363.737          46.300  
  22190810.240   116613524.37408      -499.943          48.100    22190809.240  
  90867693.48347      -499.943          43.150  
  23673120.260   124403101.06707       657.480          43.000    23673116.880  
  96937467.08244       657.481          33.900  
  21141922.480   111101559.06409       457.947          49.600    21141918.000  
  86572631.49948       457.947          45.950  
  22100373.260   117807423.58107       297.848          43.350                  
                                                
  20010540.700   106780119.63809      -340.106          49.350    20010544.120  
  83051228.10608      -340.107          46.250  
  21559679.920   115208425.60008      -484.305          47.000    21559683.800  
  89606573.90708      -484.305          45.500  
  21814915.900   116449501.14207      -455.962          43.100    21814919.800  
  90571850.19607      -455.963          44.250  
  20390877.920   109000929.55508       419.797          45.800    20390882.060  
  84778522.20607       419.797          42.050  
  22516669.540   120406724.98907       813.353          44.100    22516672.480  
  93649679.18007       813.353          43.050  
  20344340.320   108866689.52209       273.630          48.600    20344341.940  
  84674112.79808       273.630          46.700  
 20 09 27 07 35 45.0000000  0 14G18G20G27G24G10G13G15R10R 2R11R18R 1
                                R24R17
  21271014.880   111779932.04209       464.200          49.350    21271011.660  
  87101228.12948       464.200          45.450  
  20066390.780   105449612.12309      -157.631          49.550    20066385.660  
  82168553.25248      -157.631          47.800  
  24066580.340   126470744.96305       250.201          38.000    24066578.900  
  98548617.91444       250.199          32.750  
  21122609.220   111000105.66209      -362.518          49.000    21122607.580  
  86493606.13748      -362.518          46.250  
  22188312.480   116600398.56909      -499.060          49.250    22188311.480  
  90857465.58648      -499.060          45.000  
  23676409.540   124420386.62307       658.253          43.150    23676406.360  
  96950936.35944       658.253          33.350  
  21144214.260   111113602.40009       458.891          49.750    21144209.760  
  86582015.91648       458.891          45.850  
  22101865.680   117815378.97407       299.268          42.900                  
                                                
  20008842.460   106771057.44809      -339.078          49.400    20008845.860  
  83044179.73408      -339.078          46.600  
  21557261.200   115195500.69608      -483.063          46.600    21557265.060  
  89596521.20608      -483.063          45.450  
  21812639.220   116437348.47007      -454.581          43.950    21812643.220  
  90562398.12608      -454.581          46.250  
  20392979.100   109012161.49908       420.776          46.000    20392983.240  
  84787258.16307       420.776          41.950  
  22520738.300   120428482.68108       814.262          45.050    22520741.320  
  93666601.81807       814.263          42.750  
  20345711.980   108874029.54909       275.128          48.750    20345713.580  
  84679821.71008       275.128          47.000  
 20 09 27 07 35 50.0000000  0 14G18G20G27G24G10G13G15R10R 2R11R18R 1
                                R24R17
  21273336.800   111792133.90109       464.713          49.300    21273333.600  
  87110736.05748       464.714          44.950  
  20065603.480   105445474.96709      -157.143          49.300    20065598.380  
  82165329.49948      -157.143          47.950  
  24067832.080   126477325.67805       250.820          38.250    24067831.100  
  98553745.73245       250.820          36.750  
  21120797.880   110990586.98309      -361.882          48.900    21120796.240  
  86486188.98848      -361.882          46.750  
  22185817.360   116587286.80609      -498.828          48.950    22185816.360  
  90847248.62648      -498.828          45.600  
  23679701.020   124437683.79307       658.453          43.200    23679697.780  
  96964414.65144       658.453          35.200  
  21146509.380   111125663.39709       459.299          49.600    21146504.860  
  86591414.09848       459.299          46.000  
  22103363.680   117823363.89907       300.056          42.750                  
                                                
  20007147.600   106762013.45409      -338.724          49.250    20007151.020  
  83037145.52508      -338.724          46.550  
  21554847.300   115182601.49908      -482.382          46.300    21554851.140  
  89586488.50908      -482.383          45.200  
  21810367.740   116425223.40107      -453.869          43.400    21810371.860  
  90552967.51708      -453.869          45.950  
  20395083.460   109023410.21808       421.077          45.900    20395087.580  
  84796007.16007       421.077          41.800  
  22524809.900   120450255.46807       814.560          44.400    22524813.000  
  93683536.17507       814.561          42.250  
  20347089.480   108881400.57909       275.993          48.750    20347091.020  
  84685554.73508       275.993          46.700  
 20 09 27 07 35 55.0000000  0 14G18G20G27G24G10G13G15R10R 2R11R18R 1
                                R24R17
  21275661.240   111804348.86809       465.106          49.300    21275658.040  
  87120254.21548       465.106          45.300  
  20064818.560   105441350.19009      -156.760          49.300    20064813.460  
  82162115.39148      -156.761          47.850  
  24069086.640   126483921.18405       251.340          38.050    24069085.880  
  98558885.12445       251.340          35.700  
  21118989.500   110981083.95809      -361.409          49.050    21118987.880  
  86478784.04848      -361.409          46.650  
  22183323.360   116574180.89509      -498.704          49.150    22183322.400  
  90837036.24248      -498.704          45.100  
  23682993.220   124454984.35507       658.511          43.500    23682989.880  
  96977895.62944       658.511          35.300  
  21148806.300   111137733.79309       459.543          49.450    21148801.760  
  86600819.60548       459.543          45.450  
  22104865.640   117831370.21507       300.783          42.600                  
                                                
  20005454.580   106752979.12409      -338.423          49.300    20005457.980  
  83030118.83208      -338.423          46.450  
  21552436.620   115169719.75108      -481.828          46.200    21552440.440  
  89576469.38508      -481.829          45.050  
  21808099.660   116413117.61307      -453.241          43.650    21808103.980  
  90543551.91408      -453.241          45.850  
  20397189.360   109034667.34608       421.325          46.000    20397193.500  
  84804762.70207       421.325          42.100  
  22528882.760   120472034.89708       814.695          44.750    22528885.900  
  93700475.72307       814.696          42.750  
  20348471.200   108888794.38809       276.752          48.600    20348472.740  
  84691305.47808       276.751          46.750  
 20 09 27 07 36  0.0000000  0 14G18G20G27G24G10G13G15R10R 2R11R18R 1
                                R24R17
  21277987.480   111816573.49509       465.383          49.100    21277984.320  
  87129779.89248       465.383          45.250  
  20064035.340   105437234.34709      -156.531          49.250    20064030.240  
  82158908.24448      -156.531          47.900  
  24070343.500   126490527.98005       251.608          37.750    24070343.280  
  98564033.25844       251.609          31.900  
  21117183.480   110971593.26709      -361.043          49.050    21117181.860  
  86471388.70848      -361.043          46.450  
  22180829.820   116561077.37209      -498.700          49.050    22180828.880  
  90826825.70748      -498.700          46.000  
  23686285.380   124472284.88607       658.411          43.550    23686281.980  
  96991376.54545       658.412          35.750  
  21151104.340   111149810.15109       459.659          49.550    21151099.800  
  86610229.74648       459.659          46.050  
  22106370.920   117839394.34307       301.340          42.700                  
                                                
  20003762.720   106743951.17609      -338.298          49.200    20003766.120  
  83023097.08708      -338.298          46.350  
  21550028.580   115156851.84808      -481.406          47.000    21550032.320  
  89566461.02208      -481.407          45.100  
  21805834.740   116401027.55207      -452.746          43.600    21805838.960  
  90534148.53708      -452.746          45.900  
  20399296.180   109045929.51108       421.426          45.800    20399300.340  
  84813522.16007       421.426          41.800  
  22532956.260   120493817.47808       814.676          45.250    22532959.400  
  93717417.73607       814.676          42.200  
  20349856.460   108896207.32809       277.370          48.750    20349858.020  
  84697071.09108       277.370          46.800  
 20 09 27 07 36  5.0000000  0 14G18G20G27G24G10G13G15R10R 2R11R18R 1
                                R24R17
  21280316.140   111828810.77209       465.977          49.050    21280313.000  
  87139315.43348       465.977          45.350  
  20063254.400   105433130.48709      -155.963          49.450    20063249.300  
  82155710.42748      -155.963          47.450  
  24071603.240   126497149.09605       252.223          37.850    24071603.520  
  98569192.54345       252.224          36.900  
  21115380.380   110962117.93609      -360.349          49.150    21115378.760  
  86464005.33348      -360.349          46.250  
  22178337.280   116547979.25909      -498.408          49.200    22178336.400  
  90816619.38748      -498.408          45.750  
  23689578.120   124489588.31407       658.552          43.450    23689574.700  
  97004859.72244       658.552          35.250  
  21153404.080   111161895.43709       460.115          49.550    21153399.540  
  86619646.85048       460.115          45.900  
  22107880.120   117847439.25407       302.240          42.700                  
                                                
  20002072.620   106734932.62309      -337.850          49.200    20002076.040  
  83016082.65208      -337.850          46.100  
  21547623.720   115144000.98108      -480.659          47.050    21547627.400  
  89556465.90808      -480.659          45.050  
  21803573.300   116388956.45607      -451.940          43.550    21803577.620  
  90524759.92408      -451.941          45.750  
  20401404.540   109057199.59908       421.805          45.700    20401408.660  
  84822287.78607       421.804          41.600  
  22537030.820   120515606.15008       815.017          45.450    22537034.020  
  93734364.47107       815.017          41.900  
  20351245.920   108903642.51309       278.300          48.550    20351247.460  
  84702854.00908       278.300          46.700  
 20 09 27 07 36 10.0000000  0 14G18G20G27G24G10G13G15R10R 2R11R18R 1
                                R24R17
  21282647.160   111841060.41009       466.441          49.000    21282644.020  
  87148860.59948       466.441          45.200  
  20062475.660   105429038.28309      -155.530          49.350    20062470.580  
  82152521.69948      -155.531          47.750  
  24072865.880   126503784.33505       252.886          38.000    24072865.520  
  98574362.83444       252.887          35.200  
  21113580.160   110952657.75009      -359.757          49.000    21113578.560  
  86456633.76248      -359.757          46.550  
  22175845.760   116534886.28909      -498.203          49.150    22175844.920  
  90806417.07648      -498.203          46.050  
  23692871.400   124506894.35207       658.716          43.850    23692867.900  
  97018344.94245       658.716          35.800  
  21155705.480   111173989.37609       460.431          49.400    21155700.940  
  86629070.69648       460.431          46.100  
  22109393.140   117855504.68107       302.996          42.650                  
                                                
  20000384.220   106725923.08309      -337.507          49.100    20000387.620  
  83009075.23008      -337.507          45.950  
  21545221.940   115131166.77908      -480.047          46.600    21545225.640  
  89546483.75408      -480.048          44.900  
  21801315.420   116376903.91507      -451.211          43.650    21801319.840  
  90515385.72808      -451.212          45.650  
  20403514.260   109068477.39808       422.092          45.650    20403518.400  
  84831059.40706       422.092          41.350  
  22541106.540   120537400.78708       815.249          44.550    22541109.740  
  93751315.84107       815.250          41.900  
  20352639.440   108911099.65908       279.127          48.450    20352641.020  
  84708654.00708       279.128          46.750  
 20 09 27 07 36 15.0000000  0 15G18G20G27G24G10G21G13G15R10R 2R11R18
                                R 1R24R17
  21284980.600   111853322.70909       466.847          48.950    21284977.460  
  87158415.63748       466.847          45.650  
