     2.11           OBSERVATION DATA    M                   RINEX VERSION / TYPE
LEICA GEO OFFICE 8.4                    27-9-20 23:31       PGM / RUN BY / DATE
                                                            OBSERVER / AGENCY
BLHR                                                        MARKER NAME
BLHR                                                        MARKER NUMBER
196020              LEICA GX1230+ GNSS  7.50                REC # / TYPE / VERS
                    LEIAX1203+GNSS                          ANT # / TYPE
 -1119129.6312  3883942.4992  4918552.4209                  APPROX POSITION XYZ
        1.6060        0.0000        0.0000                  ANTENNA: DELTA H/E/N
L1PhaOff:   0.0585  L2PhaOff:   0.0555                      COMMENT
     1     1                                                WAVELENGTH FACT L1/2
     8    C1    L1    D1    S1    P2    L2    D2    S2      # / TYPES OF OBSERV
  2020     9    27     5    20    5.0000000     GPS         TIME OF FIRST OBS
  2020     9    27     7    31   25.0000000     GPS         TIME OF LAST OBS
    18                                                      LEAP SECONDS
    23                                                      # OF SATELLITES
          C1    L1    D1    S1    P2    L2    D2    S2      COMMENT
   G 1     0     0     0     0     0     0     0     0      PRN / # OF OBS
   G 2    74    74    74    74    74    74    74    74      PRN / # OF OBS
   G 3     0     0     0     0     0     0     0     0      PRN / # OF OBS
   G 4     0     0     0     0     0     0     0     0      PRN / # OF OBS
   G 5   994   994   994   994   994   994   994   994      PRN / # OF OBS
   G 6     0     0     0     0     0     0     0     0      PRN / # OF OBS
   G 7     0     0     0     0     0     0     0     0      PRN / # OF OBS
   G 8    86    86    86    86    84    84    84    84      PRN / # OF OBS
   G 9     0     0     0     0     0     0     0     0      PRN / # OF OBS
   G10   918   918   918   918   918   918   918   918      PRN / # OF OBS
   G11     0     0     0     0     0     0     0     0      PRN / # OF OBS
   G12     0     0     0     0     0     0     0     0      PRN / # OF OBS
   G13  1577  1577  1577  1577  1577  1577  1577  1577      PRN / # OF OBS
   G14     0     0     0     0     0     0     0     0      PRN / # OF OBS
   G15  1577  1577  1577  1577  1577  1577  1577  1577      PRN / # OF OBS
   G16     0     0     0     0     0     0     0     0      PRN / # OF OBS
   G17     0     0     0     0     0     0     0     0      PRN / # OF OBS
   G18  1577  1577  1577  1577  1577  1577  1577  1577      PRN / # OF OBS
   G19     0     0     0     0     0     0     0     0      PRN / # OF OBS
   G20  1577  1577  1577  1577  1577  1577  1577  1577      PRN / # OF OBS
   G21     0     0     0     0     0     0     0     0      PRN / # OF OBS
   G22     0     0     0     0     0     0     0     0      PRN / # OF OBS
   G23     0     0     0     0     0     0     0     0      PRN / # OF OBS
   G24  1085  1085  1085  1085  1084  1084  1084  1084      PRN / # OF OBS
   G25     0     0     0     0     0     0     0     0      PRN / # OF OBS
   G26     0     0     0     0     0     0     0     0      PRN / # OF OBS
   G27  1108  1108  1108  1108  1107  1107  1107  1107      PRN / # OF OBS
   G28     0     0     0     0     0     0     0     0      PRN / # OF OBS
   G29   774   774   774   774   774   774   774   774      PRN / # OF OBS
   G30   749   748   749   749   749   748   749   749      PRN / # OF OBS
   G31     0     0     0     0     0     0     0     0      PRN / # OF OBS
   G32     0     0     0     0     0     0     0     0      PRN / # OF OBS
   R 1  1577  1577  1577  1577  1577  1577  1577  1577      PRN / # OF OBS
   R 2  1248  1248  1248  1248  1247  1247  1247  1247      PRN / # OF OBS
   R 3     0     0     0     0     0     0     0     0      PRN / # OF OBS
   R 4     0     0     0     0     0     0     0     0      PRN / # OF OBS
   R 5     0     0     0     0     0     0     0     0      PRN / # OF OBS
   R 6     0     0     0     0     0     0     0     0      PRN / # OF OBS
   R 7   241   241   241   241   241   241   241   241      PRN / # OF OBS
   R 8  1576  1576  1576  1576  1576  1576  1576  1576      PRN / # OF OBS
   R 9     0     0     0     0     0     0     0     0      PRN / # OF OBS
   R10  1274  1274  1274  1274     0     0     0     0      PRN / # OF OBS
   R11   600   600   600   600   599   599   599   599      PRN / # OF OBS
   R12     0     0     0     0     0     0     0     0      PRN / # OF OBS
   R13     0     0     0     0     0     0     0     0      PRN / # OF OBS
   R14     0     0     0     0     0     0     0     0      PRN / # OF OBS
   R15     0     0     0     0     0     0     0     0      PRN / # OF OBS
   R16    64    64    64    64    64    64    64    64      PRN / # OF OBS
   R17  1577  1577  1577  1577  1577  1577  1577  1577      PRN / # OF OBS
   R18   514   514   514   514   514   514   514   514      PRN / # OF OBS
   R19     0     0     0     0     0     0     0     0      PRN / # OF OBS
   R20     0     0     0     0     0     0     0     0      PRN / # OF OBS
   R21     0     0     0     0     0     0     0     0      PRN / # OF OBS
   R22     0     0     0     0     0     0     0     0      PRN / # OF OBS
   R23  1188  1188  1188  1188  1188  1188  1188  1188      PRN / # OF OBS
   R24  1577  1577  1577  1577  1577  1577  1577  1577      PRN / # OF OBS
                                                            END OF HEADER
 20 09 27 05 20  5.0000000  0 15G30G18G20G 2G 5G13G29G15R16R 1R24R23
                                R17R 7R 8
  23899959.640   125595134.41307        24.486          43.050    23899959.520  
  97866337.83847        24.486          41.750  
  21264137.760   111743799.61409      -425.296          48.600    21264133.920  
  87073073.97948      -425.297          45.250  
  23580644.080   123917111.45106      -604.424          41.200    23580637.500  
  96558806.72644      -604.426          35.200  
  24532783.900   128920644.65508       625.599          44.600    24532780.520  
 100457626.13346       625.600          38.750  
  21871468.900   114935343.61609       500.747          48.650    21871464.640  
  89559990.36448       500.746          45.850  
  20529921.420   107885463.42109       -45.321          49.900    20529916.520  
  84066575.69248       -45.322          46.200  
  22242883.460   116887140.73609       532.910          48.600    22242879.400  
  91080873.03647       532.910          43.400  
  20754019.980   109063111.03909      -422.353          50.300    20754016.320  
  84984228.39948      -422.353          47.300  
  23528811.420   125686683.17205       236.799          36.350    23528815.320  
  97756327.45204       236.797          34.900  
  19779686.340   105733758.03408      -342.484          46.600    19779691.000  
  82237387.80307      -342.484          41.700  
  19766814.860   105702042.09809      -289.773          49.050    19766816.740  
  82212709.64308      -289.774          45.450  
  19454509.920   104068508.92009       342.446          49.550    19454514.600  
  80942192.27907       342.446          41.550  
  23305613.260   124713040.73706      -795.887          41.100    23305616.400  
  96999047.34806      -795.888          40.900  
  22730737.880   121679420.25506       708.154          41.350    22730739.060  
  94639553.68007       708.155          41.700  
  19519151.920   104524171.31508       269.396          48.350    19519151.860  
  81296579.16408       269.396          46.800  
 20 09 27 05 20 10.0000000  0 15G30G18G20G 2G 5G13G29G15R16R 1R24R23
                                R17R 7R 8
  23900083.540   125595786.05307        25.116          42.900    23900083.560  
  97866845.63046        25.116          41.300  
  21262012.360   111732630.70608      -424.882          48.500    21262008.640  
  87064370.94648      -424.883          46.050  
  23577622.540   123901232.93006      -604.220          41.150    23577616.100  
  96546433.87545      -604.221          36.250  
  24535912.420   128937084.49507       625.741          43.050    24535908.900  
 100470436.39846       625.741          40.250  
  21873973.520   114948505.54109       501.031          48.600    21873969.220  
  89570246.41148       501.031          45.900  
  20529696.760   107884283.03809       -44.598          49.900    20529691.880  
  84065655.92048       -44.598          45.950  
  22245549.340   116901149.94309       533.370          48.650    22245545.340  
  91091789.30547       533.371          43.850  
  20751909.840   109052022.12609      -421.760          50.300    20751906.200  
  84975587.69848      -421.761          47.250  
  23529997.720   125693020.13405       237.597          36.250    23530001.620  
  97761256.20604       237.596          35.050  
  19777975.520   105724613.04108      -341.881          46.700    19777980.220  
  82230275.04307      -341.881          41.600  
  19765368.060   105694305.45409      -288.994          49.000    19765369.860  
  82206692.25808      -288.994          45.450  
  19456224.320   104077679.69409       343.264          49.600    19456228.960  
  80949325.11207       343.263          41.600  
  23301634.480   124691749.47307      -795.704          41.650    23301637.620  
  96982487.49306      -795.704          40.850  
  22734279.040   121698375.83706       708.251          41.350    22734280.100  
  94654296.91807       708.251          41.600  
  19520500.400   104531392.39708       269.955          48.400    19520500.380  
  81302195.56708       269.955          46.750  
 20 09 27 05 20 15.0000000  0 15G30G18G20G 2G 5G13G29G15R16R 1R24R23
                                R17R 7R 8
  23900210.260   125596452.17607        25.619          43.350    23900210.260  
  97867364.67946        25.619          40.000  
  21259888.700   111721470.87608      -424.556          48.450    21259885.080  
  87055674.98548      -424.557          45.950  
  23574601.340   123885356.24606      -604.188          40.800    23574594.900  
  96534062.45344      -604.188          33.850  
  24539041.560   128953527.51706       625.846          41.100    24539037.840  
 100483249.15046       625.846          40.000  
  21876479.100   114961672.73309       501.240          48.650    21876474.820  
  89580506.57648       501.240          45.750  
  20529475.240   107883119.12409       -43.988          49.900    20529470.420  
  84064748.99148       -43.988          46.100  
  22248217.240   116915169.77108       533.784          48.400    22248213.280  
  91102713.85347       533.784          44.150  
  20749802.240   109040946.48209      -421.272          50.350    20749798.540  
  84966957.34048      -421.273          47.650  
  23531187.680   125699376.34705       238.405          36.250    23531191.580  
  97766199.93004       238.405          34.350  
  19776267.260   105715481.66308      -341.387          46.700    19776272.040  
  82223172.87107      -341.388          41.500  
  19763924.800   105686587.79309      -288.282          49.050    19763926.540  
  82200689.64308      -288.282          45.600  
  19457942.380   104086870.15909       343.972          49.750    19457947.000  
  80956473.25607       343.972          41.500  
  23297656.540   124670462.24207      -795.517          42.300    23297659.540  
  96965930.77006      -795.518          40.550  
  22737820.480   121717333.09506       708.306          41.000    22737821.440  
  94669041.45407       708.306          41.550  
  19521851.300   104538626.37009       270.422          48.650    19521851.320  
  81307821.99908       270.421          46.700  
 20 09 27 05 20 20.0000000  0 15G30G18G20G 2G 5G13G29G15R16R 1R24R23
                                R17R 7R 8
  23900339.800   125597133.04707        26.112          43.600    23900339.760  
  97867895.23446        26.111          39.400  
  21257766.820   111710320.38209      -424.259          48.700    21257763.340  
  87046986.29748      -424.259          45.250  
  23571580.460   123869481.57506      -604.255          40.900    23571574.060  
  96521692.60644      -604.256          33.950  
  24542171.200   128969973.89708       625.900          45.600    24542167.500  
 100496064.47645       625.901          37.200  
  21878985.740   114974845.44409       501.379          48.700    21878981.480  
  89590771.02848       501.379          45.600  
  20529256.880   107881971.88909       -43.414          49.950    20529252.100  
  84063855.04648       -43.414          45.800  
  22250887.180   116929200.43708       534.122          48.400    22250883.300  
  91113646.83947       534.122          44.250  
  20747697.200   109029884.41409      -420.804          50.350    20747693.480  
  84958337.55348      -420.804          47.100  
  23532381.320   125705752.14105       239.039          36.200    23532385.200  
  97771158.89604       239.039          34.650  
  19774561.620   105706364.20808      -340.918          46.600    19774566.440  
  82216081.52507      -340.918          41.650  
  19762485.140   105678889.27909      -287.631          49.050    19762486.880  
  82194701.91808      -287.631          45.750  
  19459664.140   104096080.38209       344.672          49.650    19459668.700  
  80963636.76407       344.672          41.650  
  23293679.280   124649179.16907      -795.438          42.550    23293682.260  
  96949377.28306      -795.439          40.600  
  22741362.220   121736292.12206       708.290          41.050    22741363.120  
  94683787.36407       708.289          41.700  
  19523204.700   104545873.83009       270.874          48.600    19523204.780  
  81313458.91608       270.874          46.900  
 20 09 27 05 20 25.0000000  0 15G30G18G20G 2G 5G13G29G15R16R 1R24R23
                                R17R 7R 8
  23900471.760   125597826.54107        26.718          43.700    23900471.600  
  97868435.64346        26.717          40.950  
  21255646.320   111699177.05309      -423.895          48.750    21255642.980  
  87038303.18948      -423.896          45.250  
  23568559.600   123853606.85106      -604.037          40.650    23568553.500  
  96509322.69044      -604.038          35.350  
  24545301.100   128986421.56407       626.092          42.450    24545297.520  
 100508880.84846       626.092          40.050  
  21881493.040   114988021.52109       501.600          48.750    21881488.760  
  89601038.10648       501.600          45.750  
  20529041.300   107880839.24209       -42.726          49.950    20529036.540  
  84062972.47448       -42.726          45.750  
  22253558.780   116943239.76909       534.551          48.700    22253554.940  
  91124586.57447       534.551          43.750  
  20745594.360   109018833.71609      -420.277          50.400    20745590.560  
  84949726.62948      -420.278          46.900  
  23533578.140   125712145.23005       239.833          36.700    23533581.980  
  97776131.29704       239.833          34.350  
  19772858.200   105697258.47408      -340.366          46.650    19772862.980  
  82208999.29806      -340.366          41.350  
  19761048.700   105671207.83909      -286.893          49.050    19761050.480  
  82188727.47308      -286.893          45.900  
  19461389.240   104105308.48809       345.441          49.650    19461393.780  
  80970814.18006       345.440          41.300  
  23289702.520   124627898.19507      -795.271          42.650    23289705.380  
  96932825.43006      -795.272          40.750  
  22744903.860   121755250.67706       708.397          40.550    22744904.720  
  94698532.90307       708.397          41.750  
  19524560.220   104553132.32909       271.386          48.550    19524560.280  
  81319104.42408       271.385          46.750  
 20 09 27 05 20 30.0000000  0 15G30G18G20G 2G 5G13G29G15R16R 1R24R23
                                R17R 7R 8
  23900606.660   125598535.60307        27.285          43.600    23900606.500  
  97868988.15946        27.285          40.750  
  21253527.780   111688043.92409      -423.527          48.800    21253524.520  
  87029628.03648      -423.528          45.850  
  23565539.260   123837734.97506      -604.017          40.750    23565533.160  
  96496955.02345      -604.018          36.550  
  24548431.800   129002873.34007       626.231          44.050    24548428.340  
 100521700.36746       626.233          40.650  
  21884001.540   115001203.93709       501.824          48.800    21883997.260  
  89611310.11748       501.824          45.550  
  20528829.060   107879724.12909       -42.121          50.050    20528824.340  
  84062103.55948       -42.121          45.950  
  22256232.600   116957290.72209       534.974          48.850    22256228.820  
  91135535.37147       534.974          43.450  
  20743494.220   109007797.36909      -419.748          50.450    20743490.380  
  84941126.89548      -419.749          46.900  
  23534779.000   125718558.71805       240.479          36.800    23534782.520  
  97781119.57704       240.479          34.550  
  19771157.540   105688167.43108      -339.859          46.600    19771162.240  
  82201928.49507      -339.860          41.650  
  19759615.980   105663546.49709      -286.162          49.100    19759617.840  
  82182768.66208      -286.163          45.900  
  19463118.200   104114557.24709       346.179          49.700    19463122.760  
  80978007.66407       346.178          41.550  
  23285726.720   124606622.33307      -795.063          42.400    23285729.480  
  96916277.54306      -795.063          41.050  
  22748445.900   121774211.88606       708.493          40.800    22748446.860  
  94713280.49907       708.494          41.950  
  19525918.360   104560405.08008       271.891          48.450    19525918.440  
  81324761.01708       271.891          46.800  
 20 09 27 05 20 35.0000000  0 15G30G18G20G 2G 5G13G29G15R16R 1R24R23
                                R17R 7R 8
  23900744.720   125599261.00607        27.957          43.500    23900744.500  
  97869553.43046        27.957          39.750  
  21251411.320   111676921.73909      -423.060          48.900    21251408.100  
  87020961.41348      -423.060          45.650  
  23562519.600   123821866.81506      -603.772          40.650    23562514.020  
  96484590.23345      -603.772          36.100  
  24551563.500   129019330.23008       626.458          45.450    24551560.060  
 100534523.89545       626.460          38.150  
  21886511.380   115014393.42209       502.161          48.800    21886507.100  
  89621587.64248       502.161          45.400  
  20528620.300   107878627.32409       -41.351          50.200    20528615.620  
  84061248.91648       -41.351          45.950  
  22258908.800   116971354.02709       535.506          48.750    22258905.060  
  91146493.79147       535.506          44.200  
  20741396.960   108996776.17009      -419.136          50.450    20741393.100  
  84932538.95748      -419.137          46.850  
  23535983.620   125724993.30705       241.287          36.650    23535987.060  
  97786124.26904       241.286          33.750  
  19769459.760   105679091.98208      -339.204          46.700    19769464.420  
  82194869.82106      -339.204          41.400  
  19758187.160   105655905.92809      -285.319          49.150    19758189.060  
  82176826.00308      -285.319          45.850  
  19464851.240   104123827.56509       347.043          49.700    19464855.720  
  80985217.91507       347.043          41.550  
  23281752.040   124585352.43407      -794.810          42.700    23281754.700  
  96899734.30306      -794.811          40.950  
  22751988.740   121793176.47706       708.630          40.550    22751989.680  
  94728030.73707       708.630          41.850  
  19527279.200   104567692.50408       272.507          48.350    19527279.320  
  81330429.01908       272.506          46.800  
 20 09 27 05 20 40.0000000  0 15G30G18G20G 2G 5G13G29G15R16R 1R24R23
                                R17R 7R 8
  23900885.880   125600002.49907        28.543          43.400    23900885.440  
  97870131.21946        28.542          41.350  
  21249296.880   111665810.25309      -422.704          48.700    21249293.700  
  87012303.12048      -422.704          45.800  
  23559500.660   123806002.02606      -603.813          40.500    23559495.080  
  96472228.08044      -603.814          34.600  
  24554696.140   129035791.87807       626.618          43.800    24554692.700  
 100547351.16646       626.618          39.550  
  21889022.540   115027589.73109       502.387          48.700    21889018.200  
  89631870.49248       502.387          45.400  
  20528414.980   107877548.55809       -40.707          50.200    20528410.340  
  84060408.33148       -40.708          45.800  
  22261587.260   116985429.41109       535.902          48.800    22261583.540  
  91157461.62847       535.902          44.350  
  20739302.540   108985769.87109      -418.592          50.400    20739298.640  
  84923962.63948      -418.592          47.150  
  23537191.980   125731448.71305       242.072          36.600    23537195.480  
  97791145.14004       242.072          33.800  
  19767764.860   105670031.74608      -338.701          46.700    19767769.480  
  82187822.98307      -338.702          41.600  
  19756762.180   105648285.98409      -284.597          49.050    19756764.100  
  82170899.39008      -284.597          45.800  
  19466588.240   104133119.21209       347.801          49.700    19466592.700  
  80992444.76007       347.801          41.700  
  23277778.340   124564088.18307      -794.666          42.600    23277781.000  
  96883195.46006      -794.666          40.850  
  22755532.100   121812144.32006       708.760          41.150    22755533.080  
  94742783.50607       708.759          42.000  
  19528642.840   104574994.68108       273.010          48.050    19528642.980  
  81336108.50008       273.010          46.800  
 20 09 27 05 20 45.0000000  0 15G30G18G20G 2G 5G13G29G15R16R 1R24R23
                                R17R 7R 8
  23901029.980   125600759.60207        29.102          43.550    23901029.460  
  97870721.18746        29.101          40.050  
  21247184.360   111654708.99308      -422.330          48.400    21247181.200  
  87003652.79648      -422.331          45.600  
  23556482.220   123790140.22706      -603.658          40.600    23556476.660  
  96459868.26345      -603.660          36.900  
  24557829.560   129052257.63908       626.740          44.650    24557826.080  
 100560181.61645       626.741          38.200  
  21891534.880   115040792.37709       502.588          48.650    21891530.560  
  89642158.27048       502.588          44.850  
  20528213.020   107876487.34509       -40.047          50.150    20528208.380  
  84059581.41848       -40.048          45.350  
  22264267.940   116999516.50309       536.337          48.650    22264264.280  
  91168438.58147       536.337          43.900  
  20737210.860   108974777.94709      -418.061          50.200    20737206.920  
  84915397.51048      -418.061          47.000  
  23538404.240   125737924.45205       242.895          36.250    23538407.680  
  97796181.83904       242.895          34.000  
  19766072.680   105660986.12808      -338.129          46.750    19766077.320  
  82180787.51707      -338.129          41.550  
  19755340.980   105640686.10609      -283.870          49.100    19755342.860  
  82164988.38908      -283.870          45.650  
  19468329.080   104142431.39909       348.562          49.750    19468333.500  
  80999687.57806       348.562          41.400  
  23273805.580   124542829.15007      -794.429          42.650    23273808.280  
  96866660.67106      -794.430          40.300  
  22759075.920   121831114.48206       708.818          40.950    22759076.960  
  94757538.07007       708.818          41.850  
  19530009.040   104582310.85008       273.528          47.900    19530009.220  
  81341798.86308       273.528          46.600  
 20 09 27 05 20 50.0000000  0 15G30G18G20G 2G 5G13G29G15R16R 1R24R23
                                R17R 7R 8
  23901177.180   125601532.93907        29.701          43.650    23901176.620  
  97871323.80346        29.700          39.450  
  21245073.920   111643618.60808      -421.908          48.350    21245070.780  
  86995010.95048      -421.909          45.750  
  23553464.460   123774282.02006      -603.418          40.000    23553459.180  
  96447511.24145      -603.419          36.600  
  24560963.920   129068728.44908       626.979          44.600    24560960.400  
 100573016.01245       626.979          37.950  
  21894048.560   115054002.02209       502.869          48.650    21894044.240  
  89652451.50148       502.869          44.850  
  20528014.560   107875444.34209       -39.362          50.100    20528009.900  
  84058768.70048       -39.363          45.950  
  22266950.960   117013615.78708       536.803          48.500    22266947.320  
  91179425.04047       536.803          44.000  
  20735122.040   108963801.14509      -417.484          50.150    20735118.080  
  84906844.17448      -417.485          47.150  
  23539620.400   125744421.20105       243.582          36.800    23539623.900  
  97801234.86404       243.582          32.500  
  19764383.420   105651956.07008      -337.604          47.000    19764388.080  
  82173764.15306      -337.605          41.400  
  19753923.660   105633107.09609      -283.103          49.350    19753925.520  
  82159093.61208      -283.104          45.750  
  19470073.940   104151765.17209       349.349          50.000    19470078.400  
  81006947.18407       349.349          41.550  
  23269833.920   124521575.97407      -794.253          42.750    23269836.660  
  96850130.44506      -794.254          40.550  
  22762620.300   121850088.03707       708.938          41.850    22762621.440  
  94772295.28107       708.938          41.750  
  19531378.000   104589641.86308       274.034          48.050    19531378.240  
  81347500.76608       274.033          46.600  
 20 09 27 05 20 55.0000000  0 15G30G18G20G 2G 5G13G29G15R16R 1R24R23
                                R17R 7R 8
  23901327.160   125602321.01507        30.213          43.300    23901326.400  
  97871937.90546        30.212          38.800  
  21242965.260   111632537.60908      -421.604          48.300    21242962.140  
  86986376.42648      -421.605          45.700  
  23550447.120   123758425.82506      -603.468          40.800    23550442.040  
  96435155.77545      -603.468          36.800  
  24564098.880   129085202.52607       627.010          42.150    24564095.380  
 100585852.95046       627.010          40.750  
  21896563.280   115067217.12609       503.002          48.550    21896558.960  
  89662748.99048       503.002          45.350  
  20527819.280   107874418.06509       -38.772          50.150    20527814.600  
  84057969.01848       -38.773          45.800  
  22269636.000   117027725.74909       537.155          48.750    22269632.380  
  91190419.81447       537.155          43.800  
  20733035.820   108952837.92709      -417.048          50.150    20733031.820  
  84898301.41348      -417.048          47.150  
  23540840.200   125750937.35105       244.271          36.550    23540843.740  
  97806303.01204       244.271          32.650  
  19762696.740   105642939.89008      -337.120          47.150    19762701.460  
  82166751.59106      -337.121          41.300  
  19752509.980   105625547.37509      -282.430          49.350    19752511.780  
  82153213.83708      -282.430          45.600  
  19471822.520   104161118.73609       350.041          50.000    19471826.960  
  81014222.18007       350.041          41.550  
  23265863.080   124500327.16107      -794.143          42.800    23265865.860  
  96833603.60206      -794.143          40.200  
  22766165.040   121869063.32307       708.964          42.100    22766166.260  
  94787053.84207       708.964          41.700  
  19532749.480   104596986.13008       274.505          48.100    19532749.700  
  81353212.98208       274.505          46.550  
 20 09 27 05 21  0.0000000  0 15G30G18G20G 2G 5G13G29G15R16R 1R24R23
                                R17R 7R 8
  23901480.140   125603124.86207        30.844          43.150    23901479.200  
  97872564.28946        30.843          39.550  
  21240858.580   111621467.02109      -421.228          48.700    21240855.480  
  86977750.00148      -421.229          45.700  
  23547430.360   123742572.71806      -603.428          40.150    23547425.380  
  96422802.74445      -603.430          37.300  
  24567234.640   129101681.01307       627.182          42.900    24567231.220  
 100598693.30846       627.182          40.000  
  21899079.220   115080438.71309       503.271          48.550    21899074.940  
  89673051.52848       503.271          45.550  
  20527627.340   107873409.49709       -38.109          50.100    20527622.660  
  84057183.13048       -38.110          46.000  
  22272323.280   117041847.41709       537.604          48.700    22272319.600  
  91201423.71147       537.604          43.550  
  20730952.360   108941889.30809      -416.515          50.200    20730948.360  
  84889770.03448      -416.516          47.150  
  23542063.920   125757474.11805       245.021          36.700    23542067.400  
  97811387.16604       245.021          32.300  
  19761012.840   105633938.65308      -336.570          47.100    19761017.660  
  82159750.63307      -336.571          41.500  
  19751100.080   105618007.96609      -281.669          49.450    19751101.840  
  82147349.85608      -281.669          45.600  
  19473575.000   104170493.17509       350.806          49.850    19473579.420  
  81021513.41007       350.807          41.500  
  23261893.060   124479083.70507      -793.943          42.650    23261896.020  
  96817080.93206      -793.944          40.050  
  22769710.320   121888041.31607       709.017          42.150    22769711.560  
  94801814.49707       709.017          41.800  
  19534123.580   104604344.55508       275.040          48.150    19534123.820  
  81358936.20708       275.039          46.550  
 20 09 27 05 21  5.0000000  0 15G30G18G20G 2G 5G13G29G15R16R 1R24R23
                                R17R 7R 8
  23901636.160   125603944.58207        31.436          42.650    23901635.080  
  97873203.04646        31.435          39.450  
  21238753.940   111610406.98709      -420.761          48.900    21238750.840  
  86969131.80548      -420.762          45.150  
  23544414.200   123726722.96906      -603.099          40.150    23544409.440  
  96410452.29845      -603.099          36.900  
  24570371.300   129118164.00807       627.380          43.650    24570367.940  
 100611537.17946       627.381          38.550  
  21901596.420   115093666.88808       503.541          48.300    21901592.180  
  89683359.21148       503.540          45.750  
  20527438.800   107872418.77809       -37.382          50.150    20527434.120  
  84056411.15648       -37.382          45.800  
  22275012.820   117055980.90509       538.096          48.750    22275009.060  
  91212436.82747       538.096          43.700  
  20728871.700   108930955.43709      -415.898          50.200    20728867.720  
  84881250.15148      -415.899          47.100  
  23543291.500   125764031.37605       245.949          35.500    23543294.940  
  97816487.27304       245.949          32.250  
  19759331.780   105624952.42908      -335.962          47.000    19759336.640  
  82152761.36507      -335.963          41.550  
  19749694.040   105610489.02209      -280.870          49.450    19749695.780  
  82141501.80308      -280.871          45.800  
  19475331.400   104179888.57609       351.642          49.750    19475335.820  
  81028820.95007       351.641          41.550  
  23257924.160   124457845.84107      -793.693          42.650    23257927.260  
  96800562.61306      -793.694          39.750  
  22773256.140   121907022.16007       709.169          42.400    22773257.400  
  94816577.38107       709.169          41.850  
  19535500.400   104611717.41708       275.593          48.250    19535500.620  
  81364670.66808       275.593          46.600  
 20 09 27 05 21 10.0000000  0 15G30G18G20G 2G 5G13G29G15R16R 1R24R23
                                R17R 7R 8
  23901795.140   125604780.08307        32.002          42.350    23901793.920  
  97873854.09446        32.001          40.200  
  21236651.300   111599357.36509      -420.462          48.950    21236648.160  
  86960521.71948      -420.462          45.450  
  23541398.620   123710876.23006      -603.164          40.900    23541393.980  
  96398104.22345      -603.165          35.750  
  24573508.740   129134651.24307       627.494          43.250    24573505.500  
 100624384.35946       627.494          39.750  
  21904114.840   115106901.53008       503.701          48.400    21904110.640  
  89693671.91848       503.701          45.550  
  20527253.640   107871445.76709       -36.782          50.100    20527248.940  
  84055652.97148       -36.783          45.950  
  22277704.540   117070126.05809       538.461          48.650    22277700.780  
  91223459.03247       538.461          43.800  
  20726793.820   108920036.18009      -415.411          50.150    20726789.820  
  84872741.65148      -415.412          47.050  
  23544522.860   125770609.21105       246.561          36.300    23544526.240  
  97821603.35404       246.561          31.650  
  19757653.520   105615981.11708      -335.486          47.000    19757658.400  
  82145783.68807      -335.487          41.500  
  19748291.800   105602990.46209      -280.186          49.450    19748293.560  
  82135669.59608      -280.186          45.800  
  19477091.700   104189304.84109       352.329          49.750    19477096.120  
  81036144.71607       352.328          41.750  
  23253956.300   124436613.38007      -793.550          42.900    23253959.480  
  96784048.49206      -793.551          39.400  
  22776802.480   121926005.73807       709.178          42.600    22776803.760  
  94831342.38907       709.178          41.600  
  19536879.820   104619104.36008       276.037          48.300    19536880.080  
  81370416.07508       276.036          46.600  
 20 09 27 05 21 15.0000000  0 15G30G18G20G 2G 5G13G29G15R16R 1R24R23
                                R17R 7R 8
  23901956.980   125605630.80707        32.554          42.400    23901955.640  
  97874517.01146        32.553          39.650  
  21234550.560   111588317.66609      -420.078          49.100    21234547.380  
  86951919.35648      -420.078          45.500  
  23538383.600   123695032.07506      -603.134          40.800    23538379.120  
  96385758.13846      -603.135          38.650  
  24576646.920   129151142.36408       627.564          44.700    24576643.760  
 100637234.57345       627.565          38.150  
  21906634.380   115120142.11208       503.937          48.250    21906630.260  
  89703989.25748       503.937          45.400  
  20527071.760   107870489.93909       -36.152          50.100    20527067.040  
  84054908.17648       -36.152          45.750  
  22280398.400   117084282.34309       538.869          48.650    22280394.600  
  91234489.90147       538.869          43.650  
  20724718.640   108909131.02709      -414.842          50.250    20724714.640  
  84864244.13848      -414.843          46.900  
  23545757.900   125777206.94204       247.342          35.300    23545761.180  
  97826734.92603       247.342          31.000  
  19755977.980   105607024.28008      -334.957          47.050    19755982.880  
  82138817.26407      -334.958          41.650  
  19746893.260   105595511.71409      -279.452          49.400    19746895.040  
  82129852.79808      -279.453          45.850  
  19478855.780   104198741.49009       353.103          49.750    19478860.220  
  81043484.33007       353.103          41.700  
  23249989.420   124415385.84907      -793.370          43.100    23249992.600  
  96767538.19306      -793.371          39.350  
  22780349.200   121944991.43407       709.297          42.400    22780350.520  
  94846109.03107       709.297          41.600  
  19538261.860   104626505.00608       276.568          48.250    19538262.080  
  81376172.13508       276.568          46.650  
 20 09 27 05 21 20.0000000  0 15G30G18G20G 2G 5G13G29G15R16R 1R24R23
                                R17R 7R 8
  23902121.920   125606497.88007        33.296          41.900    23902120.580  
  97875192.65646        33.295          41.250  
  21232451.920   111577289.00209      -419.545          49.150    21232448.660  
  86943325.60048      -419.545          45.600  
  23535369.240   123679191.67206      -602.759          40.900    23535364.840  
  96373415.01245      -602.761          36.850  
  24579786.040   129167638.39807       627.882          42.300    24579782.820  
 100650088.60946       627.882          39.650  
  21909155.260   115133389.72008       504.280          48.000    21909151.200  
  89714312.07148       504.280          45.800  
  20526893.320   107869552.37509       -35.380          50.050    20526888.620  
  84054177.61748       -35.380          46.050  
  22283094.580   117098450.87808       539.384          48.450    22283090.760  
  91245530.32647       539.384          43.750  
  20722646.340   108898241.07309      -414.235          50.250    20722642.360  
  84855758.47148      -414.235          47.300  
  23546996.800   125783825.70905       248.163          35.650    23547000.000  
  97831882.86404       248.162          31.500  
  19754305.360   105598082.97308      -334.285          46.950    19754310.280  
  82131862.92407      -334.285          41.600  
  19745498.640   105588053.93909      -278.591          49.400    19745500.420  
  82124052.31908      -278.591          45.800  
  19480623.880   104208199.60109       353.971          49.800    19480628.340  
  81050840.64307       353.971          41.750  
  23246023.680   124394164.36507      -793.123          43.350    23246026.840  
  96751032.60506      -793.123          39.350  
  22783896.520   121963980.46807       709.462          42.600    22783897.880  
  94860878.27707       709.463          41.550  
  19539646.620   104633920.43808       277.185          48.250    19539646.860  
  81381939.70108       277.185          46.600  
 20 09 27 05 21 25.0000000  0 15G30G18G20G 2G 5G13G29G15R16R 1R24R23
                                R17R 7R 8
  23902289.680   125607379.93007        33.850          41.800    23902288.400  
  97875879.97646        33.850          40.250  
  21230355.120   111566270.00709      -419.177          49.100    21230351.780  
  86934739.37248      -419.177          45.550  
  23532355.400   123663353.54706      -602.732          40.750    23532351.060  
  96361073.60745      -602.732          36.600  
  24582925.740   129184138.02706       627.992          41.350    24582922.620  
 100662945.44546       627.993          40.600  
  21911677.240   115146642.98808       504.519          48.000    21911673.220  
  89724639.29048       504.519          45.200  
  20526718.140   107868631.77909       -34.665          49.900    20526713.440  
  84053460.27048       -34.665          46.200  
  22285792.840   117112630.33208       539.912          48.350    22285789.040  
  91256579.25047       539.912          44.400  
  20720576.700   108887364.98109      -413.668          50.150    20720572.700  
  84847283.60248      -413.668          47.450  
  23548239.440   125790464.19704       248.994          34.850    23548242.660  
  97837046.13703       248.994          30.700  
  19752635.360   105589155.77208      -333.718          47.000    19752640.320  
  82124919.55207      -333.718          41.750  
  19744107.660   105580615.70909      -277.812          49.450    19744109.460  
  82118267.02908      -277.812          45.650  
  19482395.740   104217677.78809       354.756          49.800    19482400.220  
  81058212.56407       354.757          41.750  
  23242058.820   124372947.59607      -792.854          43.250    23242061.960  
  96734530.67906      -792.854          39.100  
  22787444.220   121982971.33707       709.571          42.350    22787445.620  
  94875648.94706       709.571          41.300  
  19541033.920   104641349.29908       277.729          48.400    19541034.160  
  81387717.70208       277.729          46.600  
 20 09 27 05 21 30.0000000  0 15G30G18G20G 2G 5G13G29G15R16R 1R24R23
                                R17R 7R 8
  23902460.160   125608276.21107        34.437          41.800    23902458.920  
  97876578.36646        34.437          40.550  
  21228260.000   111555259.94009      -418.844          49.200    21228256.620  
  86926160.10948      -418.844          45.400  
  23529341.840   123647517.01707      -602.706          41.500    23529337.460  
  96348733.47045      -602.707          37.200  
  24586065.960   129200640.42807       628.092          43.800    24586062.840  
 100675804.44845       628.092          37.300  
  21914200.140   115159901.18208       504.692          47.950    21914196.180  
  89734970.35548       504.691          45.500  
  20526546.020   107867727.34309       -34.115          50.050    20526541.320  
  84052755.52448       -34.115          46.050  
  22288493.020   117126819.91909       540.277          48.650    22288489.260  
  91267636.08147       540.277          44.000  
  20718509.540   108876502.00509      -413.158          50.300    20718505.560  
  84838818.95448      -413.158          47.050  
  23549485.720   125797121.53504       249.653          34.750    23549488.600  
  97842224.07503       249.653          29.800  
  19750967.860   105580241.97308      -333.244          47.000    19750972.860  
  82117986.60507      -333.244          41.700  
  19742720.220   105573196.36909      -277.127          49.550    19742722.020  
  82112496.43808      -277.128          45.700  
  19484171.200   104227175.20309       355.453          49.750    19484175.700  
  81065599.44807       355.453          41.900  
  23238094.680   124351734.82107      -792.725          43.350    23238097.820  
  96718031.85806      -792.725          39.050  
  22790992.100   122001963.35007       709.613          42.050    22790993.600  
  94890420.50606       709.613          41.450  
  19542423.520   104648790.67808       278.157          48.400    19542423.800  
  81393505.44808       278.156          46.700  
 20 09 27 05 21 35.0000000  0 15G30G18G20G 2G 5G13G29G15R16R 1R24R23
                                R17R 7R 8
  23902633.340   125609186.61707        35.116          41.750    23902632.160  
  97877287.78746        35.116          40.400  
  21226166.540   111544258.70709      -418.390          49.100    21226163.160  
  86917587.72648      -418.390          45.450  
  23526328.520   123631682.03106      -602.451          41.050    23526324.300  
  96336394.52945      -602.451          36.900  
  24589206.780   129217145.47306       628.361          39.750    24589203.520  
 100688665.53046       628.360          39.300  
  21916723.980   115173164.18208       504.985          48.100    21916720.060  
  89745305.15648       504.985          45.300  
  20526376.940   107866838.96609       -33.389          50.000    20526372.280  
  84052063.28948       -33.389          45.950  
  22291195.120   117141019.51309       540.715          48.700    22291191.400  
  91278700.69447       540.715          43.850  
  20716444.880   108865652.02809      -412.549          50.200    20716440.880  
  84830364.43748      -412.549          47.250  
  23550735.280   125803797.55004       250.442          34.500    23550738.240  
  97847416.54303       250.441          30.000  
  19749302.820   105571341.34008      -332.660          46.700    19749307.820  
  82111063.89507      -332.660          41.750  
  19741336.280   105565795.72909      -276.313          49.250    19741338.060  
  82106740.38208      -276.313          45.700  
  19485950.220   104236691.82909       356.282          49.550    19485954.760  
  81073001.26907       356.282          41.700  
  23234131.220   124330525.84307      -792.477          43.250    23234134.420  
  96701535.99706      -792.477          38.900  
  22794540.120   122020956.33107       709.723          41.650    22794541.740  
  94905192.82506       709.723          41.200  
  19543815.480   104656244.60608       278.756          48.100    19543815.800  
  81399302.95808       278.755          46.700  
 20 09 27 05 21 40.0000000  0 15G30G18G20G 2G 5G13G29G15R16R 1R24R23
                                R17R 7R 8
  23902810.580   125610118.41307        35.680          42.400    23902809.440  
  97878013.86745        35.680          37.750  
  21224076.180   111533273.60809      -417.938          49.050    21224072.780  
  86909027.91448      -417.938          45.350  
  23523316.860   123615855.77006      -602.298          40.500    23523312.740  
  96324062.39345      -602.299          35.550  
  24592349.500   129233660.47508       628.542          45.900    24592346.280  
 100701534.32445       628.545          36.250  
  21919250.140   115186439.34208       505.308          48.050    21919246.240  
  89755649.43948       505.308          45.450  
  20526212.340   107865973.94509       -32.654          50.050    20526207.680  
  84051389.25148       -32.654          46.200  
  22293900.520   117155236.33909       541.244          48.900    22293896.800  
  91289778.74047       541.244          43.750  
  20714384.080   108854822.37209      -411.918          50.200    20714380.080  
  84821925.75048      -411.919          47.700  
  23551989.860   125810499.75304       251.220          34.500    23551992.760  
  97852629.36003       251.220          29.050  
  19747641.680   105562461.47408      -331.995          46.600    19747646.700  
  82104157.33907      -331.996          41.750  
  19739957.220   105558421.25209      -275.489          49.150    19739958.980  
  82101004.68208      -275.490          45.700  
  19487734.200   104246234.97009       357.144          49.550    19487738.760  
  81080423.71407       357.144          41.850  
  23230169.920   124309328.14207      -792.201          43.250    23230173.160  
  96685048.90706      -792.201          39.300  
  22798089.720   122039957.71206       709.894          41.350    22798091.500  
  94919971.66806       709.894          41.150  
  19545211.140   104663718.40108       279.354          47.900    19545211.500  
  81405115.91108       279.354          46.600  
 20 09 27 05 21 45.0000000  0 15G30G18G20G 2G 5G13G29G15R16R 1R24R23
                                R17R 7R 8
  23902990.560   125611064.09407        36.279          42.000    23902989.460  
  97878750.77946        36.277          40.700  
  21221987.460   111522297.13609      -417.540          49.100    21221984.040  
  86900474.83048      -417.541          45.550  
  23520305.440   123600030.75306      -602.279          40.950    23520301.280  
  96311731.23044      -602.280          35.400  
  24595492.640   129250177.99005       628.780          37.700    24595489.540  
 100714405.13745       628.779          37.900  
  21921777.120   115199719.06908       505.517          47.850    21921773.280  
  89765997.28248       505.517          45.000  
  20526050.720   107865124.77309       -31.980          50.050    20526046.100  
  84050727.56648       -31.980          46.000  
  22296607.760   117169462.87609       541.667          48.950    22296604.040  
  91300864.36147       541.666          44.300  
  20712325.740   108844005.54609      -411.416          50.250    20712321.720  
  84813497.06348      -411.416          47.550  
  23553247.940   125817220.49504       252.019          34.400    23553250.800  
  97857856.62403       252.018          30.200  
  19745982.960   105553594.59308      -331.459          46.550    19745987.960  
  82097260.88607      -331.460          41.650  
  19738581.620   105551065.32209      -274.746          49.150    19738583.400  
  82095283.41308      -274.747          45.700  
  19489521.720   104255797.09109       357.888          49.600    19489526.340  
  81087860.92107       357.888          41.950  
  23226209.300   124288134.10507      -792.027          43.400    23226212.580  
  96668564.66606      -792.027          39.000  
  22801639.460   122058959.85507       709.944          41.700    22801641.420  
  94934751.12306       709.944          40.900  
  19546609.080   104671204.45908       279.844          48.000    19546609.480  
  81410938.40508       279.844          46.650  
 20 09 27 05 21 50.0000000  0 15G30G18G20G 2G 5G13G29G15R16R 1R24R23
                                R17R 7R 8
  23903173.160   125612023.58207        36.835          42.050    23903172.160  
  97879498.42446        36.836          40.000  
  21219900.360   111511329.17609      -417.220          49.200    21219896.880  
  86891928.37448      -417.221          45.550  
  23517294.260   123584206.97206      -602.129          41.100    23517290.160  
  96299401.01545      -602.129          36.650  
  24598636.180   129266697.72707       628.762          43.200    24598633.180  
 100727277.61746       628.763          38.700  
  21924304.980   115213003.20208       505.715          48.050    21924301.160  
  89776348.55548       505.714          44.700  
  20525892.100   107864291.33509       -31.351          50.150    20525887.540  
  84050078.14248       -31.352          46.150  
  22299316.840   117183699.01209       542.014          48.950    22299313.100  
  91311957.45447       542.014          44.150  
  20710269.800   108833201.44809      -410.894          50.300    20710265.800  
  84805078.29148      -410.895          47.550  
  23554509.500   125823959.54604       252.730          34.600    23554512.380  
  97863098.12103       252.729          31.050  
  19744326.660   105544740.76808      -330.965          46.550    19744331.700  
  82090374.59007      -330.966          41.700  
  19737209.440   105543727.84309      -274.052          49.250    19737211.280  
  82089576.49608      -274.053          45.800  
  19491312.740   104265377.91509       358.607          49.650    19491317.440  
  81095312.68107       358.607          41.950  
  23222249.400   124266943.57007      -791.899          43.450    23222252.680  
  96652083.14506      -791.899          39.650  
  22805189.220   122077962.52007       710.017          41.850    22805191.440  
  94949530.98006       710.017          41.100  
  19548009.260   104678702.61108       280.307          48.050    19548009.700  
  81416770.30908       280.307          46.750  
 20 09 27 05 21 55.0000000  0 15G30G18G20G 2G 5G13G29G15R16R 1R24R23
                                R17R 7R 8
  23903358.560   125612997.98407        37.296          42.750    23903357.660  
  97880257.69646        37.296          39.450  
  21217815.080   111500370.89509      -416.973          49.400    21217811.580  
  86883389.45148      -416.973          44.750  
  23514283.480   123568385.38707      -602.239          41.550    23514279.500  
  96287072.53244      -602.241          33.100  
  24601780.300   129283221.08807       628.861          41.500    24601777.420  
 100740152.94545       628.862          37.900  
  21926833.900   115226292.89308       505.792          48.100    21926830.120  
  89786704.15548       505.792          44.700  
  20525736.700   107863474.76909       -30.856          50.200    20525732.200  
  84049441.85748       -30.856          45.900  
  22302027.940   117197945.85409       542.342          48.850    22302024.180  
  91323058.89047       542.342          44.300  
  20708216.500   108822411.19709      -410.500          50.450    20708212.500  
  84796670.31048      -410.500          46.950  
  23555774.740   125830718.30804       253.301          34.200    23555777.540  
  97868354.95503       253.300          31.000  
  19742673.000   105535901.03708      -330.564          46.550    19742678.020  
  82083499.24407      -330.564          41.800  
  19735840.940   105536409.95509      -273.423          49.300    19735842.820  
  82083884.80708      -273.423          45.850  
  19493107.520   104274978.72109       359.227          49.600    19493112.240  
  81102779.97307       359.227          42.200  
  23218290.360   124245757.85107      -791.825          43.550    23218293.660  
  96635605.37006      -791.826          39.800  
  22808739.300   122096967.07206       709.999          41.400    22808741.760  
  94964312.29606       709.999          41.050  
  19549411.940   104686213.94208       280.695          48.050    19549412.380  
  81422612.45508       280.695          46.850  
 20 09 27 05 22  0.0000000  0 15G30G18G20G 2G 5G13G29G15R16R 1R24R23
                                R17R 7R 8
  23903546.940   125613987.83507        37.916          42.700    23903546.060  
  97881029.01146        37.916          40.000  
  21215731.780   111489422.82709      -416.546          49.400    21215728.220  
  86874858.50248      -416.546          44.650  
  23511273.300   123552566.72107      -602.102          41.650    23511269.420  
  96274746.29345      -602.102          36.000  
  24604925.200   129299748.27406       629.045          39.650    24604922.460  
 100753031.25145       629.046          38.150  
  21929363.940   115239588.66808       506.071          48.300    21929360.220  
  89797064.50447       506.071          44.200  
  20525584.620   107862675.62509       -30.135          50.150    20525580.160  
  84048819.14948       -30.135          45.350  
  22304741.160   117212203.94209       542.806          48.750    22304737.420  
  91334169.08847       542.806          43.800  
  20706165.940   108811635.29809      -409.880          50.550    20706161.920  
  84788273.51548      -409.880          47.000  
  23557043.800   125837496.92904       254.142          33.950    23557046.380  
  97873627.24703       254.141          31.200  
  19741022.080   105527075.91808      -329.975          46.650    19741027.080  
  82076635.26707      -329.975          41.850  
  19734476.220   105529112.33309      -272.628          49.400    19734478.140  
  82078208.88608      -272.628          45.850  
  19494906.140   104284600.02709       360.042          49.650    19494910.920  
  81110263.21707       360.041          42.250  
  23214332.320   124224577.39707      -791.563          43.800    23214335.640  
  96619131.69206      -791.563          39.950  
  22812289.820   122115973.83007       710.110          41.850    22812292.520  
  94979095.33806       710.110          40.900  
  19550817.200   104693739.18708       281.245          48.300    19550817.700  
  81428465.43008       281.245          46.900  
 20 09 27 05 22  5.0000000  0 14G30G18G20G 2G 5G13G29G15R 1R24R23R17
                                R 7R 8
  23903737.940   125614991.67607        38.507          42.650    23903737.080  
  97881811.23146        38.507          40.100  
  21213650.100   111478483.50409      -416.156          49.350    21213646.460  
  86866334.35648      -416.156          44.600  
  23508263.380   123536749.35606      -601.937          41.150    23508259.460  
  96262421.09145      -601.938          37.450  
  24608070.640   129316277.94407       629.166          44.150    24608067.880  
 100765911.47045       629.168          37.250  
  21931894.880   115252889.07708       506.313          48.200    21931891.180  
  89807428.46148       506.313          44.950  
  20525435.540   107861892.34909       -29.477          50.000    20525431.140  
  84048208.81048       -29.477          46.050  
  22307456.260   117226471.76109       543.236          48.550    22307452.500  
  91345286.87147       543.236          44.300  
  20704117.820   108800872.29909      -409.348          50.550    20704113.780  
  84779886.77748      -409.349          46.850  
  19739373.620   105518263.87208      -329.415          46.750    19739378.600  
  82069781.45907      -329.415          41.800  
  19733114.980   105521833.21109      -271.872          49.400    19733116.900  
  82072547.35008      -271.872          45.900  
  19496708.300   104294240.30909       360.817          49.850    19496713.160  
  81117761.21607       360.817          42.100  
  23210374.960   124203400.72707      -791.392          44.000    23210378.320  
  96602660.95906      -791.392          40.250  
  22815840.440   122134981.42007       710.200          41.800    22815843.420  
  94993879.02406       710.199          40.450  
  19552224.740   104701276.48108       281.759          48.400    19552225.260  
  81434327.77008       281.759          46.950  
 20 09 27 05 22 10.0000000  0 14G30G18G20G 2G 5G13G29G15R 1R24R23R17
                                R 7R 8
  23903931.580   125616009.35807        38.963          43.250    23903930.680  
  97882604.24445        38.963          38.200  
  21211570.080   111467552.81009      -415.900          49.350    21211566.340  
  86857816.93647      -415.900          44.450  
  23505253.700   123520933.35206      -601.918          40.800    23505249.780  
  96250096.93445      -601.918          36.700  
  24611216.560   129332810.01706       629.210          40.250    24611213.680  
 100778793.63646       629.209          39.600  
  21934426.720   115266194.03508       506.422          47.850    21934423.000  
  89817795.96548       506.422          44.900  
  20525289.480   107861124.88709       -28.927          50.050    20525285.140  
  84047610.79148       -28.927          45.900  
  22310173.160   117240749.19009       543.490          48.700    22310169.420  
  91356412.14047       543.490          44.150  
  20702072.140   108790122.08609      -408.929          50.450    20702068.080  
  84771509.99248      -408.929          47.050  
  19737727.560   105509464.86408      -329.009          46.700    19737732.560  
  82062937.79007      -329.009          41.750  
  19731757.220   105514572.66409      -271.244          49.400    19731759.140  
  82066900.25808      -271.244          45.950  
  19498513.980   104303899.35609       361.446          49.950    19498518.880  
  81125273.80907       361.446          42.100  
  23206418.300   124182227.73607      -791.312          44.150    23206421.680  
  96586193.08706      -791.312          40.150  
  22819391.280   122153989.68407       710.210          42.000    22819394.420  
  95008663.23106       710.210          40.250  
  19553634.540   104708826.03008       282.147          48.400    19553635.100  
  81440199.65008       282.147          47.000  
 20 09 27 05 22 15.0000000  0 14G30G18G20G 2G 5G13G29G15R 1R24R23R17
                                R 7R 8
  23904128.300   125617043.05507        39.711          43.100    23904127.320  
  97883409.72446        39.711          38.850  
  21209492.140   111456632.93009      -415.334          49.350    21209488.280  
  86849307.94147      -415.334          44.450  
  23502244.580   123505120.71606      -601.711          40.550    23502240.720  
  96237775.42945      -601.712          37.950  
  24614363.340   129349346.51006       629.507          41.400    24614360.380  
 100791679.18845       629.506          37.800  
  21936959.820   115279505.55808       506.799          48.000    21936956.080  
  89828168.58048       506.799          45.150  
  20525146.860   107860375.36409       -28.110          50.100    20525142.520  
  84047026.75348       -28.110          45.950  
  22312892.320   117255038.42809       544.128          48.800    22312888.600  
  91367546.61547       544.128          43.600  
  20700029.300   108779386.82909      -408.218          50.350    20700025.220  
