     2.11           OBSERVATION DATA    M                   RINEX VERSION / TYPE
LEICA GEO OFFICE 8.4                    1-10-20 21:39       PGM / RUN BY / DATE
                                                            OBSERVER / AGENCY
BOL1                                                        MARKER NAME
BOL1                                                        MARKER NUMBER
352348              LEICA GX1220GG      4.10                REC # / TYPE / VERS
                    LEIAX1202GG                             ANT # / TYPE
 -1239708.0866  3756482.0273  4987630.9024                  APPROX POSITION XYZ
        1.5900        0.0000        0.0000                  ANTENNA: DELTA H/E/N
L1PhaOff:   0.0644  L2PhaOff:   0.0640                      COMMENT
     1     1                                                WAVELENGTH FACT L1/2
     6    C1    L1    D1    P2    L2    D2                  # / TYPES OF OBSERV
  2020    10     1     7    25    5.0000000     GPS         TIME OF FIRST OBS
  2020    10     1     9     1   20.0000000     GPS         TIME OF LAST OBS
    18                                                      LEAP SECONDS
    21                                                      # OF SATELLITES
          C1    L1    D1    P2    L2    D2                  COMMENT
   G 1     0     0     0     0     0     0                  PRN / # OF OBS
   G 2     0     0     0     0     0     0                  PRN / # OF OBS
   G 3     0     0     0     0     0     0                  PRN / # OF OBS
   G 4     0     0     0     0     0     0                  PRN / # OF OBS
   G 5     0     0     0     0     0     0                  PRN / # OF OBS
   G 6     0     0     0     0     0     0                  PRN / # OF OBS
   G 7     0     0     0     0     0     0                  PRN / # OF OBS
   G 8   246   246   246   244   244   244                  PRN / # OF OBS
   G 9     0     0     0     0     0     0                  PRN / # OF OBS
   G10  1156  1156  1156  1156  1156  1156                  PRN / # OF OBS
   G11   282   282   282   221   221   221                  PRN / # OF OBS
   G12   195   195   195   190   190   190                  PRN / # OF OBS
   G13   146   146   146   117   117   117                  PRN / # OF OBS
   G14     0     0     0     0     0     0                  PRN / # OF OBS
   G15  1017  1017  1017  1008  1008  1008                  PRN / # OF OBS
   G16     0     0     0     0     0     0                  PRN / # OF OBS
   G17     0     0     0     0     0     0                  PRN / # OF OBS
   G18   897   897   897   897   897   897                  PRN / # OF OBS
   G19     0     0     0     0     0     0                  PRN / # OF OBS
   G20  1156  1156  1156  1156  1156  1156                  PRN / # OF OBS
   G21  1079  1079  1079  1071  1071  1071                  PRN / # OF OBS
   G22     0     0     0     0     0     0                  PRN / # OF OBS
   G23     0     0     0     0     0     0                  PRN / # OF OBS
   G24  1156  1156  1156  1156  1156  1156                  PRN / # OF OBS
   G25     0     0     0     0     0     0                  PRN / # OF OBS
   G26     0     0     0     0     0     0                  PRN / # OF OBS
   G27   335   335   335   335   335   335                  PRN / # OF OBS
   G28     0     0     0     0     0     0                  PRN / # OF OBS
   G29     0     0     0     0     0     0                  PRN / # OF OBS
   G30     0     0     0     0     0     0                  PRN / # OF OBS
   G31     0     0     0     0     0     0                  PRN / # OF OBS
   G32  1022  1022  1022  1022  1022  1022                  PRN / # OF OBS
   R 1     0     0     0     0     0     0                  PRN / # OF OBS
   R 2     0     0     0     0     0     0                  PRN / # OF OBS
   R 3     0     0     0     0     0     0                  PRN / # OF OBS
   R 4     0     0     0     0     0     0                  PRN / # OF OBS
   R 5  1146  1146  1146  1140  1140  1140                  PRN / # OF OBS
   R 6  1156  1156  1156     0     0     0                  PRN / # OF OBS
   R 7   863   863   863   857   857   857                  PRN / # OF OBS
   R 8     0     0     0     0     0     0                  PRN / # OF OBS
   R 9     0     0     0     0     0     0                  PRN / # OF OBS
   R10     0     0     0     0     0     0                  PRN / # OF OBS
   R11     0     0     0     0     0     0                  PRN / # OF OBS
   R12     0     0     0     0     0     0                  PRN / # OF OBS
   R13     0     0     0     0     0     0                  PRN / # OF OBS
   R14   588   588   588   588   588   588                  PRN / # OF OBS
   R15  1156  1156  1156  1156  1156  1156                  PRN / # OF OBS
   R16  1007  1007  1007  1007  1007  1007                  PRN / # OF OBS
   R17     0     0     0     0     0     0                  PRN / # OF OBS
   R18     0     0     0     0     0     0                  PRN / # OF OBS
   R19     0     0     0     0     0     0                  PRN / # OF OBS
   R20     0     0     0     0     0     0                  PRN / # OF OBS
   R21   901   901   901   902   902   902                  PRN / # OF OBS
   R22  1091  1091  1091  1010  1010  1010                  PRN / # OF OBS
   R23   252   252   252   178   178   178                  PRN / # OF OBS
   R24     0     0     0     0     0     0                  PRN / # OF OBS
                                                            END OF HEADER
 20 10 01 07 25  5.0000000  0 15G 8G27G15G18G21G24G20G10G13R14R 6R21
                                R15R22R 5
  24614953.632   129352446.95545       202.477    24614962.909   100794139.63654
       157.772  
  24257689.733   127475003.96446     -1611.293    24257691.579    99331189.29849
     -1255.550  
  21175481.254   111277939.33849     -2434.809    21175480.687    86710081.68849
     -1897.258  
  21529036.602   113135859.00849     -2653.101    21529035.835    88157821.29146
     -2067.355  
  24848781.389   130581239.11345      2719.285    24848782.055   101751607.92245
      2118.921  
  20990859.466   110307715.91849      1774.465    20990860.504    85954090.81049
      1382.694  
  20042459.496   105323837.21549       702.905    20042458.551    82070542.94748
       547.719  
  22092168.041   116095151.76049      2611.144    22092170.647    90463764.20849
      2034.656  
  23719232.087   124645397.62246     -3464.729    23719230.878    97126282.23944
     -2699.788  
  21955145.136   117033280.42908     -1651.137    21955151.973    91025931.34907
     -1284.227  
  20170418.739   107633229.74307      2077.562           0.000           0.0000 
         0.000  
  20670223.924   110610543.63708     -1660.780    20670229.171    86030451.09608
     -1291.718  
  21179921.402   113179082.10808      2228.488    21179925.917    88028216.35908
      1733.265  
  21846667.062   116618989.21605      2267.550    21846671.234    90703684.73603
      1763.651  
  20010987.488   106970221.16809     -1837.957    20010991.576    83199100.20408
     -1429.527  
 20 10 01 07 25 10.0000000  0 15G 8G27G15G18G21G24G20G10G13R14R 6R21
                                R15R22R 5
  24614763.501   129351443.71845       198.688    24614771.629   100793383.97152
       154.819  
  24259224.030   127483066.84346     -1614.007    24259226.006    99337472.05149
     -1257.672  
  21177798.876   111290118.70849     -2436.964    21177798.452    86719572.11249
     -1898.934  
  21531562.183   113149131.56048     -2655.883    21531561.438    88168163.52746
     -2069.523  
  24846194.641   130567645.63045      2718.492    24846195.560   101741015.53543
      2118.026  
  20989172.860   110298852.77049      1770.805    20989173.879    85947184.45649
      1379.848  
  20041792.141   105320330.70949       699.847    20041791.362    82067810.60848
       545.335  
  22089684.337   116082099.21349      2609.699    22089686.781    90453593.38149
      2033.527  
  23722529.034   124662722.97946     -3465.973    23722527.941    97139782.53843
     -2700.754  
  21956696.075   117041547.62208     -1655.772    21956702.723    91032361.37307
     -1287.831  
  20168473.179   107622847.57807      2075.219           0.000           0.0000 
         0.000  
  20671778.193   110618860.66008     -1665.789    20671783.224    86036919.88508
     -1295.612  
  21177838.157   113167950.06608      2224.375    21177842.801    88019558.12108
      1730.069  
  21844544.536   116607659.06205      2263.449    21844549.012    90694872.41303
      1760.460  
  20012707.609   106979416.63809     -1840.194    20012711.757    83206252.24108
     -1431.262  
 20 10 01 07 25 15.0000000  0 15G 8G27G15G18G21G24G20G10G13R14R 6R21
                                R15R22R 5
  24614576.381   129350456.58246       195.719    24614589.247   100792614.61545
       152.500  
  24260760.930   127491143.80445     -1616.910    24260762.886    99343765.75449
     -1259.937  
  21180118.405   111302307.60349     -2438.641    21180117.683    86729069.94649
     -1900.242  
  21534090.266   113162416.69548     -2658.171    21534089.568    88178515.57746
     -2071.305  
  24843609.134   130554058.97845      2717.078    24843610.051   101730428.52444
      2117.206  
  20987489.488   110290006.15549      1767.813    20987490.474    85940291.00549
      1377.515  
  20041127.420   105316837.51449       697.250    20041126.644    82065088.63348
       543.308  
  22087201.759   116069053.36349      2608.637    22087204.135    90443427.79949
      2032.702  
  23725826.674   124680051.75745     -3466.117    23725825.401    97153285.45843
     -2700.871  
  21958250.960   117049835.97008     -1659.715    21958257.465    91038807.88507
     -1290.890  
  20166529.468   107612475.34607      2073.621           0.000           0.0000 
         0.000  
  20673336.702   110627200.27208     -1670.058    20673341.790    86043406.23907
     -1298.937  
  21175758.456   113156837.71508      2220.632    21175763.341    88010915.20108
      1727.159  
  21842425.781   116596349.31305      2259.953    21842430.287    90686075.94903
      1757.742  
  20014429.779   106988622.28409     -1842.042    20014433.877    83213412.18108
     -1432.766  
 20 10 01 07 25 20.0000000  0 15G 8G27G15G18G21G24G20G10G13R14R 6R21
                                R15R22R 5
  24614391.738   129349485.99745       192.094    24614406.304   100791858.27644
       149.663  
  24262300.737   127499235.23746     -1619.336    24262302.675    99350070.77749
     -1261.820  
  21182439.838   111314506.38049     -2440.589    21182439.139    86738575.48149
     -1901.761  
  21536620.826   113175714.75149     -2660.656    21536620.134    88188877.69946
     -2073.241  
  24841025.129   130540479.72144      2715.617    24841026.087   101719847.34144
      2116.070  
  20985809.148   110281176.34849      1764.394    20985810.019    85933410.63549
      1374.847  
  20040465.360   105313358.05649       694.679    20040464.603    82062377.37448
       541.308  
  22084720.524   116056014.60649      2607.202    22084722.980    90433267.72849
      2031.582  
  23729124.976   124697384.48145     -3466.968    23729123.946    97166791.38841
     -2701.559  
  21959810.009   117058145.98408     -1663.941    21959816.526    91045271.21107
     -1294.179  
  20164587.605   107602113.31607      2071.538           0.000           0.0000 
         0.000  
  20674899.380   110635562.91708     -1674.585    20674904.431    86049910.52207
     -1302.457  
  21173682.733   113145745.45908      2216.499    21173687.476    88002287.87808
      1723.941  
  21840311.104   116585060.30505      2255.641    21840315.565    90677295.60903
      1754.383  
  20016153.830   106997838.48009     -1844.086    20016157.936    83220580.34208
     -1434.289  
 20 10 01 07 25 25.0000000  0 15G 8G27G15G18G21G24G20G10G13R14R 6R21
                                R15R22R 5
  24614210.408   129348532.03845       187.589    24614224.222   100791114.93045
       146.180  
  24263843.214   127507341.19446     -1623.905    24263845.373    99356387.11849
     -1265.383  
  21184763.181   111326715.00649     -2444.054    21184762.287    86748088.69749
     -1904.457  
  21539153.877   113189025.74149     -2664.852    21539153.117    88199249.90446
     -2076.508  
  24838442.452   130526907.81845      2711.999    24838443.340   101709271.86444
      2113.246  
  20984132.045   110272363.48849      1759.441    20984132.995    85926543.47249
      1370.987  
  20039805.786   105309892.31149       690.343    20039805.017    82059676.79548
       537.929  
  22082240.620   116042982.93549      2604.129    22082243.250    90423113.17749
      2029.190  
  23732423.994   124714720.90545     -3468.879    23732422.766    97180300.37641
     -2703.015  
  21961373.213   117066477.64608     -1670.042    21961379.403    91051751.38907
     -1298.925  
  20162647.617   107591761.66807      2067.901           0.000           0.0000 
         0.000  
  20676466.583   110643948.46008     -1680.823    20676471.395    86056432.61408
     -1307.313  
  21171610.751   113134673.35508      2211.062    21171615.678    87993676.24008
      1719.714  
  21838200.109   116573791.95305      2250.136    21838204.811    90668531.33303
      1750.102  
  20017879.937   107007065.22709     -1847.862    20017883.869    83227756.69708
     -1437.227  
 20 10 01 07 25 30.0000000  0 15G 8G27G15G18G21G24G20G10G13R14R 6R21
                                R15R22R 5
  24614033.952   129347605.37945       184.434    24614048.590   100790392.81245
       143.711  
  24265390.474   127515472.37946     -1626.972    24265392.738    99362723.10049
     -1267.769  
  21187090.315   111338944.24049     -2445.987    21187089.340    86757617.96449
     -1905.968  
  21541691.487   113202360.37949     -2667.339    21541690.804    88209640.52646
     -2078.448  
  24835863.380   130513354.01845      2710.964    24835864.135   101698710.42041
      2112.613  
  20982460.271   110263578.13049      1756.211    20982461.108    85919697.75049
      1368.476  
  20039150.963   105306451.03949       687.612    20039150.296    82056995.28948
       535.800  
  22079764.326   116029969.07949      2602.895    22079766.705    90412972.51749
      2028.230  
  23735725.736   124732071.83345     -3470.059    23735724.837    97193820.49644
     -2703.952  
  21962942.359   117074841.76608     -1674.125    21962948.332    91058256.81407
     -1302.102  
  20160711.578   107581430.96907      2066.063           0.000           0.0000 
         0.000  
  20678039.910   110652367.93208     -1685.366    20678044.856    86062981.08807
     -1310.840  
  21169544.584   113123632.38208      2207.124    21169549.428    87985088.81808
      1716.652  
  21836095.204   116562555.36205      2245.866    21836099.868    90659791.78103
      1746.785  
  20019609.993   107016313.46109     -1849.776    20019613.905    83234949.76808
     -1438.718  
 20 10 01 07 25 35.0000000  0 15G 8G27G15G18G21G24G20G10G13R14R 6R21
                                R15R22R 5
  24613858.704   129346684.82245       183.558    24613873.928   100789675.47246
       143.020  
  24266938.512   127523607.50046     -1627.262    24266940.792    99369062.15449
     -1267.999  
  21189417.269   111351172.80749     -2445.581    21189416.398    86767146.72249
     -1905.648  
  21544229.481   113215697.41149     -2667.675    21544228.954    88220033.01146
     -2078.711  
  24833283.572   130499797.06645      2711.508    24833284.304   101688146.59943
      2112.862  
  20980789.654   110254799.07149      1755.229    20980790.464    85912856.92949
      1367.710  
  20038496.522   105303012.98949       687.266    20038496.040    82054316.28448
       535.527  
  22077287.102   116016951.83549      2603.651    22077289.673    90402829.20549
      2028.820  
  23739026.151   124749415.97545     -3468.800    23739024.980    97207335.53042
     -2702.952  
  21964513.616   117083216.85608     -1676.132    21964519.473    91064770.75607
     -1303.663  
  20158775.571   107571099.91107      2066.132           0.000           0.0000 
         0.000  
  20679615.646   110660799.48508     -1687.629    20679620.276    86069538.96207
     -1312.605  
  21167480.057   113112600.83508      2205.383    21167485.034    87976508.73508
      1715.296  
  21833992.012   116551328.75405      2244.362    21833996.730    90651059.97003
      1745.617  
  20021340.053   107025561.56409     -1849.680    20021343.939    83242142.73708
     -1438.644  
 20 10 01 07 25 40.0000000  0 15G 8G27G15G18G21G24G20G10G13R14R 6R21
                                R15R22R 5
  24613685.711   129345775.95345       180.550    24613701.218   100788967.25445
       140.679  
  24268488.443   127531752.25646     -1630.108    24268490.583    99375408.72648
     -1270.214  
  21191745.362   111363406.39649     -2447.573    21191744.442    86776679.39149
     -1907.199  
  21546768.971   113229042.52148     -2670.129    21546768.290    88230431.79646
     -2080.624  
  24830704.172   130486242.63105      2710.034           0.000           0.0000 
         0.000  
  20979121.326   110246032.13749      1751.805    20979122.256    85906025.55049
      1365.042  
  20037843.959   105299583.87749       684.554    20037843.509    82051644.24748
       533.414  
  22074810.453   116003936.89149      2602.472    22074812.891    90392687.69449
      2027.898  
  23742326.656   124766759.06046     -3468.988    23742325.814    97220849.51841
     -2703.117  
  21966087.979   117091608.65908     -1680.331    21966093.753    91071297.70807
     -1306.929  
  20156840.721   107560774.33607      2064.116           0.000           0.0000 
         0.000  
  20681194.781   110669249.19308     -1692.000    20681199.318    86076110.94407
     -1316.004  
  21165418.572   113101584.53608      2201.395    21165423.499    87967940.50308
      1712.190  
  21831892.080   116540118.10905      2240.495    21831896.760    90642340.59303
      1742.609  
  20023071.191   107034815.20709     -1851.621    20023075.189    83249340.01208
     -1440.137  
 20 10 01 07 25 45.0000000  0 14G 8G27G15G18G24G20G10G13R14R 6R21R15
                                R22R 5
  24613515.597   129344883.06045       176.918    24613531.901   100788271.58845
       137.870  
  24270040.896   127539910.85846     -1633.215    24270043.302    99381766.07149
     -1272.641  
  21194075.152   111375649.24049     -2449.730    21194074.193    86786219.26949
     -1908.887  
  21549310.773   113242399.93748     -2672.917    21549310.318    88240840.16246
     -2082.796  
  20977456.014   110237281.42849      1748.605    20977457.006    85899206.82049
      1362.550  
  20037193.885   105296167.93049       681.733    20037193.408    82048982.47348
       531.222  
  22072335.138   115990928.46349      2600.980    22072337.568    90382551.25549
      2026.734  
  23745627.600   124784105.29345     -3470.098    23745626.864    97234366.14043
     -2703.969  
  21967666.231   117100021.41307     -1684.863    21967671.912    91077840.96207
     -1310.453  
  20154907.522   107550458.32407      2062.164           0.000           0.0000 
         0.000  
  20682778.048   110677721.16708     -1696.730    20682782.686    86082700.24607
     -1319.683  
  21163360.602   113090587.87008      2197.379    21163365.577    87959387.54008
      1709.070  
  21829795.628   116528927.60505      2235.848    21829800.449    90633636.87703
      1738.991  
  20024804.025   107044078.82109     -1853.835    20024808.103    83256545.04908
     -1441.812  
 20 10 01 07 25 50.0000000  0 15G 8G27G15G18G21G24G20G10G13R14R 6R21
                                R15R22R 5
  24613348.701   129344007.36145       174.680    24613365.153   100787589.18844
       136.098  
  24271596.375   127548084.51845     -1634.983    24271598.692    99388135.16349
     -1274.019  
  21196406.877   111387902.53849     -2450.801    21196405.885    86795767.28549
     -1909.719  
  21551855.219   113255770.80848     -2674.534    21551854.756    88251259.02346
     -2084.059  
  24825549.603   130459143.47455      2708.289    24825550.073   101656475.87054
      2110.379  
  20975794.132   110228548.30049      1745.801    20975795.177    85892401.78449
      1360.359  
  20036546.678   105292766.33549       679.914    20036546.006    82046331.87448
       529.801  
  22069861.167   115977927.78149      2600.293    22069863.483    90372420.85349
      2026.198  
  23748929.092   124801455.99845     -3470.003    23748928.316    97247886.09844
     -2703.906  
  21969248.616   117108456.32108     -1688.054    21969254.437    91084401.44407
     -1312.934  
  20152976.337   107540153.17807      2060.773           0.000           0.0000 
         0.000  
  20684365.610   110686216.72108     -1700.573    20684370.107    86089307.88507
     -1322.672  
  21161306.581   113079611.96408      2193.938    21161311.515    87950850.74208
      1706.395  
  21827703.311   116517758.55205      2232.546    21827708.108    90624949.83103
      1736.421  
  20026539.079   107053353.52409     -1854.968    20026542.947    83263758.70508
     -1442.758  
 20 10 01 07 25 55.0000000  0 15G 8G27G15G18G21G24G20G10G13R14R 6R21
                                R15R22R 5
  24613184.491   129343144.21445       170.171    24613200.660   100786916.49345
       132.594  
  24273153.674   127556268.58445     -1638.863    24273156.007    99394512.35749
     -1277.034  
  21198739.714   111400161.64949     -2453.249    21198738.550    86805319.84549
     -1911.624  
  21554401.348   113269150.52448     -2677.683    21554400.680    88261684.77946
     -2086.507  
  24822973.715   130445607.18245      2706.011    24822974.557   101645928.03143
      2108.581  
  20974134.744   110219828.06649      1741.832    20974135.825    85885606.79349
      1357.272  
  20035901.178   105289374.49349       676.543    20035900.596    82043688.87448
       527.171  
  22067387.912   115964930.21049      2598.281    22067390.158    90362292.87449
      2024.629  
  23752230.869   124818806.39545     -3471.327    23752229.743    97261405.88741
     -2704.925  
  21970834.182   117116908.77707     -1693.055    21970840.035    91090975.57507
     -1316.823  
  20151046.266   107529854.32807      2058.258           0.000           0.0000 
         0.000  
  20685956.873   110694731.07408     -1705.707    20685961.353    86095930.16307
     -1326.660  
  21159255.733   113068652.22708      2189.335    21159260.601    87942326.49708
      1702.816  
  21825614.173   116506606.21605      2227.934    21825618.938    90616275.79703
      1732.835  
  20028275.266   107062634.75109     -1857.890    20028279.245    83270977.43608
     -1445.030  
 20 10 01 07 26  0.0000000  0 14G 8G27G15G18G24G20G10G13R14R 6R21R15
                                R22R 5
  24613024.120   129342302.30145       167.633    24613040.240   100786260.56644
       130.616  
  24274714.627   127564471.69745     -1641.917    24274716.965    99400904.37549
     -1279.421  
  21201075.413   111412435.23749     -2455.652    21201074.157    86814883.67149
     -1913.499  
  21556950.676   113282547.77348     -2680.663    21556950.212    88272124.18846
     -2088.871  
  20972479.340   110211129.29849      1738.270    20972480.628    85878828.53949
      1354.495  
  20035259.294   105286001.08649       673.417    20035258.834    82041060.24848
       524.738  
  22064916.751   115951944.45049      2596.383    22064919.264    90352174.10149
      2023.151  
  23755534.161   124836165.24745     -3473.250    23755533.369    97274932.30743
     -2706.426  
  21972424.809   117125387.43707     -1697.742    21972430.777    91097570.09307
     -1320.464  
  20149119.095   107519570.54307      2055.852           0.000           0.0000 
         0.000  
  20687553.013   110703272.99808     -1710.688    20687557.413    86102573.87907
     -1330.534  
  21157209.370   113057717.49108      2185.026    21157214.250    87933821.71608
      1699.465  
  21823529.731   116495479.48105      2222.707    21823534.538    90607621.68903
      1728.772  
  20030014.430   107071931.14309     -1860.155    20030018.176    83278207.96008
     -1446.792  
 20 10 01 07 26  5.0000000  0 14G 8G27G15G18G24G20G10G13R14R 6R21R15
                                R22R 5
  24612866.519   129341474.50945       164.254    24612883.267   100785615.44544
       127.996  
  24276277.842   127572686.85745     -1644.409    24276280.178    99407305.84749
     -1281.355  
  21203412.440   111424716.27249     -2456.996    21203411.252    86824453.30949
     -1914.547  
  21559502.132   113295955.45348     -2682.645    21559501.516    88282571.72646
     -2090.375  
  20970826.779   110202445.02749      1735.203    20970828.137    85872061.58549
      1352.105  
  20034619.526   105282639.05149       671.137    20034619.035    82038440.47248
       522.961  
  22062446.508   115938963.42449      2595.531    22062449.132    90342059.01049
      2022.487  
  23758837.538   124853525.33146     -3472.105    23758837.476    97288459.57341
     -2705.543  
  21974019.021   117133885.23007     -1701.660    21974024.766    91104179.47907
     -1323.515  
  20147193.417   107509294.63107      2054.171           0.000           0.0000 
         0.000  
  20689153.268   110711835.32108     -1714.511    20689157.518    86109233.46707
     -1333.512  
  21155166.361   113046800.48608      2181.410    21155171.207    87925330.71508
      1696.652  
  21821448.784   116484371.15205      2219.445    21821453.485    90598981.88403
      1726.234  
  20031754.932   107081235.65609     -1861.770    20031758.848    83285444.81308
     -1448.065  
 20 10 01 07 26 10.0000000  0 14G 8G27G15G18G24G20G10G13R14R 6R21R15
                                R22R 5
  24612711.460   129340661.20245       161.160    24612728.437   100784981.87942
       125.586  
  24277843.565   127580914.12746     -1646.367    24277845.746    99413716.68149
     -1282.886  
  21205750.795   111437004.91149     -2458.647    21205749.572    86834028.87049
     -1915.832  
  21562055.462   113309373.75748     -2684.858    21562054.993    88293027.53946
     -2092.147  
  20969176.890   110193775.55449      1732.285    20969178.598    85865306.15449
      1349.831  
  20033981.842   105279288.62649       668.824    20033981.457    82035829.75748
       521.156  
  22059977.276   115925987.36549      2594.492    22059979.695    90331947.80049
      2021.684  
  23762141.520   124870887.02846     -3472.520    23762142.618    97301988.17341
     -2705.862  
  21975616.812   117142402.29707     -1705.562    21975622.452    91110803.87907
     -1326.546  
  20145269.197   107499026.71507      2052.586           0.000           0.0000 
         0.000  
  20690757.222   110720418.24708     -1718.753    20690761.441    86115909.06707
     -1336.813  
  21153126.672   113035901.47708      2177.813    21153131.504    87916853.72008
      1693.855  
  21819371.090   116473281.49705      2215.769    21819376.229    90590356.59503
      1723.375  
  20033497.121   107090548.46709     -1863.456    20033501.203    83292688.10208
     -1449.359  
 20 10 01 07 26 15.0000000  0 14G 8G27G15G18G24G20G10G13R14R 6R21R15
                                R22R 5
  24612559.386   129339863.57545       158.147    24612577.616   100784360.26443
       123.219  
  24279411.793   127589155.03245     -1649.242    24279414.055    99420138.17549
     -1285.129  
  21208091.042   111449302.48849     -2460.160    21208089.836    86843611.39249
     -1917.011  
  21564611.276   113322804.02848     -2686.992    21564610.617    88303492.67146
     -2093.765  
  20967530.268   110185122.06049      1729.351    20967531.994    85858563.17849
      1347.547  
  20033346.821   105275951.13249       666.445    20033346.536    82033229.11248
       519.305  
  22057509.183   115913017.60649      2593.707    22057511.762    90321841.49649
      2021.069  
  23765445.746   124888251.57345     -3472.738    23765447.002    97315518.98041
     -2706.039  
  21977218.297   117150939.95407     -1709.449    21977224.221    91117444.27207
     -1329.574  
  20143346.889   107488768.25807      2051.226           0.000           0.0000 
         0.000  
  20692365.317   110729023.14008     -1722.730    20692369.247    86122601.76507
     -1339.905  
  21151090.552   113025021.87908      2174.124    21151095.472    87908391.82808
      1690.984  
  21817297.223   116462211.83605      2211.840    21817302.532    90581746.86203
      1720.316  
  20035240.986   107099870.82809     -1865.332    20035244.971    83299938.83208
     -1450.812  
 20 10 01 07 26 20.0000000  0 15G 8G27G15G18G21G24G20G10G13R14R 6R21
                                R15R22R 5
  24612410.629   129339081.10145       154.695    24612428.700   100783750.35344
       120.526  
  24280982.400   127597408.75746     -1651.734    24280984.549    99426569.64748
     -1287.065  
  21210432.802   111461608.36849     -2462.120    21210431.577    86853200.39849
     -1918.538  
  21567168.997   113336245.66148     -2689.531    21567168.456    88313966.68746
     -2095.737  
  24810116.256   130378040.59455      2698.929    24810118.526   101593286.48451
      2103.242  
  20965886.499   110176484.18249      1725.854    20965888.336    85851832.36349
      1344.823  
  20032713.917   105272625.98049       663.629    20032713.818    82030638.08348
       517.109  
  22055042.216   115900053.57649      2592.062    22055044.806    90311739.65949
      2019.785  
  23768750.596   124905618.33145     -3473.671    23768751.476    97329051.52743
     -2706.762  
  21978823.847   117159497.66007     -1713.558    21978829.604    91124100.27307
     -1332.769  
  20141426.007   107478518.74807      2048.909           0.000           0.0000 
         0.000  
  20693977.245   110737649.42408     -1727.608    20693981.354    86129311.08607
     -1343.698  
  21149058.166   113014161.11708      2170.207    21149063.063    87899944.55708
      1687.938  
  21815227.019   116451161.50704      2208.042    21815232.571    90573152.17303
      1717.367  
  20036986.741   107109202.20009     -1867.168    20036990.673    83307196.56608
     -1452.241  
 20 10 01 07 26 25.0000000  0 14G 8G27G15G18G24G20G10G13R14R 6R21R15
                                R22R 5
  24612262.377   129338303.06404       157.480           0.000           0.0000 
         0.000  
  24282553.583   127605664.87846     -1649.199    24282555.785    99433003.00149
     -1285.089  
  21212774.158   111473912.02449     -2458.207    21212772.813    86862787.64749
     -1915.487  
  21569727.092   113349688.07448     -2686.469    21569726.488    88324441.27946
     -2093.354  
  20964243.659   110167851.21949      1728.261    20964245.638    85845105.38249
      1346.699  
  20032081.605   105269302.59549       666.500    20032081.354    82028048.43548
       519.351  
  22052574.269   115887084.70849      2596.378    22052577.101    90301634.04049
      2023.148  
  23772053.711   124922976.84745     -3468.972    23772054.301    97342577.63941
     -2703.098  
  21980431.034   117168064.68007     -1712.336    21980436.617    91130763.50107
     -1331.820  
  20139504.966   107468267.30207      2052.746           0.000           0.0000 
         0.000  
  20695591.277   110746286.25208     -1726.320    20695595.175    86136028.60107
     -1342.698  
  21147027.115   113003308.45308      2172.011    21147032.103    87891503.61808
      1689.344  
  21813158.676   116440120.02105      2209.144    21813164.018    90564564.35903
      1718.222  
  20038731.883   107118531.86209     -1863.613    20038735.857    83314452.96308
     -1449.479  
 20 10 01 07 26 30.0000000  0 14G 8G27G15G18G24G20G10G13R14R 6R21R15
                                R22R 5
  24612116.146   129337535.42705       150.082           0.000           0.0000 
         0.000  
  24284126.437   127613929.09245     -1656.882    24284128.178    99439442.65748
     -1291.074  
  21215116.096   111486219.21249     -2464.707    21215114.787    86872377.67349
     -1920.551  
  21572286.317   113363137.04448     -2693.367    21572285.529    88334920.99746
     -2098.730  
  20962602.706   110159228.98649      1720.327    20962604.903    85838386.75449
      1340.511  
  20031450.621   105265986.75049       659.503    20031450.322    82025464.65048
       513.894  
  22050106.543   115874116.81449      2590.628    22050109.362    90291529.18549
      2018.668  
  23775356.385   124940332.82945     -3473.555    23775357.068    97356101.82643
     -2706.671  
  21982041.015   117176646.88107     -1721.030    21982046.518    91137438.54507
     -1338.581  
  20137584.499   107458019.91307      2046.266           0.000           0.0000 
         0.000  
  20697208.305   110754939.54408     -1735.332    20697212.109    86142758.94907
     -1349.706  
  21144998.638   112992469.79008      2163.313    21145003.806    87883073.53107
      1682.574  
  21811092.930   116429093.02205      2200.582    21811098.094    90555987.80703
      1711.562  
  20040477.926   107127865.74208     -1870.004    20040482.049    83321712.64508
     -1454.452  
 20 10 01 07 26 35.0000000  0 14G 8G27G15G18G24G20G10G13R14R 6R21R15
                                R22R 5
  24611976.211   129336800.81345       144.968    24611976.139   100781898.97053
       112.956  
  24285704.964   127622224.21746     -1660.925    24285706.545    99445906.36948
     -1294.233  
  21217463.002   111498552.66149     -2468.148    21217461.863    86881988.14949
     -1923.238  
  21574851.061   113376615.39948     -2697.258    21574850.413    88345423.61345
     -2101.758  
  20960968.390   110150640.15948      1715.851    20960970.733    85831694.16049
      1337.027  
  20030825.547   105262701.27849       655.265    20030825.160    82022904.56048
       510.597  
  22047643.397   115861172.64249      2587.831    22047645.996    90281442.83149
      2016.492  
  23778662.932   124957708.97745     -3475.652    23778663.595    97369641.59243
     -2708.301  
  21983658.249   117185267.30507     -1726.515    21983663.683    91144143.30107
     -1342.848  
  20135669.253   107447799.38707      2042.694           0.000           0.0000 
         0.000  
  20698832.776   110763632.44508     -1741.253    20698836.729    86149520.09807
     -1354.312  
  21142977.294   112981668.31107      2157.890    21142982.472    87874672.44507
      1678.367  
  21809034.047   116418103.84904      2195.515    21809039.528    90547440.67303
      1707.624  
  20042229.085   107137226.78708     -1873.578    20042233.287    83328993.46008
     -1457.227  
 20 10 01 07 26 40.0000000  0 14G 8G27G15G18G24G20G10G13R14R 6R21R15
                                R22R 5
  24611840.127   129336085.59845       142.062    24611840.418   100781341.65445
       110.699  
  24287286.799   127630536.46846     -1663.784    24287288.243    99452383.40748
     -1296.464  
  21219812.405   111510898.63649     -2469.901    21219811.124    86891608.38649
     -1924.601  
  21577418.835   113390109.23548     -2699.793    21577418.186    88355938.27746
     -2103.741  
  20959337.506   110142070.99248      1712.516    20959339.970    85825016.89849
      1334.429  
  20030203.499   105259432.36349       652.554    20030203.189    82020357.35148
       508.480  
  22045182.176   115848238.43349      2586.406    22045184.818    90271364.21849
      2015.379  
  23781970.853   124975091.56445     -3476.785    23781971.284    97383197.43552
     -2709.183  
  21985279.938   117193912.00507     -1730.792    21985285.246    91150866.94707
     -1346.175  
  20133756.416   107437592.18807      2040.668           0.000           0.0000 
         0.000  
  20700462.112   110772351.00808     -1745.788    20700465.927    86156301.17907
     -1357.844  
  21140960.060   112970889.97908      2154.164    21140965.454    87866289.29907
      1675.461  
  21806979.798   116407138.47205      2191.422    21806985.419    90538912.01803
      1704.430  
  20043982.853   107146601.11908     -1875.589    20043986.958    83336284.61208
     -1458.797  
 20 10 01 07 26 45.0000000  0 14G 8G27G15G18G24G20G10G13R14R 6R21R15
                                R22R 5
  24611706.338   129335383.81344       139.132    24611709.806   100780794.78844
       108.398  
  24288870.674   127638859.60345     -1665.605    24288872.011    99458868.95248
     -1297.879  
  21222162.902   111523250.99049     -2470.929    21222161.617    86901233.60849
     -1925.398  
  21579988.324   113403612.45948     -2701.468    21579987.763    88366460.26546
     -2105.043  
  20957709.491   110133515.61948      1709.983    20957712.154    85818350.38749
      1332.457  
  20029583.375   105256173.90249       650.956    20029583.145    82017818.28048
       507.234  
  22042721.693   115835308.10149      2585.944    22042724.127    90261288.63349
      2015.019  
  23785278.661   124992474.52546     -3476.120    23785279.319    97396742.72043
     -2708.667  
  21986904.901   117202574.75507     -1733.862    21986910.411    91157604.64907
     -1348.558  
  20131844.947   107427392.03307      2039.702           0.000           0.0000 
         0.000  
  20702094.787   110781088.90608     -1749.227    20702098.739    86163097.32907
     -1360.507  
  21138946.233   112960128.63308      2150.789    21138951.545    87857919.32107
      1672.827  
  21804928.937   116396190.61605      2187.375    21804934.526    90530397.02803
      1701.289  
  20045737.753   107155982.62408     -1876.733    20045742.095    83343581.32608
     -1459.687  
 20 10 01 07 26 50.0000000  0 13G27G15G18G24G20G10G13R14R 6R21R15R22
                                R 5
  24290456.447   127647192.58445     -1668.034    24290457.894    99465362.22448
     -1299.769  
  21224514.553   111535608.56149     -2472.211    21224513.082    86910862.87049
     -1926.401  
  21582559.326   113417123.88548     -2703.339    21582558.681    88376988.65145
     -2106.503  
  20956083.777   110124972.78348      1707.191    20956086.495    85811693.61649
      1330.273  
  20028965.157   105252924.73649       648.612    20028964.788    82015286.46348
       505.410  
  22040261.594   115822380.44749      2585.074    22040264.186    90251215.14749
      2014.343  
  23788586.276   125009856.66045     -3476.648    23788587.307    97410287.19144
     -2709.077  
  21988533.232   117211254.39307     -1737.824    21988538.742    91164355.48007
     -1351.645  
  20129934.393   107417197.51307      2038.147           0.000           0.0000 
         0.000  
  20703731.026   110789844.94108     -1753.426    20703734.932    86169907.58207
     -1363.776  
  21136935.430   112949383.07908      2147.199    21136940.402    87849561.68707
      1670.042  
  21802881.362   116385259.14705      2184.019    21802886.502    90521894.79003
      1698.683  
  20047493.946   107165370.01708     -1878.184    20047498.185    83350882.62608
     -1460.813  
 20 10 01 07 26 55.0000000  0 13G27G15G18G24G20G10G13R14R 6R21R15R22
                                R 5
  24292046.534   127655548.13946     -1672.917    24292047.699    99471872.99148
     -1303.582  
  21226869.634   111547984.15649     -2476.273    21226868.178    86920506.18949
     -1929.565  
  21585134.500   113430656.32848     -2707.988    21585133.753    88387533.39045
     -2110.125  
  20954463.029   110116455.25648      1701.699    20954465.725    85805056.58749
      1325.995  
  20028351.140   105249697.67949       643.797    20028350.554    82012771.86948
       501.656  
  22037804.544   115809468.30849      2581.409    22037806.955    90241153.73049
      2011.484  
  23791896.154   125027250.77745     -3479.516    23791897.384    97423843.06051
     -2711.312  
  21990166.943   117219963.80707     -1744.187    21990172.600    91171129.47607
     -1356.590  
  20128027.464   107407021.84107      2033.597           0.000           0.0000 
         0.000  
  20705373.204   110798632.13208     -1760.085    20705377.170    86176742.05807
     -1368.960  
  21134929.922   112938666.31108      2140.843    21134934.797    87841226.44207
      1665.102  
  21800838.911   116374357.06105      2178.687    21800844.163    90513415.37803
      1694.530  
  20049253.536   107174776.25308     -1882.594    20049257.890    83358198.58408
     -1464.206  
 20 10 01 07 27  0.0000000  0 13G27G15G18G24G20G10G13R14R 6R21R15R22
                                R 5
  24293638.564   127663914.93746     -1673.792    24293639.921    99478392.59248
     -1304.253  
  21229225.825   111560366.49349     -2477.022    21229224.264    86930154.74549
     -1930.151  
  21587711.402   113444198.54148     -2709.331    21587710.500    88398085.77046
     -2111.168  
  20952844.745   110107951.64648      1699.402    20952847.634    85798430.39949
      1324.207  
  20027739.231   105246481.48349       642.383    20027738.526    82010265.74848
       500.555  
  22035348.264   115796560.43849      2581.242    22035350.689    90231095.66949
      2011.358  
  23795206.078   125044645.51745     -3478.394    23795206.768    97437397.52941
     -2710.394  
  21991804.306   117228691.68307     -1747.261    21991809.874    91177917.82407
     -1358.984  
  20126122.061   107396853.27507      2033.030           0.000           0.0000 
         0.000  
  20707019.001   110807439.08908     -1763.097    20707022.818    86183591.91407
     -1371.301  
  21132927.572   112927966.92108      2138.328    21132932.336    87832904.66907
      1663.136  
  21798799.891   116363473.07005      2175.276    21798805.280    90504950.03003
      1691.878  
  20051014.431   107184189.86908     -1883.176    20051019.021    83365520.28208
     -1464.733  
 20 10 01 07 27  5.0000000  0 13G27G15G18G24G20G10G13R14R 6R21R15R22
                                R 5
  24295232.639   127672291.20645     -1676.543    24295233.818    99484919.55248
     -1306.402  
  21231582.979   111572753.67249     -2478.444    21231581.574    86939807.10049
     -1931.257  
  21590289.883   113457748.55048     -2711.147    21590288.993    88408644.20546
     -2112.585  
  20951228.968   110099460.21248      1696.644    20951231.761    85791813.70149
      1322.063  
  20027129.018   105243274.22949       640.171    20027128.145    82007766.59048
       498.832  
  22032892.364   115783654.90949      2580.448    22032894.902    90221039.41349
      2010.733  
  23798515.837   125062039.10645     -3479.250    23798515.835    97450945.91551
     -2711.105  
  21993444.616   117237435.95907     -1750.281    21993450.342    91184718.91207
     -1361.331  
  20124217.524   107386690.29807      2031.440           0.000           0.0000 
         0.000  
  20708667.995   110816263.75208     -1767.292    20708672.091    86190455.54507
     -1374.565  
  21130928.425   112917283.02808      2134.703    21130932.694    87824594.99207
      1660.323  
  21796763.969   116352605.05705      2171.594    21796769.392    90496497.15103
      1689.019  
  20052776.422   107193608.97008     -1884.879    20052781.098    83372846.25508
     -1466.015  
 20 10 01 07 27 10.0000000  0 13G27G15G18G24G20G10G13R14R 6R21R15R22
                                R 5
  24296829.334   127680682.27045     -1680.194    24296830.639    99491458.05148
     -1309.242  
  21233942.021   111585150.98848     -2480.512    21233940.668    86949467.35149
     -1932.870  
  21592870.802   113471311.87248     -2714.195    21592870.030    88419213.02545
     -2114.960  
  20949616.437   110090986.49449      1692.933    20949619.262    85785210.78449
      1319.164  
  20026521.461   105240081.33949       637.120    20026520.456    82005278.61147
       496.452  
  22030438.136   115770757.13849      2578.598    22030440.612    90210989.19249
      2009.292  
  23801826.336   125079436.73845     -3480.367    23801826.381    97464502.58142
     -2711.984  
  21995089.309   117246202.09807     -1755.523    21995095.108    91191537.03607
     -1365.406  
  20122314.856   107376537.98507      2028.999           0.000           0.0000 
         0.000  
  20710321.472   110825111.59408     -1771.921    20710325.688    86197337.17507
     -1378.164  
  21128933.001   112906620.08206      2130.507    21128937.303    87816301.60406
      1657.062  
  21794731.858   116341758.53905      2166.905    21794737.207    90488060.98503
      1685.371  
  20054540.463   107203038.96808     -1887.187    20054545.084    83380180.70107
     -1467.816  
 20 10 01 07 27 15.0000000  0 13G27G15G18G24G20G10G13R14R 6R21R15R22
                                R 5
  24298428.655   127689087.13045     -1682.844    24298429.887    99498007.26648
     -1311.315  
  21236302.999   111597557.63648     -2482.328    21236301.372    86959134.88548
     -1934.281  
  21595454.196   113484887.38348     -2716.508    21595453.280    88429791.31645
     -2116.761  
  20948007.191   110082529.12949      1689.733    20948009.965    85778620.63849
      1316.676  
  20025916.407   105236901.85249       634.444    20025915.533    82002801.11448
       494.370  
  22027985.079   115757866.20249      2577.315    22027987.509    90200944.33449
      2008.296  
  23805137.411   125096837.52345     -3480.543    23805137.886    97478060.45251
     -2712.112  
  21996737.491   117254989.27306     -1759.456    21996743.573    91198371.50007
     -1368.469  
  20120414.331   107366395.82807      2027.414           0.000           0.0000 
         0.000  
  20711979.060   110833981.71008     -1776.515    20711983.300    86204236.20307
     -1381.733  
  21126941.434   112895977.16005      2126.374    21126945.490    87808023.84105
      1653.851  
  21792703.899   116330932.78505      2162.741    21792709.139    90479640.94903
      1682.129  
  20056306.561   107212479.05808     -1889.175    20056311.279    83387523.04607
     -1469.355  
 20 10 01 07 27 20.0000000  0 13G27G15G18G24G20G10G13R14R 6R21R15R22
                                R 5
  24300030.325   127697504.80845     -1684.640    24300031.718    99504566.46348
     -1312.711  
  21238665.505   111609972.62649     -2483.925    21238663.733    86968808.88949
     -1935.535  
  21598039.706   113498474.11448     -2718.483    21598038.658    88440378.38046
     -2118.305  
  20946400.793   110074087.26349      1686.668    20946403.599    85772042.55749
      1314.281  
  20025313.812   105233734.82149       632.065    20025312.812    82000333.29248
       492.519  
  22025533.150   115744981.13749      2576.460    22025535.641    90190904.03249
      2007.632  
  23808449.015   125114240.61845     -3480.867    23808449.607    97491621.27244
     -2712.354  
  21998389.418   117263796.37906     -1763.663    21998395.869    91205221.47107
     -1371.741  
  20118515.438   107356262.44007      2025.855           0.000           0.0000 
         0.000  
  20713640.742   110842873.17708     -1780.531    20713644.747    86211151.78107
     -1384.862  
  21124953.544   112885353.16508      2122.894    21124957.241    87799760.70107
      1651.136  
  21790679.531   116320126.66204      2159.218    21790684.891    90471236.17703
      1679.387  
  20058074.133   107221928.30408     -1890.726    20058078.860    83394872.43508
     -1470.569  
 20 10 01 07 27 25.0000000  0 13G27G15G18G24G20G10G13R14R 6R21R15R22
                                R 5
  24301634.364   127705933.71345     -1687.218    24301635.584    99511134.49548
     -1314.715  
  21241029.328   111622394.16449     -2484.980    21241027.499    86978487.98849
     -1936.352  
  21600626.966   113512070.59848     -2720.512    21600626.113    88450973.04346
     -2119.882  
  20944797.040   110065659.51649      1683.819    20944799.905    85765475.48249
      1312.063  
  20024713.263   105230578.60349       629.913    20024711.985    81997873.88048
       490.840  
  22023081.958   115732100.31749      2575.749    22023084.257    90180866.99249
      2007.069  
  23811760.821   125131644.21644     -3482.270    23811761.767    97505182.73043
     -2713.438  
  22000044.794   117272621.84406     -1767.051    22000051.519    91212085.72008
     -1374.374  
  20116617.844   107346136.48407      2024.539           0.000           0.0000 
         0.000  
  20715305.998   110851784.20408     -1784.304    20715310.122    86218082.52407
     -1387.800  
  21122968.577   112874746.66608      2119.413    21122972.412    87791511.14807
      1648.425  
  21788658.639   116309338.47005      2156.012    21788663.843    90462845.37703
      1676.897  
  20059843.058   107231384.81509     -1891.988    20059847.888    83402227.43508
     -1471.555  
 20 10 01 07 27 30.0000000  0 13G27G15G18G24G20G10G13R14R 6R21R15R22
                                R 5
  24303240.806   127714375.62345     -1689.891    24303241.821    99517712.57947
     -1316.801  
  21243394.684   111634824.25648     -2487.090    21243392.826    86988173.76649
     -1937.996  
  21603216.543   113525678.54348     -2723.109    21603215.400    88461576.61845
     -2121.905  
  20943196.355   110057247.67048      1680.398    20943199.162    85758920.80149
      1309.402  
  20024115.166   105227435.07948       627.133    20024113.884    81995424.41547
       488.679  
  22020631.920   115719225.56149      2574.098    22020634.332    90170834.77149
      2005.793  
  23815072.941   125149050.33545     -3482.124    23815075.413    97518745.65142
     -2713.371  
  22001704.070   117281467.37406     -1771.253    22001711.078    91218965.52307
     -1377.648  
  20114721.953   107336019.76707      2022.062           0.000           0.0000 
         0.000  
  20716975.093   110860716.64908     -1788.961    20716979.567    86225030.05007
     -1391.410  
  21120987.434   112864159.57207      2115.405    21120990.939    87783276.82705
      1645.323  
  21786641.465   116298570.22504      2150.965    21786646.670    90454470.07203
      1672.968  
  20061613.847   107240850.54308     -1894.206    20061618.580    83409589.72907
     -1473.270  
 20 10 01 07 27 35.0000000  0 13G27G15G18G24G20G10G13R14R 6R21R15R22
                                R 5
  24304850.328   127722833.65945     -1692.581    24304851.253    99524303.24747
     -1318.898  
  21245762.153   111647265.79848     -2488.425    21245760.288    86997868.50048
     -1939.031  
  21605808.761   113539300.99248     -2725.074    21605807.627    88472191.50946
     -2123.433  
  20941599.277   110048854.71949      1677.609    20941602.077    85752380.84849
      1307.226  
  20023519.938   105224307.29248       624.883    20023518.696    81992987.18647
       486.921  
  22018183.611   115706359.98549      2573.016    22018186.106    90160809.66349
      2004.944  
  23818385.971   125166461.83005     -3481.133           0.000           0.0000 
         0.000  
  22003367.588   117290336.07706     -1775.003    22003374.966    91225863.39707
     -1380.563  
  20112828.525   107325915.10407      2020.652           0.000           0.0000 
         0.000  
  20718648.895   110869673.69008     -1792.969    20718653.333    86231996.62407
     -1394.534  
  21119010.573   112853594.79407      2111.257    21119013.892    87775059.80805
      1642.094  
  21784628.355   116287824.98004      2147.234    21784633.542    90446112.65503
      1670.065  
  20063386.910   107250328.61308     -1895.836    20063391.662    83416961.55307
     -1474.542  
 20 10 01 07 27 40.0000000  0 13G27G15G18G24G20G10G13R14R 6R21R15R22
                                R 5
  24306461.957   127731303.26345     -1695.968    24306462.628    99530902.93447
     -1321.539  
  21248131.128   111659714.34548     -2490.781    21248129.060    87007568.66248
     -1940.870  
  21608403.042   113552933.40248     -2727.633    21608401.852    88482814.17645
     -2125.429  
  20940005.052   110040476.10549      1673.999    20940007.918    85745852.06249
      1304.414  
  20022926.792   105221190.72748       621.983    20022925.449    81990558.69147
       484.660  
  22015736.433   115693499.07449      2571.437    22015738.869    90150788.16949
      2003.718  
  23821699.477   125183874.29805     -3483.147           0.000           0.0000 
         0.000  
  22005034.493   117299223.43406     -1779.823    22005042.222    91232775.79507
     -1384.308  
  20110936.401   107315818.21407      2018.198           0.000           0.0000 
         0.000  
  20720326.441   110878650.64008     -1797.815    20720330.911    86238978.68707
     -1398.305  
  21117036.932   112843047.94306      2107.358    21117040.215    87766856.67005
      1639.054  
  21782618.928   116277098.14904      2143.375    21782624.016    90437769.56902
      1667.065  
  20065161.454   107259814.41208     -1898.132    20065166.195    83424339.37907
     -1476.328  
 20 10 01 07 27 45.0000000  0 13G27G15G18G24G20G10G13R14R 6R21R15R22
                                R 5
  24308076.464   127739787.80145     -1698.163    24308077.238    99537514.30448
     -1323.242  
  21250501.944   111672173.31449     -2492.827    21250499.943    87017276.93949
     -1942.468  
  21610999.831   113566579.18348     -2730.347    21610998.632    88493447.24746
     -2127.546  
  20938414.057   110032115.40149      1670.417    20938416.918    85739337.21649
      1301.621  
  20022336.446   105218088.84649       618.918    20022335.109    81988141.59748
       482.266  
  22013290.586   115680646.27649      2569.934    22013292.804    90140772.93949
      2002.539  
  23825013.895   125201291.18145     -3483.605    23825017.685    97559452.90651
     -2714.495  
  22006705.811   117308133.03206     -1783.984    22006713.720    91239705.56707
     -1387.534  
  20109046.221   107305732.66207      2015.729           0.000           0.0000 
         0.000  
  20722008.312   110887650.98608     -1802.397    20722012.861    86245978.88407
     -1401.879  
  21115067.283   112832522.32908      2103.261    21115070.621    87758670.00307
      1635.858  
  21780613.534   116266393.31005      2139.015    21780618.578    90429443.61103
      1663.679  
  20066938.053   107269311.41308     -1900.460    20066942.682    83431725.89108
     -1478.144  
 20 10 01 07 27 50.0000000  0 13G27G15G18G24G20G10G13R14R 6R21R15R22
                                R 5
  24309693.383   127748284.98845     -1700.851    24309694.188    99544135.47548
     -1325.343  
  21252874.265   111684640.35249     -2493.992    21252872.542    87026991.52249
     -1943.370  
  21613598.670   113580236.08248     -2732.281    21613597.382    88504088.97446
     -2129.054  
  20936826.105   110023770.34549      1667.632    20936828.860    85732834.57349
      1299.449  
  20021748.589   105214999.29049       616.897    20021747.213    81985734.16748
       480.699  
  22010845.896   115667799.19049      2569.094    22010848.202    90130762.23749
      2001.891  
  23828328.556   125218710.18544     -3483.565    23828330.318    97573031.21054
     -2714.469  
  22008380.815   117317062.33807     -1787.604    22008388.837    91246650.52807
     -1390.371  
  20107157.693   107295655.77107      2014.698           0.000           0.0000 
         0.000  
  20723694.365   110896672.36208     -1806.101    20723698.933    86252995.51907
     -1404.749  
  21113101.012   112822015.73408      2099.508    21113104.488    87750498.24708
      1632.949  
  21778612.042   116255708.02305      2135.112    21778616.894    90421132.83403
      1660.641  
  20068716.376   107278817.16209     -1901.703    20068721.083    83439119.26308
     -1479.105  
 20 10 01 07 27 55.0000000  0 13G27G15G18G24G20G10G13R14R 6R21R15R22
                                R 5
  24311312.969   127756795.78244     -1703.598    24311313.854    99550767.23548
     -1327.487  
  21255248.312   111697116.42749     -2496.219    21255246.821    87036713.14349
     -1945.108  
  21616199.796   113593905.03048     -2735.164    21616198.806    88514740.11947
     -2131.296  
  20935241.188   110015441.85849      1664.050    20935243.950    85726344.84749
      1296.663  
  20021163.220   105211923.00249       613.809    20021161.755    81983337.06448
       478.293  
  22008402.340   115654958.84049      2567.289    22008404.600    90120756.78249
      2000.484  
  23831644.037   125236132.15646     -3484.785    23831649.009    97586606.81941
     -2715.418  
  22010059.797   117326012.25707     -1792.211    22010067.811    91253611.57407
     -1393.941  
  20105271.075   107285588.63507      2012.348           0.000           0.0000 
         0.000  
  20725384.275   110905715.72508     -1810.909    20725389.044    86260029.24207
     -1408.488  
  21111138.621   112811529.09208      2095.145    21111142.007    87742341.98708
      1629.558  
  21776614.238   116245043.29805      2130.574    21776619.347    90412838.04503
      1657.113  
  20070496.391   107288332.83209     -1904.108    20070501.162    83446520.33608
     -1480.977  
 20 10 01 07 28  0.0000000  0 13G27G15G18G24G20G10G13R14R 6R21R15R22
                                R 5
  24312935.320   127765320.29645     -1705.754    24312935.938    99557409.71448
     -1329.159  
  21257624.091   111709601.79349     -2497.558    21257622.554    87046441.99849
     -1946.152  
  21618803.170   113607586.19748     -2736.929    21618802.128    88525400.75846
     -2132.676  
  20933659.696   110007130.00249      1661.187    20933662.463    85719868.08049
      1294.433  
  20020580.310   105208860.28549       611.676    20020578.796    81980950.54048
       476.628  
  22005960.285   115642125.47649      2566.375    22005962.514    90110756.75349
      1999.773  
  23834959.996   125253557.26405     -3485.140           0.000           0.0000 
         0.000  
  22011742.787   117334983.10407     -1795.738    22011750.574    91260588.92407
     -1396.684  
  20103386.337   107275531.71707      2011.218           0.000           0.0000 
         0.000  
  20727078.392   110914781.38208     -1814.891    20727083.165    86267080.31407
     -1411.581  
  21109179.744   112801062.73208      2091.808    21109183.548    87734201.44008
      1626.953  
  21774620.238   116234399.40805      2127.180    21774625.294    90404559.47903
      1654.472  
  20072278.443   107297858.45209     -1905.601    20072283.135    83453929.15708
     -1482.132  
 20 10 01 07 28  5.0000000  0 13G27G15G18G24G20G10G13R14R 6R21R15R22
                                R 5
  24314559.600   127773856.47845     -1709.141    24314560.355    99564061.27248
     -1331.800  
  21260001.392   111722094.22149     -2499.434    21259999.995    87056176.34749
     -1947.612  
  21621408.463   113621277.44648     -2739.426    21621407.682    88536069.25247
     -2134.620  
  20932080.690   109998832.61549      1657.878    20932083.406    85713402.57549
      1291.851  
  20019999.487   105205808.94748       608.956    20019998.007    81978572.86948
       474.507  
  22003518.981   115629296.93149      2565.026    22003521.331    90100760.48749
      1998.719  
  23838276.124   125270983.35205     -3485.296           0.000           0.0000 
         0.000  
  22013429.018   117343972.75407     -1800.055    22013436.903    91267580.87007
     -1400.042  
  20101503.055   107265482.48007      2009.257           0.000           0.0000 
         0.000  
  20728776.350   110923867.03108     -1819.245    20728780.940    86274146.94007
     -1414.969  
  21107224.454   112790614.34608      2087.585    21107228.216    87726074.95408
      1623.680  
  21772630.060   116223774.26404      2122.648    21772634.800    90396295.47503
      1650.945  
  20074061.828   107307391.91509     -1907.804    20074066.605    83461344.07508
     -1483.852  
 20 10 01 07 28 10.0000000  0 13G27G15G18G24G20G10G13R14R 6R21R15R22
                                R 5
