     2.11           OBSERVATION DATA    M                   RINEX VERSION / TYPE
LEICA GEO OFFICE 8.4                    1-10-20 21:39       PGM / RUN BY / DATE
                                                            OBSERVER / AGENCY
BOLO                                                        MARKER NAME
BOLO                                                        MARKER NUMBER
352348              LEICA GX1220GG      4.10                REC # / TYPE / VERS
                    LEIAX1202GG                             ANT # / TYPE
 -1239708.9241  3756481.7170  4987632.1986                  APPROX POSITION XYZ
        1.6430        0.0000        0.0000                  ANTENNA: DELTA H/E/N
L1PhaOff:   0.0644  L2PhaOff:   0.0640                      COMMENT
     1     1                                                WAVELENGTH FACT L1/2
     6    C1    L1    D1    P2    L2    D2                  # / TYPES OF OBSERV
  2020    10     1     3    53   15.0000000     GPS         TIME OF FIRST OBS
  2020    10     1     7    22   50.0000000     GPS         TIME OF LAST OBS
    18                                                      LEAP SECONDS
    28                                                      # OF SATELLITES
          C1    L1    D1    P2    L2    D2                  COMMENT
   G 1     0     0     0     0     0     0                  PRN / # OF OBS
   G 2   798   798   798   773   773   773                  PRN / # OF OBS
   G 3     0     0     0     0     0     0                  PRN / # OF OBS
   G 4     0     0     0     0     0     0                  PRN / # OF OBS
   G 5  1785  1785  1785  1776  1776  1776                  PRN / # OF OBS
   G 6     0     0     0     0     0     0                  PRN / # OF OBS
   G 7   834   834   834   829   829   829                  PRN / # OF OBS
   G 8    51    51    51    51    51    51                  PRN / # OF OBS
   G 9     0     0     0     0     0     0                  PRN / # OF OBS
   G10   877   877   877   876   876   876                  PRN / # OF OBS
   G11     0     0     0     0     0     0                  PRN / # OF OBS
   G12     0     0     0     0     0     0                  PRN / # OF OBS
   G13  2516  2516  2516  2516  2516  2516                  PRN / # OF OBS
   G14     0     0     0     0     0     0                  PRN / # OF OBS
   G15  2516  2516  2516  2516  2516  2516                  PRN / # OF OBS
   G16     0     0     0     0     0     0                  PRN / # OF OBS
   G17     0     0     0     0     0     0                  PRN / # OF OBS
   G18  2516  2516  2516  2516  2516  2516                  PRN / # OF OBS
   G19     0     0     0     0     0     0                  PRN / # OF OBS
   G20  1892  1892  1892  1857  1857  1857                  PRN / # OF OBS
   G21    60    60    60    59    59    59                  PRN / # OF OBS
   G22     0     0     0     0     0     0                  PRN / # OF OBS
   G23     0     0     0     0     0     0                  PRN / # OF OBS
   G24   870   870   870   869   869   869                  PRN / # OF OBS
   G25     0     0     0     0     0     0                  PRN / # OF OBS
   G26     0     0     0     0     0     0                  PRN / # OF OBS
   G27   991   991   991   990   990   990                  PRN / # OF OBS
   G28     0     0     0     0     0     0                  PRN / # OF OBS
   G29  1531  1531  1531  1531  1531  1531                  PRN / # OF OBS
   G30  1474  1474  1474  1464  1464  1464                  PRN / # OF OBS
   G31     0     0     0     0     0     0                  PRN / # OF OBS
   G32     0     0     0     0     0     0                  PRN / # OF OBS
   R 1     0     0     0     0     0     0                  PRN / # OF OBS
   R 2     0     0     0     0     0     0                  PRN / # OF OBS
   R 3  1081  1081  1081  1081  1081  1081                  PRN / # OF OBS
   R 4  2458  2458  2458  2445  2445  2445                  PRN / # OF OBS
   R 5  2516  2516  2516  2516  2516  2516                  PRN / # OF OBS
   R 6   928   928   928     0     0     0                  PRN / # OF OBS
   R 7     0     0     0     0     0     0                  PRN / # OF OBS
   R 8     0     0     0     0     0     0                  PRN / # OF OBS
   R 9     0     0     0     0     0     0                  PRN / # OF OBS
   R10     0     0     0     0     0     0                  PRN / # OF OBS
   R11    13    13    13    13    13    13                  PRN / # OF OBS
   R12   773   773   773   736   736   736                  PRN / # OF OBS
   R13   193   193   193   193   193   193                  PRN / # OF OBS
   R14  1189  1189  1189  1179  1179  1179                  PRN / # OF OBS
   R15   658   658   658   656   656   656                  PRN / # OF OBS
   R16     0     0     0     0     0     0                  PRN / # OF OBS
   R17     0     0     0     0     0     0                  PRN / # OF OBS
   R18   530   530   530   530   530   530                  PRN / # OF OBS
   R19  1150  1150  1150  1150  1150  1150                  PRN / # OF OBS
   R20  2014  2014  2014  2014  2014  2014                  PRN / # OF OBS
   R21  1565  1565  1565  1565  1565  1565                  PRN / # OF OBS
   R22   472   472   472   260   260   260                  PRN / # OF OBS
   R23     0     0     0     0     0     0                  PRN / # OF OBS
   R24     0     0     0     0     0     0                  PRN / # OF OBS
                                                            END OF HEADER
 20 10 01 03 53 15.0000000  0 12G29G 2G15G18G 5G 7G13R 4R 3R18R 5R19
  21074545.999   110747491.30149      -224.476    21074546.445    86296743.59249
      -174.922  
  22212379.856   116726840.33149     -2225.344    22212377.216    90955970.29647
     -1734.039  
  23471756.914   123344925.06446      3940.729    23471757.687    96112921.17147
      3070.703  
  23655003.522   124307869.36247      3327.414    23655000.678    96863281.24644
      2592.792  
  20241243.956   106368457.97849      -997.694    20241243.563    82884506.49749
      -777.430  
  24674944.259   129667710.54547       804.546    24674944.352   101039771.77844
       626.918  
  21879226.857   114976112.87649      2934.961    21879226.604    89591774.88946
      2286.979  
  19483964.140   104335738.57809      1601.511    19483966.511    81150032.32407
      1245.621  
  20106096.646   107629502.24509     -2433.819    20106100.161    83711856.65208
     -1892.976  
  21253543.705   113452866.77208     -3576.894    21253551.208    88241137.14607
     -2782.026  
  23028838.300   123102332.89606      4113.527    23028845.532    95746289.93506
      3199.414  
  19182406.421   102612929.92306      -216.680    19182409.126    79810072.82607
      -168.530  
 20 10 01 03 53 20.0000000  0 12G29G 2G15G18G 5G 7G13R 4R 3R18R 5R19
  21074760.834   110748620.98649      -227.390    21074761.319    86297623.86949
      -177.187  
  22214497.546   116737969.70648     -2226.395    22214495.018    90964642.52947
     -1734.855  
  23468007.452   123325221.35146      3940.491    23468007.816    96097567.60947
      3070.512  
  23651837.661   124291232.55347      3327.729    23651834.600    96850317.49944
      2593.034  
  20242194.079   106373450.81849      -999.503    20242193.807    82888397.02349
      -778.839  
  24674179.668   129663692.21747       802.664    24674179.758   101036640.64444
       625.457  
  21876435.231   114961442.75449      2933.219    21876435.051    89580343.63246
      2285.625  
  19482470.198   104327738.68309      1598.547    19482472.563    81143810.17407
      1243.308  
  20108370.893   107641676.74908     -2435.898    20108374.522    83721325.71408
     -1894.589  
  21256895.162   113470756.38708     -3578.750    21256902.437    88255051.28907
     -2783.477  
  23024990.822   123081765.35606      4113.468    23024997.838    95730292.96906
      3199.363  
  19182610.936   102614023.41006      -220.586    19182613.608    79810923.30907
      -171.570  
 20 10 01 03 53 25.0000000  0 12G29G 2G15G18G 5G 7G13R 4R 3R18R 5R19
  21074979.107   110749767.01949      -230.843    21074979.347    86298516.87649
      -179.882  
  22216616.563   116749105.93848     -2228.063    22216614.241    90973320.11147
     -1736.156  
  23464258.515   123305520.80246      3939.648    23464258.684    96082216.57147
      3069.859  
  23648672.094   124274597.04347      3327.011    23648668.873    96837354.74845
      2592.472  
  20243146.273   106378454.06549     -1001.792    20243145.762    82892295.65349
      -780.621  
  24673417.234   129659685.85047       800.038    24673417.162   101033518.78244
       623.402  
  21873645.527   114946782.60349      2930.886    21873645.479    89568920.14747
      2283.808  
  19480979.447   104319755.21809      1594.940    19480981.542    81137600.81507
      1240.512  
  20110647.537   107653863.55108     -2438.718    20110651.283    83730804.33508
     -1896.780  
  21260248.503   113488656.03108     -3581.015    21260255.544    88268973.22707
     -2785.238  
  23021144.094   123061202.14106      4112.090    23021151.058    95714299.39506
      3198.297  
  19182818.880   102615135.73406      -224.733    19182821.515    79811788.45007
      -174.796  
 20 10 01 03 53 30.0000000  0 12G29G 2G15G18G 5G 7G13R 4R 3R18R 5R19
  21075200.619   110750931.16649      -234.500    21075201.046    86299424.01149
      -182.726  
  22218737.293   116760250.82248     -2229.651    22218734.993    90982004.42547
     -1737.395  
  23460510.730   123285825.31146      3938.808    23460510.594    96066869.42647
      3069.198  
  23645506.893   124257964.61447      3326.440    23645503.947    96824394.44044
      2592.030  
  20244100.563   106383469.45449     -1004.140    20244100.143    82896203.74649
      -782.449  
  24672657.603   129655693.11847       797.121    24672657.386   101030407.56344
       621.128  
  21870858.124   114932134.26549      2928.648    21870857.856    89557505.86046
      2282.063  
  19479492.055   104311790.07909      1591.390    19479494.147    81131405.71107
      1237.750  
  20112926.752   107666064.49208     -2441.469    20112930.408    83740293.95408
     -1898.925  
  21263603.913   113506567.49808     -3583.234    21263610.783    88282904.36107
     -2786.965  
  23017298.508   123040645.12306      4110.953    23017305.340    95698310.61706
      3197.406  
  19183030.673   102616268.55905      -228.215    19183033.248    79812669.53707
      -177.500  
 20 10 01 03 53 35.0000000  0 12G29G 2G15G18G 5G 7G13R 4R 3R18R 5R19
  21075425.554   110752113.08149      -238.214    21075425.697    86300344.98149
      -185.624  
  22220859.532   116771403.94948     -2231.366    22220857.414    90990695.16447
     -1738.730  
  23456763.740   123266134.43446      3937.617    23456763.289    96051525.90048
      3068.272  
  23642342.193   124241334.93947      3325.664    23642339.363    96811436.24744
      2591.421  
  20245057.120   106388496.60249     -1006.559    20245056.731    82900120.99949
      -784.335  
  24671900.262   129651713.82946       794.823    24671900.046   101027306.85343
       619.344  
  21868072.813   114917497.35649      2926.180    21868072.651    89546100.47447
      2280.140  
  19478007.843   104303842.90909      1587.668    19478010.145    81125224.58208
      1234.848  
  20115208.589   107678279.22008     -2444.250    20115212.400    83749794.29108
     -1901.085  
  21266961.581   113524490.39808     -3585.534    21266968.196    88296844.39507
     -2788.749  
  23013453.820   123020093.81206      4109.874    23013460.864    95682326.28106
      3196.570  
  19183246.247   102617421.55106      -233.097    19183248.810    79813566.30907
      -181.296  
 20 10 01 03 53 40.0000000  0 12G29G 2G15G18G 5G 7G13R 4R 3R18R 5R19
  21075653.919   110753313.05549      -241.820    21075654.274    86301280.02949
      -188.433  
  22222983.486   116782565.65448     -2233.156    22222981.330    90999392.58947
     -1740.125  
  23453017.619   123246448.49646      3936.813    23453017.239    96036186.23447
      3067.647  
  23639178.195   124224708.30147      3324.796    23639175.332    96798480.44144
      2590.750  
  20246015.956   106393535.81949     -1009.093    20246015.738    82904047.66349
      -786.308  
  24671145.768   129647748.21847       791.687    24671145.523   101024216.79942
       616.902  
  21865289.795   114902872.21449      2923.726    21865289.618    89534704.26046
      2278.227  
  19476527.169   104295913.93509      1583.937    19476529.517    81119057.59908
      1231.949  
  20117493.016   107690508.03008     -2447.281    20117496.793    83759305.59208
     -1903.440  
  21270321.449   113542425.13408     -3588.276    21270327.727    88310793.62907
     -2790.887  
  23009610.454   122999548.78606      4108.284    23009617.272    95666346.83906
      3195.335  
  19183465.743   102618595.05006      -236.914    19183468.221    79814479.03207
      -184.266  
 20 10 01 03 53 45.0000000  0 12G29G 2G15G18G 5G 7G13R 4R 3R18R 5R19
  21075885.722   110754531.09549      -245.530    21075886.043    86302229.14749
      -191.323  
  22225109.001   116793735.93949     -2235.098    22225106.967    91008096.68847
     -1741.636  
  23449272.456   123226767.56346      3935.676    23449271.921    96020850.47247
      3066.765  
  23636014.565   124208084.68746      3324.101    23636011.639    96785526.99145
      2590.211  
  20246977.275   106398587.15049     -1011.573    20246976.914    82907983.76549
      -788.242  
  24670393.744   129643796.21347       789.496    24670393.585   101021137.27244
       615.188  
  21862508.864   114888258.82549      2921.328    21862508.777    89523317.21446
      2276.359  
  19475050.059   104288003.17509      1580.171    19475052.260    81112904.78208
      1229.020  
  20119779.923   107702750.83708     -2450.038    20119783.802    83768827.78208
     -1905.585  
  21273683.337   113560371.61808     -3590.550    21273689.604    88324752.01207
     -2792.651  
  23005768.243   122979009.77706      4107.250    23005775.182    95650372.07706
      3194.530  
  19183689.033   102619789.00106      -240.996    19183691.244    79815407.65807
      -187.445  
 20 10 01 03 53 50.0000000  0 12G29G 2G15G18G 5G 7G13R 4R 3R18R 5R19
  21076120.737   110755766.91849      -249.082    21076121.244    86303192.12849
      -194.094  
  22227236.252   116804914.53049     -2236.784    22227234.274    91016807.27947
     -1742.952  
  23445528.215   123207091.41446      3935.039    23445527.735    96005518.43448
      3066.269  
  23632851.505   124191463.85247      3323.762    23632848.720    96772575.68144
      2589.944  
  20247940.687   106403650.28749     -1014.038    20247940.510    82911929.06349
      -790.164  
  24669644.169   129639857.54147       786.438    24669643.871   101018068.19143
       612.805  
  21859730.204   114873656.93149      2919.164    21859730.106    89511939.11246
      2274.667  
  19473576.110   104280110.39909      1576.589    19473578.384    81106765.95408
      1226.233  
  20122069.639   107715007.36408     -2452.891    20122073.439    83778360.63708
     -1907.808  
  21277047.419   113578329.53408     -3592.781    21277053.414    88338719.26407
     -2794.391  
  23001927.160   122958476.58506      4106.141    23001933.777    95634401.82106
      3193.663  
  19183915.993   102621003.17706      -245.163    19183918.342    79816352.01807
      -190.688  
 20 10 01 03 53 55.0000000  0 12G29G 2G15G18G 5G 7G13R 4R 3R18R 5R19
  21076359.760   110757022.21249      -252.676    21076360.109    86304170.27249
      -196.895  
  22229365.423   116816103.08449     -2238.410    22229363.309    91025525.63247
     -1744.218  
  23441785.153   123187421.67747      3933.770    23441784.665    95990191.37547
      3065.273  
  23629689.438   124174847.48147      3323.358    23629686.653    96759627.85744
      2589.625  
  20248906.576   106408726.91249     -1016.379    20248906.307    82915884.87249
      -791.987  
  24668897.361   129635933.98046       783.261    24668897.127   101015010.90042
       610.332  
  21856954.210   114859068.23349      2916.715    21856953.908    89500571.29947
      2272.766  
  19472105.910   104272237.26209      1572.867    19472108.354    81100642.39408
      1223.336  
  20124362.130   107727279.30908     -2455.663    20124365.920    83787905.48608
     -1909.960  
  21280413.993   113596300.60208     -3595.254    21280419.678    88352696.76507
     -2796.312  
  22998087.594   122937951.08906      4103.940    22998094.133    95618437.57506
      3191.956  
  19184147.191   102622239.27406      -248.722    19184149.280    79817313.41907
      -193.452  
 20 10 01 03 54  0.0000000  0 12G29G 2G15G18G 5G 7G13R 4R 3R18R 5R19
  21076601.674   110758293.51049      -255.738    21076601.907    86305160.89649
      -199.276  
  22231495.747   116827298.10948     -2239.667    22231493.804    91034249.02747
     -1745.198  
  23438042.706   123167754.79646      3933.422    23438042.136    95974866.53447
      3065.003  
  23626527.630   124158232.06847      3323.090    23626524.907    96746680.75644
      2589.422  
  20249874.555   106413813.46049     -1018.296    20249874.322    82919848.41749
      -793.479  
  24668152.836   129632021.90847       780.703    24668152.548   101011962.53843
       608.343  
  21854179.944   114844489.24449      2914.784    21854179.627    89489211.05046
      2271.258  
  19470638.679   104264380.21409      1569.866    19470641.196    81094531.35508
      1221.003  
  20126656.859   107739563.17308     -2457.789    20126660.512    83797459.59508
     -1911.616  
  21283782.439   113614281.40407     -3597.159    21283787.886    88366681.80607
     -2797.796  
  22994248.445   122917429.54605      4104.034    22994255.204    95602476.39606
      3192.026  
  19184381.604   102623493.72306      -252.402    19184383.815    79818289.09707
      -196.312  
 20 10 01 03 54  5.0000000  0 12G29G 2G15G18G 5G 7G13R 4R 3R18R 5R19
  21076846.795   110759581.47449      -259.112    21076847.151    86306164.50549
      -201.909  
  22233627.391   116838500.31848     -2240.984    22233625.579    91042978.01147
     -1746.226  
  23434301.002   123148091.63447      3932.749    23434300.451    95959544.61648
      3064.480  
  23623365.914   124141618.38846      3322.629    23623363.873    96733735.06844
      2589.066  
  20250844.492   106418910.72849     -1020.438    20250844.308    82923820.31649
      -795.145  
  24667410.737   129628122.15145       778.995    24667410.388   101008923.76744
       607.007  
  21851407.537   114829920.64749      2912.733    21851407.037    89477858.91446
      2269.664  
  19469174.615   104256540.09509      1566.293    19469177.189    81088433.50608
      1218.227  
  20128953.820   107751859.55008     -2460.452    20128957.534    83807023.44608
     -1913.691  
  21287152.687   113632272.42507     -3599.335    21287158.141    88380674.81307
     -2799.488  
  22990410.344   122896912.81906      4102.917    22990416.995    95586518.93106
      3191.156  
  19184619.735   102624767.28506      -256.895    19184621.732    79819279.65907
      -199.808  
 20 10 01 03 54 10.0000000  0 12G29G 2G15G18G 5G 7G13R 4R 3R18R 5R19
  21077095.536   110760888.64949      -263.351    21077096.012    86307183.08049
      -205.215  
  22235760.965   116849712.19849     -2243.468    22235759.015    91051714.54247
     -1748.160  
  23430560.505   123128434.62747      3930.769    23430559.958    95944227.48647
      3062.937  
  23620204.826   124125008.88847      3320.984    23620202.985    96720792.60144
      2587.780  
  20251817.110   106424021.15149     -1023.500    20251816.733    82927802.45649
      -797.535  
  24666671.332   129624237.20845       775.813    24666671.460   101005896.54344
       604.526  
  21848637.801   114815365.02049      2909.843    21848637.153    89466516.85847
      2267.405  
  19467714.127   104248719.40609      1562.249    19467716.761    81082350.74908
      1215.082  
  20131253.605   107764170.98008     -2463.762    20131257.229    83816598.98908
     -1916.262  
  21290525.429   113650276.22308     -3602.081    21290530.819    88394677.75907
     -2801.625  
  22986573.879   122876403.37406      4101.156    22986580.467    95570567.17006
      3189.792  
  19184861.776   102626062.50806      -261.253    19184863.973    79820287.05507
      -203.198  
 20 10 01 03 54 15.0000000  0 12G29G 2G15G18G 5G 7G13R 4R 3R18R 5R19
  21077348.460   110762217.27349      -268.194    21077348.786    86308218.36549
      -208.987  
  22237896.649   116860935.98049     -2246.012    22237894.860    91060460.34447
     -1750.144  
  23426821.740   123108786.03647      3928.527    23426820.909    95928916.89448
      3061.191  
  23617045.158   124108405.84447      3319.770    23617043.513    96707855.12644
      2586.823  
  20252792.387   106429146.99049     -1026.921    20252792.117    82931796.61549
      -800.202  
  24665935.042   129620369.32345       772.027    24665935.420   101002882.61145
       601.573  
  21845870.717   114800824.58549      2906.335    21845870.195    89455186.65546
      2264.672  
  19466257.741   104240920.33709      1557.391    19466260.392    81076284.80508
      1211.301  
  20133556.760   107776499.88508     -2467.547    20133560.545    83826188.14008
     -1919.203  
  21293900.944   113668295.23508     -3605.457    21293906.498    88408692.53707
     -2804.249  
  22982739.007   122855903.59406      4098.402    22982745.335    95554622.93506
      3187.652  
  19185108.237   102627381.69006      -266.660    19185110.520    79821313.08307
      -207.402  
 20 10 01 03 54 20.0000000  0 12G29G 2G15G18G 5G 7G13R 4R 3R18R 5R19
  21077605.018   110763565.80649      -270.757    21077605.480    86309269.17149
      -210.984  
  22240034.584   116872170.18549     -2246.664    22240032.642    91069214.26647
     -1750.652  
  23423084.072   123089144.29847      3928.913    23423083.311    95913611.67847
      3061.491  
  23613886.442   124091807.74246      3320.047    23613884.812    96694921.58644
      2587.054  
  20253770.528   106434286.68749     -1028.280    20253770.184    82935801.57449
      -801.257  
  24665201.808   129616517.15445       770.254    24665202.477   100999880.92643
       600.199  
  21843106.278   114786297.85848      2904.909    21843106.005    89443867.13646
      2263.565  
  19464805.082   104233141.37909      1554.815    19464807.824    81070234.50308
      1209.297  
  20135862.868   107788844.57108     -2469.477    20135866.503    83835789.57108
     -1920.702  
  21297278.924   113686327.71807     -3606.734    21297284.574    88422717.79907
     -2805.241  
  22978905.634   122835411.83306      4098.351    22978911.860    95538684.89806
      3187.604  
  19185359.243   102628723.18605      -269.340    19185361.125    79822356.46407
      -209.491  
 20 10 01 03 54 25.0000000  0 12G29G 2G15G18G 5G 7G13R 4R 3R18R 5R19
  21077863.670   110764924.71849      -273.222    21077864.085    86310328.05549
      -212.906  
  22242172.537   116883405.26848     -2247.413    22242170.369    91077968.87347
     -1751.233  
  23419345.832   123069499.96947      3928.789    23419345.224    95898304.43148
      3061.395  
  23610726.896   124075205.05847      3320.684    23610725.367    96681984.40444
      2587.538  
  20254749.421   106439430.77249     -1029.586    20254748.973    82939809.95549
      -802.273  
  24664469.395   129612670.92345       768.598    24664471.004   100996883.85443
       598.910  
  21840342.794   114771775.30748      2903.687    21840342.250    89432550.86747
      2262.608  
  19463354.301   104225372.88709      1552.331    19463357.136    81064192.34808
      1207.366  
  20138170.088   107801195.29608     -2471.164    20138173.647    83845395.68608
     -1922.020  
  21300657.792   113704364.12107     -3608.109    21300663.632    88436746.10507
     -2806.313  
  22975072.023   122814918.54706      4098.104    22975078.211    95522745.67106
      3187.414  
  19185612.383   102630077.40705      -272.222    19185614.116    79823409.74607
      -211.730  
 20 10 01 03 54 30.0000000  0 12G29G 2G15G18G 5G 7G13R 4R 3R18R 5R19
  21078125.364   110766299.71149      -277.116    21078125.623    86311399.47749
      -215.933  
  22244311.642   116894646.90448     -2249.465    22244309.558    91086728.58747
     -1752.831  
  23415608.287   123049858.75546      3927.616    23415607.613    95882999.60048
      3060.479  
  23607567.469   124058603.50147      3319.594    23607566.293    96669048.14845
      2586.694  
  20255730.240   106444584.91649     -1032.269    20255729.980    82943826.17249
      -804.366  
  24663739.545   129608836.31344       765.737    24663741.302   100993895.78544
       596.668  
  21837581.038   114757262.68549      2901.145    21837580.706    89421242.33647
      2260.633  
  19461906.655   104217620.65509      1548.425    19461909.304    81058162.83508
      1204.327  
  20140479.373   107813557.95608     -2474.136    20140483.117    83855011.08408
     -1924.332  
  21304038.345   113722410.05708     -3610.645    21304044.135    88450781.82007
     -2808.281  
  22971239.248   122794429.38806      4096.871    22971245.263    95506809.70006
      3186.461  
  19185869.037   102631450.20505      -276.679    19185870.746    79824477.47807
      -215.198  
 20 10 01 03 54 35.0000000  0 12G29G 2G15G18G 5G 7G13R 4R 3R18R 5R19
  21078390.858   110767694.39349      -280.941    21078391.053    86312486.24349
      -218.918  
  22246452.846   116905898.75749     -2251.461    22246450.721    91095496.25947
     -1754.390  
  23411872.022   123030224.26946      3925.874    23411871.481    95867700.01648
      3059.125  
  23604409.003   124042006.71247      3318.487    23604407.928    96656115.58044
      2585.836  
  20256713.709   106449752.73849     -1035.026    20256713.407    82947853.04749
      -806.520  
  24663012.644   129605017.11145       762.289    24663014.443   100990919.79545
       593.992  
  21834821.956   114742763.57948      2898.378    21834821.618    89409944.33346
      2258.476  
  19460462.755   104209888.38609      1544.359    19460465.335    81052148.84808
      1201.167  
  20142791.812   107825936.21508     -2477.383    20142795.224    83864638.61708
     -1926.855  
  21307421.377   113740469.44408     -3613.296    21307427.566    88464828.00007
     -2810.348  
  22967407.722   122773948.12206      4095.277    22967413.753    95490879.83906
      3185.215  
  19186129.830   102632845.15106      -281.277    19186131.494    79825562.43407
      -218.772  
 20 10 01 03 54 40.0000000  0 12G29G 2G15G18G 5G 7G13R 4R 3R18R 5R19
  21078659.744   110769107.92949      -284.512    21078659.893    86313587.69349
      -221.702  
  22248595.785   116917159.91449     -2252.940    22248593.630    91104271.17647
     -1755.543  
  23408136.696   123010595.65346      3925.437    23408136.285    95852405.01148
      3058.780  
  23601251.308   124025413.82046      3318.281    23601250.556    96643186.04545
      2585.663  
  20257699.670   106454933.34149     -1037.293    20257699.045    82951889.88249
      -808.280  
  24662288.459   129601212.46245       759.102    24662290.532   100987955.15741
       591.508  
  21832065.361   114728277.16648      2896.035    21832064.957    89398656.23546
      2256.651  
  19459022.396   104202175.23309      1540.934    19459024.959    81046149.73207
      1198.504  
  20145106.892   107838329.14408     -2479.741    20145110.206    83874277.55908
     -1928.690  
  21310806.900   113758541.15708     -3615.487    21310812.960    88478883.77307
     -2812.051  
  22963577.344   122753473.96606      4094.621    22963583.761    95474955.50206
      3184.706  
  19186394.513   102634261.40106      -285.320    19186396.125    79826663.95507
      -221.917  
 20 10 01 03 54 45.0000000  0 12G29G 2G15G18G 5G 7G13R 4R 3R18R 5R19
  21078932.062   110770538.40749      -287.218    21078932.133    86314702.34449
      -223.813  
  22250740.269   116928428.47149     -2253.894    22250737.829    91113051.87447
     -1756.281  
  23404402.320   122990971.06547      3924.988    23404401.817    95837113.14447
      3058.433  
  23598093.935   124008822.96346      3318.676    23598093.323    96630258.10744
      2585.977  
  20258687.520   106460124.83749     -1038.914    20258687.130    82955935.20849
      -809.542  
  24661566.730   129597420.34645       757.042    24661568.731   100985000.22144
       589.895  
  21829310.639   114713801.66348      2894.601    21829310.261    89387376.61946
      2255.534  
  19457585.194   104194479.20609      1538.125    19457587.698    81040163.93708
      1196.319  
  20147424.229   107850734.75108     -2481.977    20147427.615    83883926.35208
     -1930.429  
  21314194.241   113776623.42108     -3617.055    21314200.506    88492947.75607
     -2813.269  
  22959748.115   122733004.91306      4093.566    22959754.748    95459035.14306
      3183.887  
  19186663.015   102635697.17405      -288.351    19186664.640    79827780.66507
      -224.276  
 20 10 01 03 54 50.0000000  0 12G29G 2G15G18G 5G 7G13R 4R 3R18R 5R19
  21079207.219   110771984.74049      -291.175    21079207.300    86315829.35549
      -226.894  
  22252885.908   116939703.34949     -2255.840    22252883.481    91121837.49247
     -1757.801  
  23400668.376   122971349.42847      3923.601    23400667.818    95821823.57648
      3057.355  
  23594936.977   123992233.00446      3317.492    23594936.129    96617330.86444
      2585.054  
  20259677.465   106465326.13249     -1041.647    20259676.949    82959988.16449
      -811.680  
  24660847.034   129593639.66245       754.664    24660849.388   100982054.25643
       588.050  
  21826557.884   114699335.83549      2891.937    21826557.514    89376104.55246
      2253.456  
  19456150.983   104186799.16809      1534.144    19456153.595    81034190.57108
      1193.222  
  20149743.822   107863151.96708     -2484.854    20149747.202    83893584.18308
     -1932.668  
  21317583.549   113794715.09108     -3619.628    21317589.939    88507019.04807
     -2815.270  
  22955919.744   122712539.89306      4092.020    22955926.225    95443117.94806
      3182.687  
  19186934.792   102637151.12405      -292.805    19186936.514    79828911.51107
      -227.742  
 20 10 01 03 54 55.0000000  0 12G29G 2G15G18G 5G 7G13R 4R 3R18R 5R19
  21079486.946   110773454.02749      -295.940    21079486.878    86316974.24649
      -230.609  
  22255034.016   116950991.67349     -2258.691    22255031.606    91130633.58147
     -1760.023  
  23396936.410   122951737.78547      3921.668    23396935.763    95806541.77847
      3055.843  
  23591781.381   123975651.14547      3316.104    23591780.698    96604409.93345
      2583.973  
  20260670.463   106470544.37049     -1045.050    20260669.933    82964054.32649
      -814.328  
  24660131.116   129589877.73746       750.711    24660133.278   100979122.77744
       584.956  
  21823808.348   114684886.86849      2888.222    21823807.924    89364845.62646
      2250.563  
  19454721.086   104179142.44608      1529.304    19454723.816    81028235.34408
      1189.460  
  20152067.157   107875588.02308     -2488.917    20152070.187    83903256.66208
     -1935.827  
  21320975.847   113812823.31008     -3623.159    21320982.249    88521103.21907
     -2818.016  
  22952093.621   122692086.10006      4089.609    22952100.122    95427209.47106
      3180.953  
  19187211.255   102638630.60405      -298.473    19187213.238    79830062.21607
      -232.147  
 20 10 01 03 55  0.0000000  0 13G29G 2G15G18G 5G 7G13R 4R 3R18R11R 5
                                R19
  21079769.733   110774940.05549      -298.401    21079769.631    86318132.19449
      -232.523  
  22257183.618   116962287.21849     -2259.504    22257181.191    91139435.30447
     -1760.652  
  23393205.413   122932130.04547      3921.383    23393204.672    95791263.02247
      3055.620  
  23588626.259   123959071.11347      3316.078    23588625.882    96591490.45744
      2583.961  
  20261665.534   106475773.31449     -1046.460    20261664.861    82968128.83149
      -815.425  
  24659417.772   129586128.15347       748.984    24659420.091   100976201.08342
       583.625  
  21821060.887   114670448.48448      2887.098    21821060.276    89353594.93646
      2249.688  
  19453294.309   104171502.62009      1526.711    19453297.159    81022293.27408
      1187.440  
  20154392.572   107888036.52608     -2490.496    20154395.583    83912938.83708
     -1937.051  
  21324370.051   113830941.80508     -3624.452    21324376.559    88535195.38007
     -2819.023  
  23595260.334   126085918.91914      -937.074    23595263.970    98066833.33514
      -728.844  
  22948268.170   122671637.25006      4089.461    22948274.734    95411304.80706
      3180.688  
  19187491.420   102640129.33205      -301.359    19187493.357    79831227.89607
      -234.391  
 20 10 01 03 55  5.0000000  0 13G29G 2G15G18G 5G 7G13R 4R 3R18R 5R20
                                R19
  21080055.014   110776439.87249      -301.926    21080054.833    86319300.86549
      -235.270  
  22259333.977   116973587.02449     -2260.948    22259331.433    91148240.34047
     -1761.780  
  23389474.351   122912523.18247      3920.937    23389473.336    95775984.98148
      3055.280  
  23585470.774   123942489.96047      3315.956    23585470.731    96578570.08044
      2583.862  
  20262662.138   106481010.00549     -1048.609    20262661.530    82972209.36549
      -817.101  
  24658706.120   129582388.01746       746.953    24658708.381   100973286.69144
       582.043  
  21818314.734   114656017.79148      2884.983    21818314.319    89342350.23446
      2248.035  
  19451870.145   104163876.78708      1523.273    19451873.124    81016362.06108
      1184.769  
  20156719.812   107900494.57808     -2493.116    20156722.917    83922628.42508
     -1939.094  
  21327765.773   113849067.45808     -3626.289    21327772.308    88549293.11307
     -2820.448  
  22944443.116   122651190.39506      4088.789    22944449.792    95395401.71806
      3180.167  
  21873900.624   116969576.98114      3716.813    21873908.268    90976370.76616
      2890.854  
  19187774.654   102641644.25705      -304.968    19187776.862    79832406.16407
      -237.203  
 20 10 01 03 55 10.0000000  0 13G29G 2G15G18G 5G 7G13R 4R 3R18R 5R20
                                R19
  21080343.917   110777957.47449      -305.577    21080343.698    86320483.40549
      -238.117  
  22261485.868   116984895.09949     -2262.582    22261483.157    91157051.82347
     -1763.055  
  23385744.265   122892921.26047      3919.671    23385743.241    95760710.77048
      3054.289  
  23582315.927   123925911.75147      3314.824    23582315.646    96565651.96945
      2582.980  
  20263660.810   106486258.46849     -1051.215    20263660.402    82976299.08149
      -819.133  
  24657996.936   129578661.41846       743.582    24657999.275   100970382.80142
       579.402  
  21815570.893   114641598.81049      2882.246    21815570.303    89331114.66546
      2245.906  
  19450449.341   104156268.94908      1519.585    19450452.190    81010444.85908
      1181.898  
  20159049.715   107912966.16808     -2495.937    20159052.623    83932328.54108
     -1941.288  
  21331163.532   113867204.58708     -3628.684    21331169.964    88563399.76107
     -2822.312  
  22940619.092   122630749.60806      4086.956    22940626.078    95379503.36206
      3178.750  
  21870426.753   116950997.22504      3714.190    21870433.162    90961919.85605
      2888.816  
  19188061.572   102643179.44906      -309.656    19188063.998    79833600.19107
      -240.848  
 20 10 01 03 55 15.0000000  0 13G29G 2G15G18G 5G 7G13R 4R 3R18R 5R20
                                R19
  21080636.619   110779495.85049      -308.925    21080636.502    86321682.13849
      -240.726  
  22263639.866   116996214.40549     -2264.273    22263637.315    91165872.05147
     -1764.371  
  23382015.700   122873327.26647      3918.530    23382014.621    95745442.72848
      3053.402  
  23579162.261   123909339.37647      3314.371    23579162.140    96552738.45544
      2582.625  
  20264662.348   106491521.61849     -1053.301    20264661.954    82980400.23649
      -820.757  
  24657291.046   129574951.28746       740.937    24657293.423   100967491.76844
       577.351  
  21812829.904   114627194.50248      2880.093    21812829.233    89319890.53746
      2244.230  
  19449032.630   104148682.17809      1516.020    19449035.521    81004544.04708
      1179.144  
  20161382.613   107925454.23008     -2498.570    20161385.421    83942041.47208
     -1943.336  
  21334563.937   113885355.86808     -3631.020    21334570.512    88577517.41507
     -2824.128  
  22936796.891   122610317.87406      4086.245    22936804.048    95363612.03506
      3178.190  
  21866954.299   116932428.26404      3712.687    21866960.359    90947477.34206
      2887.644  
  19188352.881   102644737.97006      -312.917    19188355.453    79834812.37807
      -243.383  
 20 10 01 03 55 20.0000000  0 13G29G 2G15G18G 5G 7G13R 4R 3R18R 5R20
                                R19
  21080932.562   110781050.04349      -312.733    21080932.223    86322893.18949
      -243.690  
  22265795.004   117007539.95149     -2266.030    22265792.465    91174697.15646
     -1765.742  
  23378287.653   122853736.18847      3917.582    23378286.461    95730176.97347
      3052.659  
  23576008.603   123892767.97747      3313.953    23576008.657    96539825.68745
      2582.300  
  20265665.778   106496794.48849     -1055.949    20265665.210    82984508.96749
      -822.820  
  24656587.272   129571252.67846       737.839    24656589.661   100964609.72744
       574.934  
  21810090.646   114612799.91648      2877.577    21810089.936    89308673.97846
      2242.270  
  19447618.754   104141111.43808      1512.156    19447621.492    80998655.69408
      1176.120  
  20163717.578   107937953.70208     -2501.362    20163720.367    83951763.28208
     -1945.507  
  21337966.209   113903516.42508     -3633.495    21337972.740    88591642.29607
     -2826.055  
  22932975.568   122589890.09106      4084.718    22932982.520    95347723.76406
      3177.004  
  21863483.245   116913865.32404      3711.866    21863489.129    90933039.48906
      2887.004  
  19188647.630   102646314.77406      -317.148    19188650.255    79836038.77007
      -246.675  
 20 10 01 03 55 25.0000000  0 13G29G 2G15G18G 5G 7G13R 4R 3R18R 5R20
                                R19
  21081231.558   110782621.30749      -316.046    21081231.125    86324117.55249
      -246.269  
  22267951.844   117018873.00449     -2267.422    22267949.066    91183528.10846
     -1766.824  
  23374560.361   122834149.38347      3916.675    23374559.348    95714914.53848
      3051.957  
  23572855.556   123876198.73047      3313.589    23572855.784    96526914.57344
      2582.020  
  20266671.284   106502078.33349     -1057.956    20266670.890    82988626.24349
      -824.386  
  24655885.911   129567566.72146       735.921    24655888.218   100961737.56044
       573.441  
  21807353.665   114598416.32848      2875.456    21807352.870    89297465.99546
      2240.616  
  19446208.038   104133557.93008      1508.883    19446210.823    80992780.74708
      1173.574  
  20166054.979   107950465.89608     -2503.749    20166057.471    83961494.98308
     -1947.362  
  21341370.345   113921687.34008     -3635.289    21341376.860    88605775.21807
     -2827.449  
  22929154.867   122569467.62805      4083.930    22929162.182    95331839.63306
      3176.390  
  21860013.428   116895309.46304      3709.718    21860019.231    90918607.14806
      2885.332  
  19188946.150   102647911.03105      -321.191    19188948.882    79837280.29707
      -249.819  
 20 10 01 03 55 30.0000000  0 13G29G 2G15G18G 5G 7G13R 4R 3R18R 5R20
                                R19
  21081534.355   110784212.32849      -320.171    21081533.963    86325357.30949
      -249.483  
  22270110.367   117030216.27449     -2269.508    22270107.648    91192367.01746
     -1768.453  
  23370834.395   122814569.51847      3915.120    23370833.412    95699657.51248
      3050.741  
  23569703.448   123859634.32347      3312.270    23569703.678    96514007.22745
      2580.983  
  20267679.260   106507375.87849     -1060.866    20267679.009    82992754.19649
      -826.651  
  24655187.693   129563896.24947       732.703    24655189.687   100958877.41443
       570.930  
  21804619.193   114584046.42849      2872.590    21804618.462    89286268.67446
      2238.382  
  19444801.263   104126024.49309      1504.691    19444804.021    80986921.40508
      1170.312  
  20168395.354   107962993.57709     -2507.026    20168397.703    83971238.74008
     -1949.909  
  21344776.900   113939871.66708     -3638.250    21344783.366    88619918.57807
     -2829.754  
  22925335.967   122549053.29506      4081.593    22925343.233    95315961.86606
      3174.578  
  21856545.025   116876763.63904      3708.441    21856550.916    90904182.61106
      2884.339  
  19189248.728   102649529.68105      -326.147    19189251.570    79838539.25007
      -253.676  
 20 10 01 03 55 35.0000000  0 13G29G 2G15G18G 5G 7G13R 4R 3R18R 5R20
                                R19
  21081840.563   110785821.43049      -323.448    21081840.232    86326611.14849
      -252.043  
  22272270.569   117041568.08949     -2271.094    22272267.634    91201212.57746
     -1769.687  
  23367109.367   122794994.95947      3914.530    23367108.563    95684404.60048
      3050.284  
  23566551.911   123843073.22846      3311.819    23566552.330    96501102.48444
      2580.641  
  20268689.734   106512685.42549     -1062.987    20268689.345    82996891.51049
      -828.305  
  24654491.957   129560239.60247       730.433    24654493.673   100956028.10143
       569.167  
  21801886.993   114569688.61748      2870.516    21801886.289    89275080.75947
      2236.761  
  19443397.875   104118509.35209      1501.331    19443400.621    80981076.29108
      1167.699  
  20170738.376   107975535.01808     -2509.461    20170740.625    83980993.19508
     -1951.808  
  21348185.690   113958067.42508     -3640.059    21348192.038    88634070.84107
     -2831.156  
  22921518.041   122528645.41406      4080.953    22921525.782    95300089.07706
      3174.073  
  21853078.640   116858225.87904      3707.336    21853084.255    90889764.36006
      2883.483  
  19189555.044   102651168.79605      -329.651    19189558.059    79839814.11007
      -256.398  
 20 10 01 03 55 40.0000000  0 14G29G 2G15G18G 5G30G 7G13R 4R 3R18R 5
                                R20R19
  21082150.401   110787449.64349      -327.007    21082149.881    86327879.88949
      -254.815  
  22274432.485   117052929.46849     -2272.688    22274429.586    91210065.59947
     -1770.930  
  23363385.715   122775426.66047      3913.397    23363385.013    95669156.59648
      3049.401  
  23563401.157   123826516.37047      3311.675    23563401.826    96488201.04145
      2580.527  
  20269702.666   106518008.03949     -1065.422    20269702.118    83001038.99349
      -830.202  
  24546321.460   128991790.86615      2074.156           0.000           0.0000 
         0.000  
  24653799.102   129556597.87246       727.651    24653800.393   100953190.36344
       566.995  
  21799157.235   114555343.92348      2868.101    21799156.793    89263903.08546
      2234.882  
  19441998.018   104111013.68109      1497.624    19442000.865    80975246.32508
      1164.862  
  20173083.953   107988091.23008     -2512.222    20173086.205    83990759.12308
     -1953.952  
  21351596.697   113976275.83308     -3642.128    21351603.129    88648232.92407
     -2832.770  
  22917701.433   122508244.95805      4079.866    22917709.478    95284222.05706
      3173.229  
  21849613.655   116839697.64304      3705.194    21849619.444    90875353.51706
      2881.820  
  19189865.519   102652829.56305      -333.862    19189868.382    79841105.82907
      -259.672  
 20 10 01 03 55 45.0000000  0 14G29G 2G15G18G 5G30G 7G13R 4R 3R18R 5
                                R20R19
  21082463.265   110789093.03449      -329.979    21082462.699    86329160.45349
      -257.133  
  22276595.521   117064296.45748     -2273.934    22276592.512    91218922.98246
     -1771.898  
  23359662.449   122755860.79947      3913.055    23359661.986    95653910.48748
      3049.133  
  23560250.396   123809959.85547      3311.352    23560251.076    96475299.87145
      2580.270  
  20270717.104   106523339.66949     -1067.137    20270716.847    83005193.51149
      -831.538  
  24544347.879   128981420.47145      2073.777    24544351.511   100504995.80053
      1615.929  
  24653108.471   129552967.05047       725.230    24653109.375   100950361.16642
       565.113  
  21796429.379   114541008.38348      2866.261    21796428.731    89252732.53446
      2233.445  
  19440601.188   104103533.38009      1494.597    19440604.007    80969428.30508
      1162.461  
  20175431.571   108000658.15308     -2514.457    20175433.791    84000533.40308
     -1955.687  
  21355009.376   113994492.85008     -3644.171    21355015.908    88662401.70607
     -2834.358  
  22913885.612   122487847.89806      4079.284    22913893.588    95268357.70006
      3172.733  
  21846149.879   116821174.58704      3704.152    21846155.597    90860946.68706
      2881.004  
  19190179.137   102654507.99405      -337.097    19190182.310    79842411.27007
      -262.191  
 20 10 01 03 55 50.0000000  0 14G29G 2G15G18G 5G30G 7G13R 4R 3R18R 5
                                R20R19
  21082779.022   110790752.53449      -333.741    21082778.452    86330453.56449
      -260.062  
  22278759.702   117075669.99148     -2275.496    22278756.947    91227785.47846
     -1773.117  
  23355939.923   122736298.25947      3911.965    23355939.481    95638666.94948
      3048.284  
  23557099.987   123793404.65647      3310.566    23557100.899    96462399.73544
      2579.663  
  20271733.635   106528681.25949     -1069.551    20271733.286    83009355.78249
      -833.422  
  24542376.380   128971058.42245      2071.628    24542382.161   100496921.54643
      1614.262  
  24652419.958   129549348.01847       722.359    24652420.584   100947541.11944
       562.874  
  21793703.180   114526682.95348      2863.652    21793702.664    89241569.87046
      2231.418  
  19439207.327   104096069.34709      1490.914    19439210.041    80963622.95708
      1159.601  
  20177781.246   108013236.80108     -2517.230    20177783.586    84010316.78908
     -1957.851  
  21358423.946   114012719.18008     -3646.586    21358430.364    88676577.73107
     -2836.238  
  22910070.834   122467455.25005      4077.308    22910078.577    95252496.74406
      3171.233  
  21842687.246   116802657.89404      3702.233    21842692.809    90846544.82306
      2879.515  
  19190496.484   102656205.08305      -341.844    19190499.592    79843731.22307
      -265.882  
 20 10 01 03 55 55.0000000  0 14G29G 2G15G18G 5G30G 7G13R 4R 3R18R 5
                                R20R19
  21083098.584   110792431.66049      -337.559    21083097.846    86331761.96349
      -263.034  
  22280925.969   117087053.61748     -2277.527    22280923.032    91236655.82846
     -1774.699  
  23352218.499   122716742.64047      3910.644    23352218.400    95623428.80948
      3047.249  
  23553950.586   123776854.28747      3309.762    23553951.778    96449503.32845
      2579.030  
  20272752.625   106534036.37249     -1072.097    20272752.429    83013528.59749
      -835.406  
  24540406.338   128960708.06145      2068.655    24540410.068   100488856.28043
      1611.922  
  24651734.249   129545744.40446       719.180    24651734.828   100944733.09444
       560.394  
  21790979.869   114512371.23248      2861.070    21790979.219    89230417.87946
      2229.406  
  19437817.184   104088625.31909      1486.930    19437820.183    80957833.15208
      1156.496  
  20180133.917   108025830.74108     -2520.116    20180136.547    84020112.07108
     -1960.094  
  21361840.749   114030958.68408     -3648.952    21361847.428    88690764.01907
     -2838.074  
  22906257.327   122447070.62505      4076.270    22906265.202    95236642.05905
      3170.434  
  21839226.814   116784151.25204      3700.031    21839232.014    90832150.78006
      2877.801  
  19190817.835   102657924.40606      -345.761    19190820.963    79845068.47107
      -268.929  
 20 10 01 03 56  0.0000000  0 14G29G 2G15G18G 5G30G 7G13R 4R 3R18R 5
                                R20R19
  21083421.566   110794128.59649      -341.164    21083420.924    86333084.25449
      -265.844  
  22283093.791   117098445.50448     -2279.156    22283090.881    91245532.62146
     -1775.969  
  23348498.262   122697192.06847      3909.809    23348498.266    95608194.60548
      3046.604  
  23550801.627   123760306.89547      3309.417    23550803.022    96436609.26244
      2578.766  
  20273773.918   106539403.21049     -1074.659    20273773.765    83017710.54749
      -837.402  
  24538438.210   128950367.60445      2066.840    24538441.903   100480798.84944
      1610.535  
  24651051.145   129542154.35446       716.362    24651051.150   100941935.67345
       558.206  
  21788258.635   114498071.39348      2858.702    21788258.229    89219275.16246
      2227.563  
  19436430.393   104081199.42709      1483.289    19436433.414    80952057.46608
      1153.668  
  20182489.215   108038438.11708     -2522.808    20182491.689    84029917.81108
     -1962.184  
  21365259.783   114049209.53408     -3651.401    21365266.367    88704959.12507
     -2839.983  
  22902445.190   122426692.28505      4074.949    22902452.755    95220792.23405
      3169.402  
  21835767.338   116765652.60204      3698.538    21835772.708    90817762.93206
      2876.636  
  19191143.115   102659664.06206      -349.663    19191146.182    79846421.53907
      -271.960  
 20 10 01 03 56  5.0000000  0 14G29G 2G15G18G 5G30G 7G13R 4R 3R18R 5
                                R20R19
  21083748.155   110795844.14449      -344.597    21083747.418    86334421.03949
      -268.522  
  22285263.315   117109846.39848     -2280.929    22285260.461    91254416.43846
     -1777.351  
  23344778.951   122677647.36047      3908.636    23344779.096    95592964.97648
      3045.690  
  23547653.608   123743763.31747      3308.664    23547654.979    96423718.17544
      2578.179  
  20274797.495   106544782.48749     -1076.729    20274797.551    83021902.18849
      -839.015  
  24536471.677   128940037.81144      2065.456    24536477.486   100472749.69942
      1609.449  
  24650370.764   129538578.58446       714.652    24650370.648   100939149.34844
       556.867  
  21785539.877   114483784.16148      2856.409    21785539.451    89208142.25246
      2225.772  
  19435047.152   104073792.29609      1479.957    19435050.274    80946296.36008
      1151.020  
  20184846.919   108051059.65308     -2525.492    20184849.752    84039734.55808
     -1964.277  
  21368681.004   114067472.24508     -3653.371    21368687.473    88719163.44607
     -2841.516  
  22898634.191   122406320.87105      4073.703    22898641.599    95204947.80405
      3168.438  
  21832309.626   116747162.91204      3696.679    21832315.271    90803382.07206
      2875.194  
  19191472.101   102661424.82006      -353.921    19191475.516    79847791.01207
      -275.277  
 20 10 01 03 56 10.0000000  0 14G29G 2G15G18G 5G30G 7G13R 4R 3R18R 5
                                R20R19
  21084078.194   110797578.26149      -348.844    21084077.332    86335772.29449
      -271.831  
  22287434.549   117121256.30848     -2283.230    22287431.731    91263307.27146
     -1779.144  
  23341060.781   122658108.49947      3906.617    23341061.156    95577739.91448
      3044.116  
  23544506.160   123727223.52247      3307.355    23544507.670    96410830.00645
      2577.152  
  20275823.541   106550174.26749     -1079.843    20275823.541    83026103.57149
      -841.441  
  24534507.736   128929718.73244      2062.585    24534513.155   100464708.90741
      1607.237  
  24649693.155   129535017.22446       710.195    24649692.805   100936374.25844
       553.394  
  21782823.404   114469509.59648      2853.160    21782823.109    89197019.22447
      2223.242  
  19433667.471   104066404.07509      1475.483    19433670.494    80940549.97108
      1147.597  
  20187207.466   108063695.28208     -2528.738    20187210.463    84049562.26508
     -1966.800  
  21372104.310   114085746.83108     -3656.512    21372110.948    88733377.01007
     -2843.957  
  22894824.622   122385956.38505      4072.229    22894831.807    95189108.80005
      3167.292  
  21828853.401   116728681.89104      3695.038    21828858.983    90789007.96107
      2873.917  
  19191805.304   102663206.54406      -358.734    19191808.440    79849176.79807
      -279.020  
 20 10 01 03 56 15.0000000  0 13G29G 2G15G18G 5G 7G13R 4R 3R18R 5R20
                                R19
  21084411.418   110799329.17849      -351.276    21084410.414    86337136.64449
      -273.727  
  22289607.072   117132673.46348     -2283.507    22289604.231    91272203.76446
     -1779.354  
  23337343.382   122638573.74847      3906.918    23337344.200    95562518.03748
      3044.351  
  23541359.149   123710685.74647      3307.840    23541360.621    96397943.42645
      2577.534  
  20276851.498   106555576.78449     -1081.031    20276851.721    83030313.32449
      -842.367  
  24649017.795   129531468.34146       708.890    24649017.229   100933608.88444
       552.379  
  21780109.023   114455245.89448      2852.218    21780108.772    89185904.65546
      2222.507  
  19432290.810   104059032.96209      1473.104    19432294.044    80934816.88708
      1145.750  
  20189570.206   108076343.27808     -2530.265    20189573.312    84059399.59108
     -1967.987  
  21375529.632   114104031.61908     -3657.323    21375536.110    88747598.51307
     -2844.590  
  22891015.932   122365597.16205      4071.957    22891022.959    95173273.87405
      3167.323  
  21825399.050   116710208.11004      3695.171    21825404.457    90774639.45907
      2874.019  
  19192141.848   102665007.73406      -361.594    19192145.191    79850577.72207
      -281.242  
 20 10 01 03 56 20.0000000  0 13G29G 2G15G18G 5G 7G13R 4R 3R18R 5R20
                                R19
  21084747.330   110801094.97349      -355.038    21084746.424    86338512.58149
      -276.655  
  22291780.549   117144095.91348     -2285.402    22291777.926    91281104.36846
     -1780.835  
  23333626.537   122619041.15747      3906.109    23333627.222    95547297.85348
      3043.723  
  23538212.327   123694148.02247      3307.386    23538213.585    96385056.87145
      2577.179  
  20277881.359   106560988.02149     -1083.409    20277881.353    83034529.87149
      -844.218  
  24648344.531   129527930.12946       706.492    24648343.930   100930851.83944
       550.511  
  21777396.533   114440991.16248      2849.718    21777396.394    89174797.07847
      2220.558  
  19430917.106   104051676.83809      1469.352    19430920.460    80929095.45708
      1142.828  
  20191934.843   108089001.64809     -2533.074    20191938.066    84069244.98008
     -1970.172  
  21378956.476   114122324.63008     -3659.772    21378962.968    88761826.40407
     -2846.496  
  22887207.768   122345241.12605      4070.711    22887214.879    95157441.42505
      3166.113  
  21821945.270   116691739.50904      3692.503    21821950.676    90760274.99707
      2871.949  
  19192481.915   102666826.30206      -365.824    19192485.289    79851992.16807
      -284.531  
 20 10 01 03 56 25.0000000  0 13G29G 2G15G18G 5G 7G13R 4R 3R18R 5R20
                                R19
  21085087.008   110802879.96249      -359.000    21085086.106    86339903.49049
      -279.742  
  22293956.083   117155528.01548     -2287.402    22293953.285    91290012.50746
     -1782.390  
  23329910.896   122599515.14347      3904.569    23329911.641    95532082.79648
      3042.523  
  23535066.121   123677614.75347      3306.257    23535067.531    96372173.80645
      2576.300  
  20278913.513   106566412.33549     -1086.176    20278913.671    83038756.60549
      -846.375  
  24647673.951   129524406.89347       703.203    24647673.663   100928106.45943
       547.945  
  21774686.327   114426749.77948      2846.729    21774686.228    89163699.89947
      2218.230  
  19429547.177   104044340.31009      1465.378    19429550.446    80923389.27008
      1139.698  
  20194302.286   108101674.75409     -2536.023    20194305.683    84079101.84508
     -1972.465  
  21382385.794   114140630.18708     -3662.542    21382392.222    88776064.05307
     -2848.647  
  22883401.016   122324892.73106      4068.815    22883407.989    95141614.92005
      3164.637  
  21818493.363   116673280.42204      3690.901    21818498.877    90745917.92807
      2870.699  
  19192825.907   102668666.64306      -370.394    19192829.193    79853423.54407
      -288.089  
 20 10 01 03 56 30.0000000  0 13G29G 2G15G18G 5G 7G13R 4R 3R18R 5R20
                                R19
  21085430.514   110804684.40749      -362.706    21085429.427    86341309.55149
      -282.633  
  22296133.322   117166970.01548     -2289.367    22296130.654    91298928.34346
     -1783.925  
  23326196.389   122579995.86947      3903.308    23326197.339    95516872.97348
      3041.538  
  23531921.031   123661086.19047      3305.277    23531922.557    96359294.41545
      2575.539  
  20279948.169   106571849.89949     -1088.745    20279948.429    83042993.67449
      -848.374  
  24647006.392   129520898.97346       699.976    24647006.317   100925373.00843
       545.434  
  21771978.806   114412521.97448      2844.503    21771978.987    89152613.29247
      2216.492  
  19428180.796   104037023.55809      1461.527    19428184.033    80917698.45908
      1136.738  
  20196672.517   108114362.84809     -2538.921    20196676.154    84088970.37808
     -1974.719  
  21385817.360   114158948.58608     -3664.729    21385823.623    88790311.67907
     -2850.352  
  22879595.995   122304552.24205      4067.145    22879602.875    95125794.54906
      3163.336  
  21815042.987   116654831.30904      3688.507    21815048.905    90731568.61807
      2868.836  
  19193173.981   102670528.91706      -374.354    19193177.220    79854871.97407
      -291.167  
 20 10 01 03 56 35.0000000  0 13G29G 2G15G18G 5G 7G13R 4R 3R18R 5R20
                                R19
  21085777.071   110806505.42249      -365.937    21085775.940    86342728.52949
      -285.145  
  22298311.840   117178419.01748     -2290.742    22298309.242    91307849.64146
     -1784.995  
  23322482.880   122560480.59347      3903.012    23322484.017    95501666.25948
      3041.304  
  23528776.168   123644559.48247      3304.977    23528777.674    96346416.45845
      2575.300  
  20280984.933   106577297.94449     -1090.886    20280985.127    83047238.90149
      -850.042  
  24646341.381   129517403.43946       697.895    24646341.095   100922649.18943
       543.792  
  21769273.412   114398304.90348      2842.266    21769273.716    89141535.06847
      2214.749  
  19426817.589   104029723.64109      1458.141    19426820.735    80912020.74508
      1134.109  
  20199045.046   108127062.99409     -2541.339    20199048.745    84098848.26708
     -1976.601  
  21389250.796   114177276.78408     -3666.870    21389256.950    88804566.96007
     -2852.012  
  22875791.768   122284216.81406      4066.253    22875798.773    95109978.10505
      3162.641  
  21811594.083   116636389.06104      3687.042    21811600.104    90717224.64907
      2867.695  
  19193525.776   102672410.40805      -378.276    19193529.071    79856335.35207
