     2.11           OBSERVATION DATA    M                   RINEX VERSION / TYPE
LEICA GEO OFFICE 8.4                    29-9-20 09:38       PGM / RUN BY / DATE
                                                            OBSERVER / AGENCY
CHER                                                        MARKER NAME
CHER                                                        MARKER NUMBER
468588              LEICA GX1220GG      5.60                REC # / TYPE / VERS
                    LEIAX1202GG                             ANT # / TYPE
 -1179715.8247  3852977.7653  4928293.6193                  APPROX POSITION XYZ
        1.6330        0.0000        0.0000                  ANTENNA: DELTA H/E/N
L1PhaOff:   0.0644  L2PhaOff:   0.0640                      COMMENT
     1     1                                                WAVELENGTH FACT L1/2
     6    C1    L1    D1    P2    L2    D2                  # / TYPES OF OBSERV
  2020     9    28     9    15   20.0000000     GPS         TIME OF FIRST OBS
  2020     9    28    10    52   35.0000000     GPS         TIME OF LAST OBS
    18                                                      LEAP SECONDS
    23                                                      # OF SATELLITES
          C1    L1    D1    P2    L2    D2                  COMMENT
   G 1  1004  1004  1004  1003  1003  1003                  PRN / # OF OBS
   G 2     0     0     0     0     0     0                  PRN / # OF OBS
   G 3     0     0     0     0     0     0                  PRN / # OF OBS
   G 4     0     0     0     0     0     0                  PRN / # OF OBS
   G 5     0     0     0     0     0     0                  PRN / # OF OBS
   G 6     0     0     0     0     0     0                  PRN / # OF OBS
   G 7     0     0     0     0     0     0                  PRN / # OF OBS
   G 8     0     0     0     0     0     0                  PRN / # OF OBS
   G 9     0     0     0     0     0     0                  PRN / # OF OBS
   G10  1168  1168  1168  1168  1168  1168                  PRN / # OF OBS
   G11   621   621   621   621   621   621                  PRN / # OF OBS
   G12  1166  1166  1166  1166  1166  1166                  PRN / # OF OBS
   G13     0     0     0     0     0     0                  PRN / # OF OBS
   G14     0     0     0     0     0     0                  PRN / # OF OBS
   G15    14    14    14    11    11    11                  PRN / # OF OBS
   G16     0     0     0     0     0     0                  PRN / # OF OBS
   G17     0     0     0     0     0     0                  PRN / # OF OBS
   G18     0     0     0     0     0     0                  PRN / # OF OBS
   G19     0     0     0     0     0     0                  PRN / # OF OBS
   G20  1047  1047  1047  1047  1047  1047                  PRN / # OF OBS
   G21  1168  1168  1168  1168  1168  1168                  PRN / # OF OBS
   G22   406   406   406   402   402   402                  PRN / # OF OBS
   G23     0     0     0     0     0     0                  PRN / # OF OBS
   G24  1127  1127  1127  1127  1127  1127                  PRN / # OF OBS
   G25  1086  1086  1086  1085  1085  1085                  PRN / # OF OBS
   G26     0     0     0     0     0     0                  PRN / # OF OBS
   G27     0     0     0     0     0     0                  PRN / # OF OBS
   G28     0     0     0     0     0     0                  PRN / # OF OBS
   G29     0     0     0     0     0     0                  PRN / # OF OBS
   G30     0     0     0     0     0     0                  PRN / # OF OBS
   G31   876   876   876   875   875   875                  PRN / # OF OBS
   G32  1168  1168  1168  1168  1168  1168                  PRN / # OF OBS
   R 1     0     0     0     0     0     0                  PRN / # OF OBS
   R 2   217   217   217   216   216   216                  PRN / # OF OBS
   R 3  1168  1168  1168  1168  1168  1168                  PRN / # OF OBS
   R 4  1168  1168  1168  1168  1168  1168                  PRN / # OF OBS
   R 5   881   881   881   870   870   870                  PRN / # OF OBS
   R 6     0     0     0     0     0     0                  PRN / # OF OBS
   R 7     0     0     0     0     0     0                  PRN / # OF OBS
   R 8     0     0     0     0     0     0                  PRN / # OF OBS
   R 9     0     0     0     0     0     0                  PRN / # OF OBS
   R10     0     0     0     0     0     0                  PRN / # OF OBS
   R11     0     0     0     0     0     0                  PRN / # OF OBS
   R12   577   577   577   577   577   577                  PRN / # OF OBS
   R13  1168  1168  1168  1166  1166  1166                  PRN / # OF OBS
   R14  1168  1168  1168  1168  1168  1168                  PRN / # OF OBS
   R15   446   446   446   445   445   445                  PRN / # OF OBS
   R16     0     0     0     0     0     0                  PRN / # OF OBS
   R17     0     0     0     0     0     0                  PRN / # OF OBS
   R18     0     0     0     0     0     0                  PRN / # OF OBS
   R19   132   132   132   133   133   133                  PRN / # OF OBS
   R20   367   367   367   345   345   345                  PRN / # OF OBS
   R21   654   654   654   653   653   653                  PRN / # OF OBS
   R22     0     0     0     0     0     0                  PRN / # OF OBS
   R23     0     0     0     0     0     0                  PRN / # OF OBS
   R24     0     0     0     0     0     0                  PRN / # OF OBS
                                                            END OF HEADER
 20 09 28 09 15 20.0000000  0 14G12G15G21G32G24G20G10R 3R13R 2R14R12
                                R19R 4
  23612099.411   124082422.76747      3002.383    23612100.415    96687593.80846
      2339.511  
  24789557.464   130269998.47146     -3507.004    24789558.740   101509096.91246
     -2732.730  
  23009640.509   120916480.46348        70.805    23009639.661    94220641.63946
        55.168  
  21684501.265   113952856.17049      2323.449    21684503.548    88794461.58647
      1810.479  
  21333213.507   112106834.82548     -2191.667    21333215.608    87356000.54048
     -1707.796  
  21047513.367   110605455.80249     -2485.121    21047512.850    86186071.19447
     -1936.460  
  20383891.325   107118092.80949        82.340    20383893.133    83468660.17049
        64.155  
  19561120.086   104712254.39209      -967.785    19561123.435    81442900.92408
      -752.727  
  19966624.683   106620660.34805      1240.175           0.000           0.0000 
         0.000  
  22748454.095   121390105.22807     -3385.124    22748461.729    94414547.20706
     -2632.879  
  22389520.265   119348741.23507      4351.464    22389527.591    92826830.15806
      3384.472  
  21655633.109   115680532.97208     -2867.448    21655638.828    89973782.86607
     -2230.237  
  22271452.562   119137257.26605     -3145.612    22271456.586    92662325.27806
     -2446.594  
  20420151.876   109349007.55309      2411.116    20420155.093    85049252.82708
      1875.309  
 20 09 28 09 15 25.0000000  0 14G12G15G21G32G24G20G10R 3R13R 2R14R12
                                R19R 4
  23609243.312   124067413.74047      3001.926    23609244.044    96675898.54046
      2339.171  
  24792894.028   130287534.26946     -3506.132    24792896.244   101522761.12045
     -2732.058  
  23009574.511   120916133.70548        69.008    23009573.675    94220371.43846
        53.773  
  21682291.293   113941242.68949      2323.133    21682293.556    88785412.13347
      1810.234  
  21335300.089   112117799.88748     -2193.160    21335302.189    87364544.74348
     -1708.960  
  21049878.954   110617887.04649     -2486.331    21049878.443    86195757.87147
     -1937.406  
  20383814.370   107117688.43849        80.586    20383816.182    83468345.06849
        62.789  
  19562025.389   104717100.49009      -969.305    19562028.734    81446670.11108
      -753.906  
  19965465.824   106614472.54506      1236.215           0.000           0.0000 
         0.000  
  22751626.411   121407033.34906     -3384.352    22751632.783    94427713.54105
     -2632.273  
  22385439.077   119326986.52007      4351.522    22385446.450    92809909.83906
      3384.520  
  21658318.855   115694879.80908     -2869.801    21658324.579    89984941.52207
     -2232.065  
  22274394.229   119152994.01505     -3147.604    22274398.411    92674564.96106
     -2448.140  
  20417901.252   109336955.47109      2410.773    20417904.439    85039878.99608
      1875.046  
 20 09 28 09 15 30.0000000  0 14G12G15G21G32G24G20G10R 3R13R 2R14R12
                                R19R 4
  23606386.865   124052403.41948      3001.276    23606387.871    96664202.17845
      2338.652  
  24796228.922   130305061.00446     -3505.168    24796231.130   101536418.29746
     -2731.308  
  23009509.288   120915790.95748        67.102    23009508.432    94220104.37046
        52.284  
  21680080.758   113929626.21849      2322.698    21680083.012    88776360.32747
      1809.890  
  21337387.274   112128768.12049     -2194.991    21337389.359    87373091.41548
     -1710.387  
  21052244.935   110630320.29549     -2487.827    21052244.426    86205446.11247
     -1938.570  
  20383738.304   107117288.67449        78.534    20383740.110    83468033.56849
        61.190  
  19562931.178   104721949.18709      -970.944    19562934.519    81450441.32108
      -755.179  
  19964309.349   106608297.28306      1232.723    19964314.265    82917585.16316
       958.785  
  22754797.248   121423956.35306     -3384.995    22754803.109    94440875.84806
     -2632.781  
  22381357.268   119305228.52707      4350.805    22381364.686    92792986.96506
      3383.961  
  21661005.851   115709233.22907     -2872.656    21661011.568    89996105.28606
     -2234.293  
  22277337.141   119168735.45104     -3149.245    22277341.107    92686808.30306
     -2449.417  
  20415650.280   109324901.55509      2410.000    20415653.456    85030503.73108
      1874.448  
 20 09 28 09 15 35.0000000  0 12G21G32G24G20G10R 3R13R 2R14R12R19R 4
  23009446.466   120915460.88448        64.979    23009445.621    94219847.16946
        50.628  
  21677871.293   113918015.40449      2321.901    21677873.542    88767312.94848
      1809.270  
  21339476.687   112139748.02548     -2196.539    21339478.774    87381647.19048
     -1711.590  
  21054612.941   110642764.25048     -2489.547    21054612.443    86215142.68547
     -1939.910  
  20383664.765   107116902.19549        76.261    20383666.566    83467732.41949
        59.425  
  19563839.043   104726809.24609      -972.757    19563842.420    81454221.36808
      -756.624  
  19963156.932   106602143.25406      1229.145    19963161.820    82912798.69706
       956.000  
  22757969.672   121440883.14106     -3385.589    22757976.108    94454041.13205
     -2633.242  
  22377276.537   119283476.05907      4350.379    22377283.967    92776068.39407
      3383.628  
  21663695.690   115723601.92708     -2874.683    21663701.426    90007280.94207
     -2235.867  
  22280282.093   119184490.23905     -3151.831    22280286.339    92699062.01106
     -2451.429  
  20413400.602   109312854.53709      2409.046    20413403.753    85021133.83007
      1873.702  
 20 09 28 09 15 40.0000000  0 14G11G15G21G32G24G20G10R 3R13R 2R14R12
                                R19R 4
  23906245.427   125628159.20156       371.847    23906244.714    97892065.44954
       289.750  
  24802898.511   130340109.83656     -3504.949    24802899.701   101563733.32354
     -2731.132  
  23009385.211   120915139.08148        62.453    23009384.370    94219596.42046
        48.660  
  21675662.060   113906405.83649      2320.624    21675664.307    88758266.53247
      1808.276  
  21341567.507   112150735.26448     -2199.358    21341569.557    87390208.69247
     -1713.784  
  21056982.121   110655214.41048     -2491.804    21056981.668    86224844.10946
     -1941.667  
  20383592.907   107116524.58149        73.417    20383594.708    83467438.17149
        57.202  
  19564748.215   104731676.14509      -975.226    19564751.582    81458006.73308
      -758.511  
  19962007.554   106596006.29305      1224.504    19962012.573    82908025.50806
       952.391  
  22761141.817   121457809.06705     -3386.522    22761147.945    94467205.77705
     -2633.956  
  22373196.012   119261724.84206      4349.301    22373203.460    92759150.79705
      3382.789  
  21666387.549   115737981.47908     -2877.952    21666393.300    90018465.00407
     -2238.414  
  22283228.951   119200254.22705     -3154.562    22283233.252    92711322.86506
     -2453.554  
  20411151.388   109300810.13209      2407.483    20411154.528    85011765.97907
      1872.488  
 20 09 28 09 15 45.0000000  0 15G11G12G15G21G32G24G20G10R 3R13R 2R14
                                R12R19R 4
  23905891.612   125626302.51547       368.703    23905894.549    97890618.61143
       287.288  
  23597823.976   124007401.85157      2997.031    23597825.369    96629150.13054
      2335.344  
  24806232.470   130357629.47345     -3505.069    24806233.717   101577385.03044
     -2731.223  
  23009326.091   120914828.43548        59.847    23009325.227    94219354.36446
        46.633  
  21673453.621   113894800.44549      2319.516    21673455.871    88749223.38547
      1807.414  
  21343660.289   112161732.84848     -2201.663    21343662.330    87398778.24747
     -1715.581  
  21059353.073   110667673.78148     -2493.961    21059352.588    86234552.69346
     -1943.352  
  20383523.302   107116158.73749        70.815    20383525.098    83467153.09749
        55.175  
  19565659.237   104736552.88709      -977.426    19565662.608    81461799.76408
      -760.218  
  19960862.145   106589889.27805      1220.250    19960867.034    82903267.84506
       949.082  
  22764313.284   121474736.99604     -3387.215    22764319.745    94480371.92205
     -2634.504  
  22369116.325   119239977.72006      4347.824    22369123.759    92742236.38405
      3381.640  
  21669081.970   115752374.81008     -2881.172    21669087.758    90029659.79907
     -2240.913  
  22286177.984   119216030.06404     -3157.624    22286182.388    92723593.00005
     -2455.925  
  20408903.217   109288771.21308      2406.065    20408906.331    85002402.38408
      1871.386  
 20 09 28 09 15 50.0000000  0 15G11G12G15G21G32G24G20G10R 3R13R 2R14
                                R12R19R 4
  23905545.921   125624478.08747       362.410    23905544.815    97889197.01043
       282.398  
  23594975.002   123992431.26747      2992.316    23594976.395    96617484.74744
      2331.672  
  24809569.309   130375165.24104     -3508.445           0.000           0.0000 
         0.000  
  23009272.522   120914546.96148        53.719    23009271.703    94219135.00547
        41.852  
  21671249.399   113883217.24049      2315.027    21671251.625    88740197.45848
      1803.910  
  21345758.428   112172758.61048     -2207.441    21345760.449    87407369.78646
     -1720.082  
  21061729.175   110680160.34248     -2499.496    21061728.675    86244282.46546
     -1947.664  
  20383459.348   107115822.65949        64.827    20383461.142    83466891.24048
        50.515  
  19566575.510   104741457.80308      -983.137    19566578.894    81465614.72407
      -764.659  
  19959723.744   106583810.43705      1212.453    19959728.650    82898539.83906
       943.016  
  22767489.475   121491685.54104     -3391.718    22767496.148    94493554.01804
     -2638.022  
  22365040.689   119218252.85205      4343.386    22365048.209    92725339.24405
      3378.190  
  21671782.439   115766800.17208     -2887.656    21671788.207    90040879.51906
     -2245.956  
  22289132.843   119231836.13105     -3164.015    22289137.130    92735886.52406
     -2460.914  
  20406659.466   109276756.02909      2401.147    20406662.588    84993057.21108
      1867.551  
 20 09 28 09 15 55.0000000  0 16G11G12G15G21G32G24G20G10R 3R13R 2R14
                                R12R19R 4R20
  23905203.532   125622673.44247       359.633    23905201.032    97887790.77744
       280.229  
  23592128.385   123977471.88246      2991.562    23592129.764    96605828.08244
      2331.086  
  24812907.198   130392704.40103     -3507.987           0.000           0.0000 
         0.000  
  23009222.089   120914281.96148        51.938    23009221.267    94218928.51246
        40.469  
  21669046.994   113871643.52649      2314.426    21669049.205    88731178.98248
      1803.457  
  21347859.499   112183799.93847     -2209.288    21347861.521    87415973.41845
     -1721.522  
  21064108.035   110692661.33648     -2500.961    21064107.531    86254023.48246
     -1948.804  
  20383398.646   107115503.73249        62.757    20383400.438    83466642.73148
        48.901  
  19567494.645   104746378.03408      -984.710    19567498.028    81469441.57707
      -765.886  
  19958589.991   106577756.82205      1208.816    19958595.018    82893831.47406
       940.191  
  22770666.706   121508641.44704     -3391.323    22770673.694    94506741.92204
     -2637.703  
  22360967.033   119196537.50605      4342.870    22360974.475    92708449.56905
      3377.793  
  21674486.518   115781244.68808     -2890.159    21674492.251    90052114.14406
     -2247.905  
  22292090.806   119247659.54705     -3165.637    22292095.161    92748193.60706
     -2462.168  
  20404417.808   109264751.89409      2400.363    20404420.908    84983720.65907
      1866.944  
  22352319.956   119527901.33614       835.933           0.000           0.0000 
         0.000  
 20 09 28 09 16  0.0000000  0 15G11G12G15G21G32G24G20G10R 3R13R14R12
                                R19R 4R20
  23904863.095   125620879.99948       357.796    23904859.468    97886393.25443
       278.797  
  23589282.201   123962515.11147      2991.315    23589283.363    96594173.48344
      2330.897  
  24816243.951   130410238.38005     -3506.152           0.000           0.0000 
         0.000  
  23009173.209   120914025.06748        50.921    23009172.400    94218728.34547
        39.679  
  21666844.799   113860070.91349      2314.815    21666847.022    88722161.40947
      1803.773  
  21349961.927   112194848.39748     -2210.129    21349964.017    87424582.57047
     -1722.190  
  21066488.038   110705168.33648     -2501.660    21066487.560    86263769.21046
     -1949.343  
  20383339.613   107115193.53849        61.516    20383341.392    83466401.01049
        47.929  
  19568415.065   104751305.01709      -985.745    19568418.418    81473273.65608
      -766.698  
  19957459.488   106571719.90805      1206.113    19957464.484    82889136.10006
       938.089  
  22356893.518   119174823.21906      4343.401    22356900.944    92691560.70405
      3378.206  
  21677192.579   115795699.88408     -2891.582    21677198.280    90063357.07807
     -2249.008  
  22295050.363   119263491.68304     -3166.723    22295054.834    92760507.55206
     -2462.996  
  20402176.554   109252750.11208      2400.507    20402179.664    84974385.95807
      1867.066  
  22351538.796   119523726.84004       833.753           0.000           0.0000 
         0.000  
 20 09 28 09 16  5.0000000  0 15G11G12G15G21G32G24G20G10R 3R13R14R12
                                R19R 4R20
  23904524.152   125619094.99648       355.188    23904519.038    97885002.37443
       276.772  
  23586435.993   123947558.37646      2990.258    23586437.117    96582518.86045
      2330.065  
  24819579.075   130427764.63345     -3505.227    24819577.826   101632026.79954
     -2731.339  
  23009125.319   120913773.40048        48.844    23009124.504    94218532.24946
        38.058  
  21664642.265   113848496.60949      2314.050    21664644.493    88713142.48447
      1803.156  
  21352065.179   112205901.06148     -2211.906    21352067.269    87433195.00647
     -1723.565  
  21068868.651   110717678.57748     -2503.351    21068868.207    86273517.46946
     -1950.664  
  20383281.703   107114889.22449        59.202    20383283.476    83466163.88249
        46.129  
  19569336.192   104756235.82409      -987.594    19569339.533    81477108.69208
      -768.148  
  19956331.604   106565697.00505      1201.815    19956336.597    82884451.62806
       934.745  
  22352819.624   119153107.04107      4342.503    22352827.024    92674670.35605
      3377.504  
  21679900.106   115810162.82207     -2894.453    21679905.778    90074606.05507
     -2251.241  
  22298011.126   119279329.64405     -3169.675    22298015.535    92772825.96106
     -2465.305  
  20399935.191   109240747.84208      2399.363    20399938.328    84965050.87307
      1866.171  
  22350761.075   119519566.39604       830.108           0.000           0.0000 
         0.000  
 20 09 28 09 16 10.0000000  0 16G11G12G15G21G32G24G20G10R 3R13R 2R14
                                R12R19R 4R20
  23904188.397   125617328.90548       351.222    23904182.818    97883626.17344
       273.675  
  23583591.710   123932611.75646      2988.538    23583592.908    96570872.17643
      2328.734  
  24822914.522   130445293.62145     -3506.745    24822914.503   101645685.71545
     -2732.530  
  23009080.405   120913537.34548        45.476    23009079.593    94218348.31646
        35.438  
  21662441.401   113836930.96249      2312.140    21662443.632    88704130.29448
      1801.667  
  21354171.252   112216968.55148     -2215.215    21354173.347    87441819.04048
     -1726.140  
  21071251.872   110730202.45449     -2506.313    21071251.431    86283276.31147
     -1952.977  
  20383226.895   107114601.20649        55.848    20383228.664    83465939.43649
        43.515  
  19570260.020   104761180.98709      -990.667    19570263.336    81480954.95008
      -770.523  
  19955208.233   106559698.42605      1197.504    19955213.266    82879786.07506
       931.391  
  22780198.837   121559505.47716     -3392.308    22780205.433    94546309.08315
     -2638.480  
  22348747.383   119131399.55106      4340.652    22348754.746    92657786.78005
      3376.065  
  21682610.974   115824643.94908     -2898.187    21682616.687    90085869.16907
     -2254.144  
  22300975.111   119295184.02804     -3172.285    22300979.360    92785157.11806
     -2467.340  
  20397695.736   109228755.66409      2397.315    20397698.866    84955723.62507
      1864.573  
  22349988.186   119515430.53604       823.944           0.000           0.0000 
         0.000  
 20 09 28 09 16 15.0000000  0 16G11G12G15G21G32G24G20G10R 3R13R 2R14
                                R12R19R 4R20
  23903856.174   125615581.59248       347.565    23903850.147    97882264.59744
       270.823  
  23580749.460   123917675.75945      2985.863    23580750.608    96559233.80844
      2326.651  
  24826250.623   130462824.98046     -3506.520    24826251.811   101659346.49446
     -2732.359  
  23009038.467   120913316.95848        42.465    23009037.683    94218176.57546
        33.085  
  21660242.174   113825373.97449      2310.504    21660244.405    88695124.85747
      1800.395  
  21356280.092   112228050.58148     -2217.940    21356282.196    87450454.39348
     -1728.266  
  21073637.655   110742739.92448     -2508.926    21073637.240    86293045.76847
     -1955.012  
  20383175.181   107114329.44349        52.667    20383176.952    83465727.68849
        41.039  
  19571186.525   104766140.58309      -993.448    19571189.827    81484812.40108
      -772.687  
  19954089.395   106553724.35905      1192.004    19954094.513    82875139.60106
       927.113  
  22783377.909   121576469.83106     -3393.690    22783384.728    94559503.52505
     -2639.551  
  22344676.733   119109700.78907      4338.648    22344684.096    92640909.95605
      3374.503  
  21685325.329   115839143.35708     -2901.573    21685331.003    90097146.47107
     -2256.784  
  22303941.922   119311054.84105     -3176.156    22303946.217    92797501.07505
     -2470.347  
  20395458.161   109216773.57808      2395.242    20395461.294    84946404.21507
      1862.961  
  22349220.091   119511319.34104       819.476           0.000           0.0000 
         0.000  
 20 09 28 09 16 20.0000000  0 16G11G12G15G21G32G24G20G10R 3R13R 2R14
                                R12R19R 4R20
  23903526.908   125613849.35047       346.593    23903520.389    97880914.82544
       270.073  
  23577908.463   123902746.43347      2987.219    23577909.241    96547600.47847
      2327.691  
  24829586.565   130480355.16546     -3503.988    24829587.605   101673006.35846
     -2730.387  
  23008998.782   120913108.47948        42.133    23008998.035    94218014.13346
        32.827  
  21658043.892   113813821.92449      2311.538    21658046.099    88686123.25847
      1801.199  
  21358390.983   112239143.44748     -2218.000    21358393.102    87459098.17248
     -1728.315  
  21076025.330   110755287.17549     -2508.676    21076024.918    86302822.84647
     -1954.816  
  20383125.855   107114070.20249        52.336    20383127.627    83465525.67749
        40.781  
  19572114.986   104771110.73509      -993.281    19572118.296    81488678.08508
      -772.578  
  19952974.540   106547770.97206      1190.133    19952979.610    82870509.18106
       925.656  
  22786557.496   121593436.77806     -3391.741    22786564.199    94572700.07206
     -2638.022  
  22340607.011   119088007.16207      4339.972    22340614.417    92624037.15707
      3375.535  
  21688042.347   115853657.05208     -2902.457    21688047.986    90108434.91707
     -2257.465  
  22306911.148   119326938.01204     -3175.441    22306915.376    92809854.64606
     -2469.792  
  20393221.741   109204797.74608      2396.241    20393224.888    84937089.69507
      1863.741  
  22348454.922   119507228.95104       817.879    22348461.475    92950097.09616
       636.124  
 20 09 28 09 16 25.0000000  0 16G11G12G15G21G32G24G20G10R 3R13R 2R14
                                R12R19R 4R20
  23903197.906   125612119.65148       343.070    23903191.078    97879566.97544
       267.319  
  23575066.337   123887811.17946      2985.012    23575067.055    96535962.67244
      2325.983  
  24832919.884   130497871.59046     -3504.578    24832921.076   101686655.49044
     -2730.844  
  23008958.995   120912899.33148        39.398    23008958.228    94217851.15946
        30.698  
  21655844.150   113802262.20249      2310.188    21655846.351    88677115.68848
      1800.066  
  21360501.586   112250234.74148     -2220.613    21360503.699    87467740.74248
     -1730.351  
  21078412.487   110767831.74248     -2511.354    21078412.063    86312597.83846
     -1956.898  
  20383076.528   107113810.92849        49.293    20383078.291    83465323.65549
        38.410  
  19573043.034   104776078.71209      -995.948    19573046.342    81492542.07408
      -774.628  
  19951861.177   106541825.45506      1185.714    19951866.189    82865884.88406
       922.218  
  22789735.216   121610394.07805     -3393.098    22789741.842    94585889.12705
     -2639.069  
  22336535.863   119066305.65205      4338.242    22336543.258    92607158.22205
      3374.187  
  21690759.652   115868172.34707     -2905.938    21690765.264    90119724.58907
     -2260.172  
  22309880.189   119342820.94105     -3179.495    22309884.565    92822208.02706
     -2472.945  
  20390984.108   109192815.38509      2394.542    20390987.245    84927770.08407
      1862.422  
  22347691.567   119503146.57404       812.895    22347697.993    92946921.92607
       632.249  
 20 09 28 09 16 30.0000000  0 16G11G12G15G21G32G24G20G10R 3R13R 2R14
                                R12R19R 4R20
  23902874.827   125610421.01648       337.098    23902867.750    97878243.37644
       262.668  
  23572228.509   123872898.51548      2980.507    23572229.113    96524342.39745
      2322.464  
  24836255.790   130515402.83446     -3507.676    24836256.950   101700316.21245
     -2733.254  
  23008924.487   120912718.08748        33.405    23008923.769    94217709.93346
        26.031  
  21653648.402   113790723.40949      2305.918    21653650.607    88668124.42148
      1796.730  
  21362617.303   112261352.91248     -2226.105    21362619.423    87476404.24948
     -1734.633  
  21080804.522   110780402.06349     -2516.511    21080804.142    86322392.87947
     -1960.921  
  20383032.618   107113580.21149        43.488    20383034.391    83465143.86149
        33.882  
  19573976.106   104781073.54909     -1001.440    19573979.417    81496426.93808
      -778.902  
  19950754.692   106535917.04505      1178.769    19950759.723    82861289.47306
       916.819  
  22792916.360   121627369.99206     -3396.977    22792923.312    94599092.56406
     -2642.102  
  22332468.672   119044625.42107      4334.151    22332476.075    92590295.83206
      3371.008  
  21693482.659   115882718.22708     -2912.168    21693488.283    90131038.05007
     -2265.020  
  22312854.753   119358732.57305     -3185.495    22312859.049    92834583.71505
     -2477.613  
  20388750.726   109180855.66609      2389.901    20388753.829    84918468.08007
      1858.813  
  22346935.253   119499101.28903       806.207    22346941.615    92943775.58807
       627.050  
 20 09 28 09 16 35.0000000  0 13G11G12G21G32G24G20G10R 3R13R 2R14R12
                                R 4
  23902555.748   125608742.93247       334.039    23902548.212    97876935.79644
       260.292  
  23569393.036   123857997.97247      2979.581    23569393.822    96512731.57346
      2321.749  
  23008893.293   120912554.19248        31.589    23008892.572    94217582.21446
        24.612  
  21651454.620   113779195.00749      2305.144    21651456.833    88659141.25247
      1796.210  
  21364736.127   112272487.50148     -2227.953    21364738.257    87485080.55048
     -1736.066  
  21083199.493   110792987.68849     -2518.073    21083199.100    86332199.86247
     -1962.140  
  20382992.141   107113367.46949        41.117    20382993.911    83464978.10349
        32.039  
  19574912.151   104786084.52309     -1003.285    19574915.502    81500324.36208
      -780.335  
  19949653.193   106530034.79005      1174.151    19949658.170    82856714.40307
       913.229  
  22796099.444   121644354.72106     -3396.945    22796106.491    94612302.87606
     -2642.077  
  22328403.479   119022955.71707      4333.066    22328410.879    92573441.62306
      3370.164  
  21696209.372   115897284.02508     -2914.655    21696215.008    90142367.00507
     -2266.956  
  20386519.536   109168907.80509      2388.992    20386522.659    84909175.30207
      1858.102  
 20 09 28 09 16 40.0000000  0 13G11G12G21G32G24G20G10R 3R13R 2R14R12
                                R 4
  23902239.836   125607081.95945       330.651    23902232.534    97875641.52443
       257.651  
  23566559.218   123843106.15748      2977.043    23566560.065    96501127.59445
      2319.773  
  23008864.739   120912404.23247        28.125    23008864.012    94217465.36144
        21.910  
  21649262.175   113767673.62849      2303.328    21649264.386    88650163.54747
      1794.797  
  21366857.383   112283634.83649     -2231.145    21366859.515    87493766.78047
     -1738.558  
  21085596.710   110805585.08548     -2521.039    21085596.305    86342015.98546
     -1964.452  
  20382954.427   107113169.28149        37.938    20382956.190    83464823.66948
        29.562  
  19575850.593   104791108.13708     -1006.241    19575853.964    81504231.62207
      -782.637  
  19948555.889   106524175.28005      1169.277    19948560.869    82852156.99206
       909.434  
  22799283.202   121661344.17707     -3398.660    22799290.305    94625516.85606
     -2643.409  
  22324339.576   119001293.01806      4331.727    22324346.992    92556592.86606
      3369.121  
  21698939.175   115911866.14308     -2918.293    21698944.805    90153708.65607
     -2269.785  
  20384289.975   109156968.35708      2386.604    20384293.058    84899889.06407
      1856.249  
 20 09 28 09 16 45.0000000  0 13G11G12G21G32G24G20G10R 3R13R 2R14R12
                                R 4
  23901927.241   125605439.54347       326.492    23901920.507    97874361.76343
       254.413  
  23563727.374   123828224.59148      2975.308    23563728.100    96489531.54644
      2318.417  
  23008839.157   120912269.64148        25.464    23008838.446    94217360.48645
        19.844  
  21647071.358   113756160.62249      2301.847    21647073.560    88641192.38647
      1793.648  
  21368981.365   112294796.43648     -2233.671    21368983.474    87502464.12947
     -1740.527  
  21087996.445   110818195.84049     -2523.358    21087996.083    86351842.55046
     -1966.257  
  20382919.779   107112987.20249        34.972    20382921.541    83464681.78848
        27.245  
  19576791.717   104796145.95808     -1008.773    19576795.067    81508149.91108
      -784.604  
  19947463.043   106518340.10505      1164.488    19947468.122    82847618.53106
       905.711  
  22802468.210   121678340.05207     -3399.702    22802475.015    94638735.89705
     -2644.132  
  22320277.305   118979639.04406      4329.980    22320284.760    92539750.91206
      3367.765  
  21701672.358   115926466.25108     -2921.655    21701677.983    90165064.29507
     -2272.401  
  20382062.209   109145038.74208      2385.077    20382065.297    84890610.48807
      1855.063  
 20 09 28 09 16 50.0000000  0 13G11G12G21G32G24G20G10R 3R13R 2R14R12
                                R 4
  23901617.840   125603813.25545       323.472    23901610.353    97873094.60941
       252.069  
  23560897.008   123813350.75948      2974.085    23560897.861    96477941.56645
      2317.468  
  23008816.025   120912148.01848        22.761    23008815.352    94217265.69845
        17.733  
  21644881.647   113744653.61049      2300.762    21644883.821    88632225.89647
      1792.800  
  21371107.630   112305970.00748     -2236.187    21371109.718    87511170.80847
     -1742.488  
  21090398.247   110830817.39649     -2525.594    21090397.885    86361677.52446
     -1968.000  
  20382887.706   107112818.69249        32.140    20382889.484    83464550.48848
        25.038  
  19577734.962   104801195.37508     -1011.167    19577738.344    81512077.24908
      -786.465  
  19946374.273   106512526.53905      1160.370    19946379.423    82843096.87706
       902.511  
  22805653.972   121695339.61107     -3400.249    22805660.643    94651957.78105
     -2644.645  
  22316216.228   118957991.03106      4329.190    22316223.617    92522913.59605
      3367.151  
  21704408.395   115941081.67108     -2924.604    21704414.022    90176431.81907
     -2274.699  
  20379835.805   109133116.47908      2383.616    20379838.903    84881337.63207
      1853.926  
 20 09 28 09 16 55.0000000  0 13G11G12G21G32G24G20G10R 3R13R 2R14R12
                                R 4
  23901311.548   125602203.90147       319.745    23901303.903    97871840.40343
       249.125  
  23558068.251   123798485.51448      2971.831    23558069.329    96466358.26245
      2315.715  
  23008795.454   120912040.01248        19.938    23008794.773    94217181.55845
        15.534  
  21642693.230   113733153.31149      2299.062    21642695.371    88623264.62447
      1791.472  
  21373236.261   112317156.09849     -2238.758    21373238.354    87519887.24747
     -1744.487  
  21092802.248   110843450.54149     -2527.968    21092801.899    86371521.52947
     -1969.851  
  20382858.369   107112664.52649        29.167    20382860.145    83464430.35049
        22.722  
  19578680.516   104806257.09509     -1013.772    19578683.907    81516014.13708
      -788.496  
  19945289.876   106506735.54305      1155.809    19945294.965    82838592.77706
       898.961  
  22808840.556   121712343.86306     -3401.340    22808847.555    94665183.30406
     -2645.647  
  22312156.386   118936350.04007      4327.319    22312163.810    92506081.72506
      3365.694  
  21707147.432   115955713.17808     -2928.246    21707153.073    90187811.89207
     -2277.523  
  20377610.920   109121202.41509      2381.871    20377614.018    84872071.13007
      1852.563  
 20 09 28 09 17  0.0000000  0 13G11G12G21G32G24G20G10R 3R13R 2R14R12
                                R 4
  23901008.664   125600612.51248       316.944    23901000.747    97870600.34344
       246.960  
  23555241.320   123783629.88847      2970.242    23555242.401    96454782.46345
      2314.472  
  23008777.739   120911946.85948        17.421    23008777.053    94217108.99546
        13.577  
  21640506.286   113721660.87349      2298.022    21640508.422    88614309.46647
      1790.664  
  21375367.517   112328355.98648     -2241.098    21375369.648    87528614.44548
     -1746.309  
  21095208.684   110856096.34949     -2530.086    21095208.334    86381375.38647
     -1971.500  
  20382831.976   107112525.82649        26.562    20382833.755    83464322.28748
        20.699  
  19579628.644   104811332.40409     -1015.965    19579632.020    81519961.61008
      -790.195  
  19944209.880   106500968.24005      1150.948    19944214.933    82834107.09506
       895.262  
  22812028.058   121729353.86106     -3402.273    22812035.360    94678413.25405
     -2646.223  
  22308098.048   118914717.03107      4326.078    22308105.466    92489256.01806
      3364.723  
  21709889.697   115970361.86308     -2931.223    21709895.328    90199205.30107
     -2279.843  
  20375387.766   109109297.68409      2380.304    20375390.893    84862811.89307
      1851.347  
 20 09 28 09 17  5.0000000  0 13G11G12G21G32G24G20G10R 3R13R 2R14R12
                                R 4
  23900708.885   125599037.10348       313.440    23900700.904    97869372.75443
       244.233  
  23552415.872   123768781.87448      2968.953    23552416.783    96443212.59546
      2313.469  
  23008762.429   120911866.49647        15.159    23008761.779    94217046.35845
        11.809  
  21638320.478   113710174.31249      2296.667    21638322.606    88605358.91447
      1789.612  
  21377501.020   112339567.62048     -2243.488    21377503.163    87537350.77048
     -1748.176  
  21097617.150   110868752.83149     -2532.410    21097616.808    86391237.58847
     -1973.304  
  20382808.147   107112400.60549        23.563    20382809.909    83464224.70648
        18.355  
  19580578.909   104816419.21709     -1018.461    19580582.272    81523918.02308
      -792.137  
  19943133.926   106495222.57805      1146.909    19943138.973    82829638.25806
       892.042  
  22815216.520   121746367.47907     -3402.917    22815223.258    94691646.08806
     -2646.710  
  22304040.888   118893090.02607      4324.640    22304048.290    92472435.05307
      3363.608  
  21712634.749   115985025.69007     -2934.484    21712640.397    90210610.50007
     -2282.378  
  20373166.012   109097400.28809      2378.672    20373169.146    84853558.36108
      1850.073  
 20 09 28 09 17 10.0000000  0 13G11G12G21G32G24G20G10R 3R13R 2R14R12
                                R 4
  23900412.127   125597477.97347       310.168    23900403.983    97868157.91143
       241.691  
  23549591.926   123753941.84348      2967.065    23549592.789    96431648.90345
      2311.992  
  23008749.617   120911799.10947        12.129    23008748.905    94216993.86144
         9.452  
  21636135.790   113698693.79448      2295.344    21636137.920    88596413.05347
      1788.577  
  21379636.760   112350791.07449     -2245.960    21379638.940    87546096.32548
     -1750.098  
  21100027.670   110881420.16949     -2534.581    21100027.312    86401108.23247
     -1975.004  
  20382786.937   107112289.05349        20.839    20382788.683    83464137.78748
        16.238  
  19581531.369   104821517.80809     -1021.066    19581534.723    81527883.58508
      -794.168  
  19942062.054   106489498.78305      1142.188    19942067.068    82825186.41906
       888.367  
  22818405.625   121763384.93806     -3404.094    22818412.356    94704881.93306
     -2647.625  
  22299984.876   118871469.38307      4323.190    22299992.323    92455619.01007
      3362.479  
  21715382.692   115999704.89708     -2937.542    21715388.356    90222027.67807
     -2284.753  
  20370945.620   109085510.31909      2377.042    20370948.771    84844310.60908
      1848.809  
 20 09 28 09 17 15.0000000  0 14G11G12G21G32G24G20G10R 3R13R 2R14R12
                                R 4R20
  23900118.756   125595937.60847       306.246    23900110.666    97866957.60944
       238.632  
  23546769.942   123739112.27648      2964.766    23546770.988    96420093.41446
      2310.206  
  23008739.783   120911747.39747         9.077    23008739.014    94216953.54844
         7.069  
  21633952.771   113687222.01447      2293.586    21633954.903    88587474.02345
      1787.214  
  21381775.280   112362029.03848     -2248.762    21381777.452    87554853.17547
     -1752.285  
  21102440.756   110894100.95749     -2537.397    21102440.395    86410989.34247
     -1977.203  
  20382768.804   107112193.79449        17.715    20382770.556    83464063.56348
        13.804  
  19582486.505   104826630.75909     -1023.777    19582489.858    81531860.33008
      -796.269  
  19940994.711   106483799.47906      1137.727    19940999.758    82820753.63106
       884.898  
  22821595.899   121780409.13006     -3404.539    22821603.094    94718122.87006
     -2647.991  
  22295930.558   118849857.59007      4322.112    22295937.991    92438809.84006
      3361.645  
  21718134.052   116014402.07308     -2940.804    21718139.685    90233458.79006
     -2287.300  
  20368727.161   109073630.53908      2375.104    20368730.322    84835070.78607
      1847.305  
  22340326.511   119463765.24614       764.296           0.000           0.0000 
         0.000  
 20 09 28 09 17 20.0000000  0 13G11G12G21G32G24G20G10R 3R13R 2R14R12
                                R 4
  23899828.468   125594414.04445       303.715    23899820.507    97865770.49044
       236.680  
  23543949.595   123724291.22548      2963.226    23543950.654    96408544.58546
      2309.008  
  23008732.551   120911709.23447         5.652    23008731.836    94216923.84044
         4.405  
  21631771.000   113675756.76148      2292.195    21631773.153    88578540.06046
      1786.121  
  21383916.149   112373279.32049     -2251.559    21383918.326    87563619.63148
     -1754.460  
  21104855.990   110906793.06549     -2539.769    21104855.647    86420879.30047
     -1979.047  
  20382753.377   107112112.69649        14.762    20382755.112    83464000.35348
        11.500  
  19583443.975   104831756.01208     -1026.645    19583447.297    81535846.63008
      -798.504  
  19939931.638   106478122.54105      1132.898    19939936.650    82816338.23706
       881.011  
  22824787.004   121797437.47707     -3406.151    22824794.245    94731367.14206
     -2649.234  
  22291877.487   118828252.66107      4320.063    22291884.938    92422006.03506
      3360.047  
  21720888.390   116029115.12808     -2944.397    21720893.982    90244902.29507
     -2290.085  
  20366510.181   109061758.74308      2373.655    20366513.377    84825837.19507
      1846.180  
 20 09 28 09 17 25.0000000  0 13G11G12G21G32G24G20G10R 3R13R 2R14R12
                                R 4
  23899541.406   125592907.36544       300.797    23899533.953    97864596.37743
       234.387  
  23541130.888   123709478.75848      2961.984    23541131.798    96397002.34445
      2308.030  
  23008727.928   120911684.72548         3.874    23008727.398    94216904.72945
         3.016  
  21629590.508   113664298.32149      2291.339    21629592.666    88569611.39547
      1785.457  
  21386059.392   112384542.14048     -2253.761    21386061.569    87572395.85747
     -1756.183  
  21107273.432   110919496.75049     -2541.500    21107273.083    86430778.26646
     -1980.394  
  20382740.697   107112046.02949        12.176    20382742.429    83463948.41648
         9.487  
  19584403.722   104836893.61408     -1028.676    19584407.037    81539842.54608
      -800.086  
  19938872.687   106472468.23905      1129.050    19938877.801    82811940.46506
       878.151  
  22827979.021   121814470.60106     -3406.714    22827985.755    94744615.15705
     -2649.468  
  22287825.776   118806654.72706      4319.128    22287833.192    92405207.65106
      3359.323  
  21723645.701   116043844.09208     -2947.094    21723651.287    90256358.17607
     -2292.179  
  20364294.776   109049895.25508      2372.191    20364297.951    84816610.02307
      1845.034  
 20 09 28 09 17 30.0000000  0 13G11G12G21G32G24G20G10R 3R13R 2R14R12
                                R 4
  23899257.606   125591416.92145       296.644    23899250.193    97863435.11644
       231.160  
  23538313.707   123694674.36847      2960.315    23538314.609    96385466.48745
      2306.737  
  23008725.753   120911673.26448         1.449    23008725.213    94216895.75146
         1.125  
  21627411.204   113652846.00149      2290.164    21627413.369    88560687.53547
      1784.543  
  21388204.920   112395817.02548     -2255.699    21388207.099    87581181.47247
     -1757.679  
  21109692.944   110932211.37149     -2543.710    21109692.631    86440685.75347
     -1982.116  
  20382730.635   107111993.12049         9.492    20382732.368    83463907.18748
         7.395  
  19585365.686   104842043.11208     -1030.832    19585369.000    81543847.68008
      -801.765  
  19937817.896   106466835.93005      1124.203    19937823.039    82807559.76706
       874.375  
  22831171.764   121831507.59407     -3407.645    22831178.599    94757866.14306
     -2650.394  
  22283775.255   118785063.20507      4317.983    22283782.653    92388414.26706
      3358.433  
  21726405.890   116058588.55908     -2950.175    21726411.500    90267826.07607
     -2294.586  
  20362080.735   109038039.32608      2370.796    20362083.931    84807388.74107
      1843.949  
 20 09 28 09 17 35.0000000  0 13G11G12G21G32G24G20G10R 3R13R 2R14R12
                                R 4
  23898976.770   125589942.65145       293.159    23898969.548    97862286.20243
       228.422  
  23535498.064   123679877.97448      2958.473    23535499.103    96373936.86844
      2305.309  
  23008726.070   120911674.83548        -0.926    23008725.493    94216896.99145
        -0.723  
  21625233.076   113641399.80149      2288.844    21625235.222    88551768.41947
      1783.516  
  21390352.712   112407103.81348     -2258.229    21390354.894    87589976.36548
     -1759.663  
  21112114.534   110944936.81649     -2546.026    21112114.217    86450601.68247
     -1983.922  
  20382723.154   107111953.93149         6.483    20382724.903    83463876.65148
         5.055  
  19586329.819   104847204.29008     -1033.167    19586333.146    81547861.93908
      -803.573  
  19936767.276   106461225.40005      1119.835    19936772.370    82803196.03206
       870.983  
  22834365.357   121848548.78106     -3408.479    22834372.475    94771120.35206
     -2651.046  
  22279725.880   118763478.06907      4316.800    22279733.347    92371625.84306
      3357.511  
  21729168.933   116073348.17708     -2953.035    21729174.566    90279305.76707
     -2296.809  
  20359868.129   109026190.94908      2369.168    20359871.347    84798173.34307
      1842.687  
 20 09 28 09 17 40.0000000  0 13G11G12G21G32G24G20G10R 3R13R 2R14R12
                                R 4
  23898699.340   125588486.43747       289.500    23898692.456    97861151.46444
       225.570  
  23532684.321   123665091.58947      2956.398    23532685.355    96362414.94345
      2303.676  
  23008729.230   120911691.40748        -5.156    23008728.591    94216909.92946
        -4.020  
  21623056.459   113629961.63049      2286.839    21623058.607    88542855.54747
      1781.948  
  21392503.130   112418404.33548     -2261.531    21392505.322    87598781.97947
     -1762.229  
  21114538.540   110957675.05649     -2548.999    21114538.246    86460527.58247
     -1986.237  
  20382718.683   107111930.40949         3.117    20382720.433    83463858.31848
         2.430  
  19587296.562   104852379.18009     -1036.476    19587299.865    81551886.87908
      -806.147  
  19935721.130   106455638.75706      1114.995    19935726.175    82798850.88206
       867.218  
  22837559.891   121865595.77106     -3410.015    22837566.820    94784379.10205
     -2652.237  
  22275678.094   118741901.34007      4314.487    22275685.595    92354843.94907
      3355.714  
  21731935.201   116088125.08108     -2957.059    21731940.845    90290798.93207
     -2299.933  
  20357657.329   109014352.15409      2366.793    20357660.538    84788965.40307
      1840.840  
 20 09 28 09 17 45.0000000  0 13G11G12G21G32G24G20G10R 3R13R 2R14R12
                                R 4
  23898425.363   125587048.86346       285.702    23898418.927    97860031.31345
       222.624  
  23529872.499   123650315.43147      2954.188    23529873.443    96350901.07246
      2301.965  
  23008735.263   120911723.27147        -8.125    23008734.769    94216934.75744
        -6.327  
  21620881.458   113618531.92149      2285.144    21620883.595    88533949.29647
      1780.633  
  21394656.248   112429719.01348     -2264.269    21394658.450    87607598.61548
     -1764.367  
  21116965.055   110970426.44449     -2551.675    21116964.747    86470463.73047
     -1988.319  
  20382717.286   107111922.90749         0.059    20382718.999    83463852.47549
         0.043  
  19588265.917   104857568.18409     -1039.183    19588269.207    81555922.77108
      -808.253  
  19934679.502   106450076.39705      1110.124    19934684.509    82794524.60306
       863.429  
  22840755.708   121882648.82106     -3411.245    22840762.300    94797642.62606
     -2653.190  
  22271631.965   118720333.26007      4312.910    22271639.460    92338068.79607
      3354.483  
  21734704.767   116102919.64108     -2960.699    21734710.402    90302305.80907
     -2302.766  
  20355448.390   109002523.26009      2364.863    20355451.558    84779765.14107
      1839.335  
 20 09 28 09 17 50.0000000  0 13G11G12G21G32G24G20G10R 3R13R 2R14R12
                                R 4
  23898154.751   125585628.69147       282.348    23898149.057    97858924.64945
       220.007  
  23527062.444   123635548.55348      2952.714    23527063.403    96339394.42746
      2300.816  
  23008744.028   120911769.33248       -10.219    23008743.494    94216970.64045
        -7.960  
  21618707.841   113607109.55049      2283.633    21618709.974    88525048.74547
      1779.453  
  21396811.840   112441046.75848     -2266.910    21396814.039    87616425.42448
     -1766.425  
  21119393.861   110983189.90649     -2553.965    21119393.543    86480409.27347
     -1990.105  
  20382718.724   107111930.37149        -3.104    20382720.437    83463858.30249
        -2.418  
  19589237.679   104862770.16809     -1041.797    19589240.973    81559968.75408
      -810.284  
  19933642.251   106444537.15706      1105.691    19933647.181    82790216.31106
       859.980  
  22843952.480   121899707.09606     -3412.112    22843959.343    94810910.16606
     -2653.875  
  22267587.257   118698772.97107      4311.133    22267594.783    92321299.68706
      3353.102  
  21737477.423   116117730.63908     -2963.688    21737483.071    90313825.45907
     -2305.094  
  20353241.068   108990703.21609      2362.983    20353244.238    84770571.79307
      1837.874  
 20 09 28 09 17 55.0000000  0 13G11G12G21G32G24G20G10R 3R13R 2R14R12
                                R 4
  23897887.043   125584223.84547       279.371    23897881.859    97857829.98544
       217.687  
  23524253.785   123620788.85747      2951.566    23524254.729    96327893.34846
      2299.913  
  23008755.095   120911827.51848       -12.167    23008754.522    94217015.98746
        -9.479  
  21616535.226   113595692.38349      2283.089    21616537.361    88516152.25747
      1779.031  
  21398969.480   112452385.35948     -2268.535    21398971.719    87625260.69848
     -1767.690  
  21121824.558   110995963.30949     -2555.511    21121824.254    86490362.56747
     -1991.313  
  20382722.591   107111950.65949        -5.270    20382724.294    83463874.09549
        -4.109  
  19590211.499   104867982.97609     -1043.468    19590214.746    81564023.15908
      -811.589  
  19932608.864   106439018.96105      1101.480    19932613.786    82785924.38306
       856.707  
  22847149.774   121916768.31706     -3412.378    22847156.770    94824179.92405
     -2654.085  
  22263543.603   118677218.11206      4310.441    22263551.138    92304534.82405
      3352.565  
  21740252.731   116132555.92708     -2966.233    21740258.421    90325356.25007
     -2307.070  
  20351035.020   108978889.83109      2362.261    20351038.155    84761383.59907
      1837.316  
 20 09 28 09 18  0.0000000  0 13G11G12G21G32G24G20G10R 3R13R 2R14R12
                                R 4
  23897622.425   125582835.36346       275.781    23897617.980    97856748.06945
       214.894  
  23521446.695   123606037.33947      2949.336    23521447.675    96316398.68046
      2298.184  
  23008768.666   120911898.93048       -16.039    23008768.119    94217071.63546
       -12.495  
  21614363.793   113584281.48649      2281.409    21614365.925    88507260.65448
      1777.723  
  21401129.423   112463735.90548     -2271.487    21401131.656    87634105.28148
     -1769.996  
  21124257.349   111008747.65049     -2558.210    21124257.009    86500324.38647
     -1993.413  
  20382729.071   107111984.80649        -8.409    20382730.793    83463900.70849
        -6.554  
  19591187.513   104873207.74609     -1046.269    19591190.778    81568086.87508
      -813.765  
  19931579.697   106433522.95305      1096.523    19931584.545    82781649.71106
       852.742  
  22850347.805   121933833.46406     -3413.581    22850354.469    94837452.87506
     -2654.999  
  22259501.231   118655670.09007      4308.948    22259508.750    92287775.26906
      3351.409  
  21743030.947   116147396.59908     -2969.940    21743036.648    90336898.99207
     -2309.957  
  20348830.375   108967084.21709      2360.133    20348833.527    84752201.46107
      1835.659  
 20 09 28 09 18  5.0000000  0 14G11G12G21G32G24G20G10R 3R13R 2R14R12
                                R19R 4
  23897360.788   125581462.35946       272.718    23897356.890    97855678.16845
       212.504  
  23518640.979   123591293.17648      2947.905    23518641.897    96304909.73646
      2297.069  
  23008784.569   120911982.59148       -18.246    23008783.976    94217136.81547
       -14.222  
  21612193.390   113572875.97649      2280.203    21612195.521    88498373.24148
      1776.781  
  21403291.473   112475097.55548     -2273.746    21403293.683    87642958.51248
     -1771.784  
  21126692.063   111021542.06049     -2560.203    21126691.698    86510294.05947
     -1994.965  
  20382738.061   107112031.95749       -10.930    20382739.765    83463937.44849
        -8.520  
  19592165.532   104878443.37609     -1048.655    19592168.838    81572159.03208
      -815.625  
  19930554.364   106428048.07705      1092.176    19930559.271    82777391.48306
       849.469  
  22853546.432   121950902.01306     -3414.551    22853553.137    94850728.40906
     -2655.765  
  22255459.856   118634127.53607      4307.477    22255467.399    92271019.94607
      3350.258  
  21745811.858   116162251.66508     -2972.827    21745817.539    90348452.92707
     -2312.202  
  22369894.594   119663851.41315     -3238.445    22369898.438    93071900.28916
     -2518.797  
  20346627.034   108955285.45509      2358.714    20346630.184    84743024.64907
      1834.555  
 20 09 28 09 18 10.0000000  0 15G11G12G21G32G24G20G10R 3R13R 2R14R12
                                R19R 4R20
  23897102.762   125580108.29746       269.089    23897099.535    97854623.06145
       209.676  
  23515837.346   123576559.89047      2945.555    23515838.174    96293429.21246
      2295.230  
  23008803.477   120912081.95548       -20.949    23008802.865    94217214.25346
       -16.324  
  21610024.670   113561479.30749      2278.555    21610026.794    88489492.73048
      1775.495  
  21405456.254   112486473.61848     -2276.538    21405458.483    87651822.97547
     -1773.930  
  21129129.317   111034349.95049     -2562.894    21129128.958    86520274.23147
     -1997.063  
  20382750.159   107112095.56349       -14.288    20382751.869    83463987.01249
       -11.132  
  19593146.309   104883693.55609     -1051.405    19593149.615    81576242.50108
      -817.765  
  19929533.753   106422597.94605      1087.688    19929538.637    82773152.49306
       845.980  
  22856746.364   121967976.93606     -3415.476    22856753.215    94864008.86006
     -2656.487  
  22251420.259   118612594.27407      4305.702    22251427.797    92254271.88007
      3348.878  
  21748596.124   116177124.58808     -2976.145    21748601.796    90360020.75507
     -2314.780  
  22372921.942   119680051.93304     -3241.094    22372927.343    93084500.71506
     -2520.854  
  20344425.612   108943497.03409      2356.847    20344428.772    84733855.87807
      1833.104  
  22332718.943   119423083.07014       713.851           0.000           0.0000 
         0.000  
 20 09 28 09 18 15.0000000  0 15G11G12G21G32G24G20G10R 3R13R 2R14R12
                                R19R 4R20
  23896848.171   125578772.07146       265.352    23896845.385    97853581.86045
       206.766  
  23513035.554   123561836.24747      2943.570    23513036.396    96281956.27246
      2293.694  
  23008825.155   120912195.96848       -24.348    23008824.530    94217303.09546
       -18.973  
  21607857.428   113550090.40549      2276.992    21607859.550    88480618.25947
      1774.277  
  21407623.617   112497863.06348     -2279.159    21407625.815    87660697.86948
     -1775.969  
  21131568.941   111047170.26349     -2565.316    21131568.582    86530264.08347
     -1998.952  
  20382765.187   107112174.53449       -17.296    20382766.897    83464048.54949
       -13.480  
  19594129.588   104888957.09409     -1053.968    19594132.896    81580336.36508
      -819.758  
  19928517.565   106417171.43305      1083.340    19928522.419    82768931.87706
       842.598  
  22859947.218   121985057.49106     -3416.624    22859954.076    94877293.71305
     -2657.382  
  22247382.215   118591069.32107      4304.413    22247389.772    92237530.25407
      3347.879  
  21751383.534   116192014.36808     -2979.707    21751389.195    90371601.69807
     -2317.555  
  22375953.402   119696267.23404     -3243.851    22375958.494    93097112.61206
     -2522.996  
  20342225.927   108931717.91609      2354.863    20342229.092    84724694.34907
      1831.559  
  22332052.712   119419522.18504       710.137           0.000           0.0000 
         0.000  
 20 09 28 09 18 20.0000000  0 15G11G12G21G32G24G20G10R 3R13R 2R14R12
                                R19R 4R20
  23896596.764   125577452.88546       261.965    23896594.558    97852553.95145
       204.133  
  23510235.474   123547121.63648      2942.016    23510236.395    96270490.36146
      2292.480  
  23008849.490   120912323.84648       -26.565    23008848.856    94217402.73546
       -20.702  
  21605691.520   113538708.50949      2275.547    21605693.640    88471749.25348
      1773.151  
  21409793.357   112509265.18448     -2281.719    21409795.559    87669582.63748
     -1777.965  
  21134010.782   111060002.22149     -2567.641    21134010.428    86540263.00647
     -2000.761  
  20382783.000   107112268.11349       -20.269    20382784.690    83464121.46949
       -15.793  
  19595115.236   104894233.37709     -1056.566    19595118.550    81584440.14308
      -821.773  
  19927505.619   106411767.73005      1078.222    19927510.480    82764728.99907
       838.616  
  22863149.049   122002142.82607     -3417.621    22863155.650    94890582.30906
     -2658.136  
  22243345.540   118569551.69907      4302.813    22243353.095    92220794.34307
      3346.632  
  21754173.946   116206920.15708     -2982.883    21754179.604    90383195.08807
