     2              OBSERVATION DATA    M                   RINEX VERSION / TYPE
LEICA GEO OFFICE 7.0                    31-5-20 14:16       PGM / RUN BY / DATE
                                                            OBSERVER / AGENCY
GGS1353                                                     MARKER NAME
GGS1353                                                     MARKER NUMBER
472680              LEICA GX1230GG      9.02                REC # / TYPE / VERS
                    LEIAX1202GG                             ANT # / TYPE
 -1148910.3398  3863061.3960  4927931.2719                  APPROX POSITION XYZ
        1.4630        0.0000        0.0000                  ANTENNA: DELTA H/E/N
L1PhaOff:   0.0644  L2PhaOff:   0.0640                      COMMENT
     1     1                                                WAVELENGTH FACT L1/2
     6    C1    L1    D1    P2    L2    D2                  # / TYPES OF OBSERV
  2020     5     7     5    10    0.000000                  TIME OF FIRST OBS
  2020     5     7     6    10   35.000000                  TIME OF LAST OBS
    18                                                      LEAP SECONDS
    20                                                      # OF SATELLITES
          C1    L1    D1    P2    L2    D2                  COMMENT
   G 1   728   728   728   728   728   728                  PRN / # OF OBS
   G 2     0     0     0     0     0     0                  PRN / # OF OBS
   G 3     0     0     0     0     0     0                  PRN / # OF OBS
   G 4     0     0     0     0     0     0                  PRN / # OF OBS
   G 5     0     0     0     0     0     0                  PRN / # OF OBS
   G 6     0     0     0     0     0     0                  PRN / # OF OBS
   G 7   728   728   728   728   728   728                  PRN / # OF OBS
   G 8   728   728   728   728   728   728                  PRN / # OF OBS
   G 9     0     0     0     0     0     0                  PRN / # OF OBS
   G10     0     0     0     0     0     0                  PRN / # OF OBS
   G11   728   728   728   728   728   728                  PRN / # OF OBS
   G12     0     0     0     0     0     0                  PRN / # OF OBS
   G13   728   728   728   728   728   728                  PRN / # OF OBS
   G14     0     0     0     0     0     0                  PRN / # OF OBS
   G15     0     0     0     0     0     0                  PRN / # OF OBS
   G16     0     0     0     0     0     0                  PRN / # OF OBS
   G17   678   678   678   678   678   678                  PRN / # OF OBS
   G18     0     0     0     0     0     0                  PRN / # OF OBS
   G19     0     0     0     0     0     0                  PRN / # OF OBS
   G20     0     0     0     0     0     0                  PRN / # OF OBS
   G21     0     0     0     0     0     0                  PRN / # OF OBS
   G22   147   147   147   146   146   146                  PRN / # OF OBS
   G23     0     0     0     0     0     0                  PRN / # OF OBS
   G24     0     0     0     0     0     0                  PRN / # OF OBS
   G25     0     0     0     0     0     0                  PRN / # OF OBS
   G26     0     0     0     0     0     0                  PRN / # OF OBS
   G27   218   218   218   203   203   203                  PRN / # OF OBS
   G28   728   728   728   728   728   728                  PRN / # OF OBS
   G29     0     0     0     0     0     0                  PRN / # OF OBS
   G30   728   728   728   728   728   728                  PRN / # OF OBS
   G31     0     0     0     0     0     0                  PRN / # OF OBS
   G32     0     0     0     0     0     0                  PRN / # OF OBS
   R 1     0     0     0     0     0     0                  PRN / # OF OBS
   R 2   515   515   515   515   515   515                  PRN / # OF OBS
   R 3    41    41    41    40    40    40                  PRN / # OF OBS
   R 4     0     0     0     0     0     0                  PRN / # OF OBS
   R 5     0     0     0     0     0     0                  PRN / # OF OBS
   R 6     0     0     0     0     0     0                  PRN / # OF OBS
   R 7     0     0     0     0     0     0                  PRN / # OF OBS
   R 8     0     0     0     0     0     0                  PRN / # OF OBS
   R 9   728   728   728   728   728   728                  PRN / # OF OBS
   R10   728   728   728     0     0     0                  PRN / # OF OBS
   R11   540   540   540   539   539   539                  PRN / # OF OBS
   R12     0     0     0     0     0     0                  PRN / # OF OBS
   R13     0     0     0     0     0     0                  PRN / # OF OBS
   R14     0     0     0     0     0     0                  PRN / # OF OBS
   R15     0     0     0     0     0     0                  PRN / # OF OBS
   R16    37    37    37    37    37    37                  PRN / # OF OBS
   R17     0     0     0     0     0     0                  PRN / # OF OBS
   R18   147   147   147   147   147   147                  PRN / # OF OBS
   R19   728   728   728   728   728   728                  PRN / # OF OBS
   R20   728   728   728   728   728   728                  PRN / # OF OBS
   R21   362   362   362   361   361   361                  PRN / # OF OBS
   R22     0     0     0     0     0     0                  PRN / # OF OBS
   R23     0     0     0     0     0     0                  PRN / # OF OBS
   R24     0     0     0     0     0     0                  PRN / # OF OBS
                                                            END OF HEADER
 20  5  7  5 10  0.0000000  0 14G 1G30G28G27G 7G 8G11G13R10R18R 9R16
                                R20R19
  21994901.600   115583989.47048      3010.602    21994903.900    90065458.22849
      2345.922  
  20903354.340   109847868.38749       362.203    20903356.100    85595747.82549
       282.234  
  22464094.260   118049616.23349      2381.566    22464092.800    91986708.38946
      1855.766  
  24070248.360   126490007.50346     -3548.039    24070250.480    98563651.26645
     -2764.711  
  21077640.180   110763744.14449     -1766.324    21077639.940    86309407.95849
     -1376.359  
  21419315.160   112559262.61549     -2363.141    21419317.380    87708524.61848
     -1841.414  
  20516242.380   107813582.38248       418.672    20516241.000    84010576.62147
       326.238  
  23638713.180   124222269.61047       198.129    23638713.160    96796575.30545
       154.383  
  19877072.480   105955981.94508      2173.645           0.000           0.00000
         0.000  
  23060252.560   123097193.81706     -4183.277    23060258.600    95742286.46307
     -3253.668  
  19211505.880   102588373.67708      -885.105    19211509.960    79790969.42508
      -688.418  
  23414769.620   125077482.38705     -4046.828    23414775.000    97282515.02504
     -3147.535  
  20463579.640   109427967.05505      3046.039    20463585.420    85110657.09908
      2369.137  
  19673980.140   105242525.91506     -1652.945    19673982.920    81855306.04507
     -1285.625  
 20  5  7  5 10  5.0000000  0 14G 1G30G28G27G 7G 8G11G13R10R18R 9R16
                                R20R19
  21992037.880   115568940.57048      3009.102    21992040.180    90053731.82049
      2344.754  
  20903011.040   109846064.20849       359.621    20903012.780    85594341.97049
       280.219  
  22461828.460   118037709.30849      2381.473    22461827.000    91977430.26246
      1855.691  
  24073624.000   126507746.64847     -3547.648    24073626.080    98577473.97046
     -2764.406  
  21079321.800   110772581.11149     -1768.496    21079321.580    86316293.90349
     -1378.055  
  21421564.180   112571081.23549     -2364.141    21421566.380    87717733.92348
     -1842.191  
  20515845.360   107811496.17548       415.996    20515844.000    84008951.01347
       324.152  
  23638526.160   124221286.81447       195.195    23638526.200    96795809.48945
       152.102  
  19875034.660   105945119.14808      2171.586           0.000           0.00000
         0.000  
  23064171.120   123118111.61007     -4183.629    23064177.220    95758555.85006
     -3253.938  
  19212336.100   102592806.80208      -888.004    19212340.160    79794417.41408
      -690.691  
  23418557.920   125097718.64805     -4047.109    23418563.300    97298254.31804
     -3147.754  
  20460732.740   109412743.31805      3043.477    20460738.500    85098816.41908
      2367.148  
  19675526.300   105250796.96506     -1655.875    19675529.120    81861739.07507
     -1287.906  
 20  5  7  5 10 10.0000000  0 14G 1G30G28G27G 7G 8G11G13R10R18R 9R16
                                R20R19
  21989176.380   115553903.32048      3005.707    21989178.660    90042014.48149
      2342.109  
  20902670.780   109844276.08749       355.477    20902672.520    85592948.62649
       276.992  
  22459563.360   118025806.18349      2379.871    22459561.980    91968155.10546
      1854.445  
  24076999.920   126525487.49547     -3548.840    24077001.960    98591297.98046
     -2765.336  
  21081006.140   110781432.46449     -1772.160    21081005.920    86323191.05949
     -1380.906  
  21423814.740   112582907.94749     -2366.605    21423816.940    87726949.54548
     -1844.113  
  20515451.520   107809426.56848       411.645    20515450.140    84007338.32947
       320.758  
  23638342.260   124220320.41847       191.184    23638342.420    96795056.46045
       148.969  
  19872999.360   105934269.89708      2168.082           0.000           0.00000
         0.000  
  23068090.560   123139033.42507     -4185.012    23068096.580    95774828.37106
     -3255.012  
  19213169.580   102597257.40308      -892.367    19213173.620    79797878.98808
      -694.066  
  23422347.080   125117959.32105     -4048.414    23422352.380    97313997.04904
     -3148.770  
  20457888.740   109397534.94505      3039.516    20457894.460    85086987.69008
      2364.066  
  19677075.940   105259086.59006     -1660.180    19677078.800    81868186.56607
     -1291.254  
 20  5  7  5 10 15.0000000  0 14G 1G30G28G27G 7G 8G11G13R10R18R 9R16
                                R20R19
  21986317.600   115538880.45948      3003.578    21986319.900    90030308.36549
      2340.449  
  20902334.120   109842506.77749       352.605    20902335.840    85591569.94049
       274.754  
  22457299.540   118013909.64749      2379.145    22457298.220    91958885.08146
      1853.879  
  24080376.740   126543232.69147     -3548.926    24080378.700    98605125.39545
     -2765.402  
  21082693.760   110790300.99949     -1774.883    21082693.560    86330101.60349
     -1383.031  
  21426067.360   112594745.46649     -2367.988    21426069.560    87736173.58048
     -1845.191  
  20515061.360   107807376.31448       408.625    20515060.040    84005740.72846
       318.406  
  23638162.000   124219373.17447       188.000    23638162.160    96794318.36045
       146.496  
  19870967.160   105923437.11908      2165.402           0.000           0.00000
         0.000  
  23072011.240   123159962.21206     -4185.961    23072017.260    95791106.30706
     -3255.746  
  19214006.900   102601728.42008      -895.848    19214010.920    79801356.44208
      -696.773  
  23426137.600   125138207.24305     -4050.145    23426142.840    97329745.41904
     -3150.117  
  20455048.160   109382344.92905      3036.684    20455053.840    85075173.23408
      2361.863  
  19678629.560   105267397.55706     -1663.793    19678632.440    81874650.64907
     -1294.066  
 20  5  7  5 10 20.0000000  0 14G 1G30G28G27G 7G 8G11G13R10R18R 9R16
                                R20R19
  21983460.740   115523867.48748      3001.297    21983463.020    90018609.95049
      2338.672  
  20902000.180   109840751.78449       349.277    20902001.880    85590202.41449
       272.160  
  22455036.100   118002015.13449      2378.395    22455034.800    91949616.63646
      1853.289  
  24083753.500   126560977.77947     -3549.418    24083755.440    98618952.75146
     -2765.781  
  21084383.780   110799182.10949     -1777.852    21084383.580    86337021.93649
     -1385.344  
  21428321.200   112606589.37049     -2369.723    21428323.380    87745402.59848
     -1846.543  
  20514674.040   107805340.92348       405.195    20514672.720    84004154.71147
       315.734  
  23637984.500   124218440.57947       184.844    23637984.720    96793591.68145
       144.035  
  19868937.160   105912616.03408      2162.742           0.000           0.00000
         0.000  
  23075932.320   123180893.16806     -4186.570    23075938.380    95807385.94506
     -3256.227  
  19214847.160   102606215.15108      -899.246    19214851.140    79804846.11908
      -699.414  
  23429928.620   125158457.72405     -4050.934    23429933.820    97345495.77204
     -3150.730  
  20452210.120   109367168.47704      3033.035    20452215.760    85063369.34108
      2359.027  
  19680186.380   105275725.35806     -1667.891    19680189.260    81881127.83007
     -1297.250  
 20  5  7  5 10 25.0000000  0 14G 1G30G28G27G 7G 8G11G13R10R18R 9R16
                                R20R19
  21980606.180   115508866.73448      2999.016    21980608.460    90006921.05949
      2336.895  
  20901669.380   109839013.36449       346.105    20901671.080    85588847.79649
       269.688  
  22452773.480   117990124.94149      2377.613    22452772.180    91940351.55146
      1852.688  
  24087130.700   126578725.00647     -3549.785    24087132.620    98632781.74546
     -2766.070  
  21086076.640   110808078.13049     -1780.691    21086076.460    86343953.90349
     -1387.555  
  21430576.660   112618441.82949     -2371.500    21430578.860    87754638.27448
     -1847.926  
  20514289.980   107803322.63548       402.160    20514288.680    84002582.01747
       313.367  
  23637810.240   124217524.98647       181.313    23637810.620    96792878.23046
       141.281  
  19866909.780   105901809.08908      2159.922           0.000           0.00000
         0.000  
  23079854.200   123201828.55806     -4187.516    23079860.300    95823669.01706
     -3256.961  
  19215690.800   102610719.96508      -902.781    19215694.740    79808349.86008
      -702.168  
  23433720.500   125178713.06605     -4051.520    23433725.720    97361249.92104
     -3151.188  
  20449375.060   109352008.11105      3030.152    20449380.700    85051577.94708
      2356.785  
  19681746.780   105284072.31406     -1670.840    19681749.660    81887619.90707
     -1299.543  
 20  5  7  5 10 30.0000000  0 14G 1G30G28G27G 7G 8G11G13R10R18R 9R16
                                R20R19
  21977754.100   115493879.03948      2996.414    21977756.380    89995242.34249
      2334.867  
  20901341.920   109837292.40549       342.520    20901343.600    85587506.79549
       266.895  
  22450511.820   117978239.93249      2376.684    22450510.520    91931090.50346
      1851.957  
  24090508.460   126596475.20747     -3550.266    24090510.360    98646613.06846
     -2766.445  
  21087772.480   110816989.88449     -1783.793    21087772.300    86350898.12749
     -1389.973  
  21432833.920   112630303.71349     -2373.277    21432836.080    87763881.29948
     -1849.313  
  20513909.320   107801322.33948       398.340    20513908.040    84001023.34547
       310.395  
  23637639.380   124216627.19747       177.586    23637639.880    96792178.64644
       138.375  
  19864885.240   105891016.99108      2156.879           0.000           0.00000
         0.000  
  23083777.160   123222769.39607     -4188.449    23083783.220    95839956.32306
     -3257.688  
  19216537.980   102615243.69908      -906.582    19216541.880    79811868.32108
      -705.121  
  23437513.520   125198974.18305     -4052.609    23437518.600    97377008.54804
     -3152.039  
  20446543.040   109336864.62104      3027.520    20446548.800    85039799.68308
      2354.738  
  19683310.880   105292439.21605     -1674.914    19683313.780    81894127.49707
     -1302.711  
 20  5  7  5 10 35.0000000  0 14G 1G30G28G27G 7G 8G11G13R10R18R 9R16
                                R20R19
  21974904.180   115478902.50848      2994.176    21974906.440    89983572.32049
      2333.125  
  20901017.400   109835586.98649       339.379    20901019.080    85586177.89349
       264.445  
  22448250.800   117966358.19549      2375.902    22448249.420    91921832.01846
      1851.352  
  24093886.420   126614226.50247     -3550.684    24093888.440    98660445.23145
     -2766.770  
  21089470.960   110825915.43849     -1786.559    21089470.780    86357853.09449
     -1392.129  
  21435092.600   112642173.07849     -2374.773    21435094.760    87773130.16148
     -1850.473  
  20513531.760   107799338.09948       394.980    20513530.440    83999477.18147
       307.773  
  23637471.560   124215745.28947       174.688    23637472.140    96791491.44945
       136.121  
  19862863.140   105880237.94608      2154.391           0.000           0.00000
         0.000  
  23087700.760   123243713.64407     -4189.496    23087706.800    95856246.28106
     -3258.500  
  19217388.380   102619784.46708      -910.082    19217392.220    79815400.02808
      -707.844  
  23441307.140   125219239.03105     -4053.691    23441312.220    97392770.08204
     -3152.875  
  20443713.760   109321736.03405      3024.414    20443719.680    85028033.01908
      2352.320  
  19684878.320   105300824.12605     -1678.855    19684881.260    81900649.09407
     -1305.781  
 20  5  7  5 10 40.0000000  0 14G 1G30G28G27G 7G 8G11G13R10R18R 9R16
                                R20R19
  21972056.840   115463939.60748      2991.395    21972059.080    89971912.92449
      2330.957  
  20900696.320   109833899.57049       335.852    20900697.980    85584863.02449
       261.699  
  22445990.860   117954482.19349      2374.684    22445989.480    91912577.99546
      1850.402  
  24097265.060   126631981.29847     -3551.211    24097267.080    98674280.13446
     -2767.180  
  21091172.520   110834857.25249     -1789.855    21091172.360    86364820.73749
     -1394.695  
  21437353.200   112654052.50149     -2376.684    21437355.340    87782386.85248
     -1851.965  
  20513157.660   107797372.34048       391.410    20513156.400    83997945.42947
       304.996  
  23637307.260   124214881.74047       171.102    23637307.880    96790818.55445
       133.320  
  19860843.940   105869474.60108      2151.395           0.000           0.00000
         0.000  
  23091625.420   123264663.79907     -4190.484    23091631.480    95872540.84206
     -3259.270  
  19218242.380   102624344.79008      -913.766    19218246.220    79818946.94008
      -710.676  
  23445101.820   125239510.19205     -4054.816    23445107.020    97408536.52904
     -3153.750  
  20440887.900   109306624.97105      3020.578    20440893.820    85016279.97008
      2349.340  
  19686449.660   105309229.53505     -1682.934    19686452.560    81907186.63007
     -1308.953  
 20  5  7  5 10 45.0000000  0 14G 1G30G28G27G 7G 8G11G13R10R18R 9R16
                                R20R19
  21969211.620   115448987.95948      2989.012    21969213.860    89960262.29449
      2329.102  
  20900378.180   109832227.72349       332.738    20900379.840    85583560.28049
       259.273  
  22443731.560   117942609.51049      2373.906    22443730.120    91903326.55746
      1849.797  
  24100643.940   126649737.19147     -3551.719    24100645.920    98688115.88846
     -2767.578  
  21092876.720   110843812.90749     -1792.684    21092876.560    86371799.16349
     -1396.898  
  21439615.240   112665939.50749     -2378.340    21439617.360    87791649.45448
     -1853.254  
  20512786.660   107795422.69048       388.465    20512785.380    83996426.21647
       302.695  
  23637146.000   124214034.10347       167.898    23637146.680    96790158.08045
       130.828  
  19858827.260   105858724.43208      2148.516           0.000           0.00000
         0.000  
  23095550.780   123285617.34407     -4190.910    23095556.800    95888838.04106
     -3259.602  
  19219099.600   102628922.06208      -917.242    19219103.380    79822507.04208
      -713.414  
  23448897.400   125259785.13404     -4055.379    23448902.540    97424305.91104
     -3154.191  
  20438064.820   109291528.89105      3017.117    20438070.780    85004538.58508
      2346.648  
  19688024.320   105317652.92805     -1686.504    19688027.220    81913738.16207
     -1311.730  
 20  5  7  5 10 50.0000000  0 14G 1G30G28G27G 7G 8G11G13R10R18R 9R16
                                R20R19
  21966368.800   115434048.81048      2987.383    21966371.020    89948621.39549
      2327.828  
  20900063.260   109830572.76549       330.008    20900064.920    85582270.70049
       257.145  
  22441473.160   117930741.43249      2373.793    22441471.660    91894078.71146
      1849.707  
  24104023.240   126667495.45347     -3551.352    24104025.260    98701953.49946
     -2767.285  
  21094583.800   110852783.66549     -1794.980    21094583.640    86378789.36649
     -1398.691  
  21441878.980   112677835.34449     -2379.402    21441881.060    87800918.92548
     -1854.082  
  20512418.960   107793490.44048       385.324    20512417.720    83994920.57047
       300.254  
  23636988.020   124213203.70547       164.930    23636988.700    96789511.02244
       128.516  
  19856813.260   105847988.64608      2146.484           0.000           0.00000
         0.000  
  23099477.000   123306575.57007     -4191.473    23099483.000    95905138.87006
     -3260.039  
  19219960.260   102633517.65808      -920.316    19219964.000    79826081.38808
      -715.805  
  23452693.780   125280065.19205     -4056.715    23452699.080    97440079.26304
     -3155.230  
  20435244.720   109276449.13504      3014.918    20435250.800    84992809.88608
      2344.938  
  19689602.640   105326095.72106     -1689.730    19689605.520    81920304.77707
     -1314.238  
 20  5  7  5 10 55.0000000  0 14G 1G30G28G27G 7G 8G11G13R10R18R 9R16
                                R20R19
  21963527.820   115419119.39348      2984.473    21963530.020    89936988.08549
      2325.563  
  20899751.000   109828931.83049       326.355    20899752.660    85580992.04349
       254.301  
  22439215.060   117918875.10849      2372.547    22439213.560    91884832.22446
      1848.738  
  24107402.460   126685253.24347     -3552.465    24107404.420    98715790.72046
     -2768.160  
  21096293.220   110861766.70749     -1798.324    21096293.060    86385789.13349
     -1401.297  
  21444143.840   112689737.13249     -2381.426    21444145.900    87810193.04348
     -1855.660  
  20512054.040   107791572.74348       381.645    20512052.800    83993426.26547
       297.387  
  23636832.780   124212387.69247       160.973    23636833.440    96788875.15845
       125.430  
  19854801.380   105837264.42308      2143.059           0.000           0.00000
         0.000  
  23103403.520   123327535.69106     -4192.750    23103409.560    95921441.18606
     -3261.031  
  19220823.800   102638128.79408      -924.309    19220827.500    79829667.82908
      -718.910  
  23456490.600   125300347.40105     -4057.059    23456495.940    97455854.32204
     -3155.492  
  20432427.320   109261382.90205      3011.449    20432433.340    84981091.71108
      2342.234  
  19691184.020   105334554.87506     -1693.707    19691186.880    81926884.11807
     -1317.332  
 20  5  7  5 11  0.0000000  0 14G 1G30G28G27G 7G 8G11G13R10R18R 9R16
                                R20R19
  21960689.700   115404204.98048      2981.695    21960691.900    89925366.47649
      2323.398  
  20899442.440   109827310.23749       322.395    20899444.100    85579728.46449
       251.211  
  22436958.320   117907015.89349      2371.254    22436956.820    91875591.29246
      1847.730  
  24110782.560   126703015.79647     -3553.098    24110784.520    98729631.67846
     -2768.648  
  21098005.980   110870767.33249     -1801.879    21098005.820    86392802.60749
     -1404.066  
  21446410.820   112701650.14049     -2383.703    21446412.880    87819475.91348
     -1857.516  
  20511692.900   107789674.92948       377.563    20511691.680    83991947.44747
       294.199  
  23636681.260   124211591.30247       157.520    23636681.920    96788254.60745
       122.742  
  19852792.740   105826557.24708      2139.684           0.000           0.00000
         0.000  
  23107331.440   123348502.98407     -4194.492    23107337.500    95937749.07206
     -3262.387  
  19221691.240   102642760.78708      -928.391    19221694.920    79833270.48408
      -722.086  
  23460288.840   125320637.20305     -4058.703    23460294.240    97471635.24804
     -3156.777  
  20429613.340   109246335.52105      3007.770    20429619.400    84969388.19908
      2339.375  
  19692769.360   105343035.73605     -1698.367    19692772.280    81933480.34407
     -1320.953  
 20  5  7  5 11  5.0000000  0 14G 1G30G28G27G 7G 8G11G13R10R18R 9R16
                                R20R19
  21957853.880   115389302.49048      2979.512    21957856.060    89913754.14749
      2321.699  
  20899136.960   109825704.87649       319.758    20899138.620    85578477.54049
       249.156  
  22434702.320   117895160.64649      2370.809    22434700.840    91866353.43546
      1847.383  
  24114163.020   126720780.08447     -3552.801    24114164.960    98743473.97246
     -2768.422  
  21099721.500   110879782.39249     -1804.270    21099721.340    86399827.32149
     -1405.930  
  21448679.380   112713571.30649     -2384.758    21448681.420    87828765.13348
     -1858.254  
  20511334.940   107787793.83948       374.910    20511333.720    83990481.65947
       292.133  
  23636532.900   124210811.49947       154.699    23636533.480    96787646.96845
       120.543  
  19850786.740   105815864.03108      2137.656           0.000           0.00000
         0.000  
  23111260.180   123369474.25406     -4194.398    23111266.160    95954060.05607
     -3262.309  
  19222562.040   102647410.42008      -931.480    19222565.660    79836886.86008
      -724.488  
  23464087.840   125340931.45804     -4059.047    23464093.400    97487419.64404
     -3157.039  
  20426802.380   109231303.78205      3004.926    20426808.400    84957696.85108
      2337.164  
  19694358.280   105351535.30906     -1701.453    19694361.180    81940091.12507
     -1323.355  
 20  5  7  5 11 10.0000000  0 14G 1G30G28G27G 7G 8G11G13R10R18R 9R16
                                R20R19
  21955020.220   115374411.45648      2976.832    21955022.400    89902150.74849
      2319.609  
  20898834.460   109824115.26749       316.137    20898836.140    85577238.87349
       246.336  
  22432447.020   117883308.90449      2369.742    22432445.580    91857118.33046
      1846.551  
  24117543.700   126738545.59347     -3553.254    24117545.620    98757317.21045
     -2768.773  
  21101439.660   110888811.41849     -1807.438    21101439.500    86406862.92849
     -1408.398  
  21450949.380   112725500.10849     -2386.754    21450951.380    87838060.29948
     -1859.813  
  20510980.080   107785929.02948       371.125    20510978.860    83989028.56447
       289.184  
  23636387.580   124210047.75447       150.879    23636388.140    96787051.85645
       117.566  
  19848783.220   105805184.13208      2134.469           0.000           0.00000
         0.000  
  23115189.460   123390448.96407     -4195.676    23115195.460    95970373.70607
     -3263.309  
  19223436.020   102652077.33708      -935.195    19223439.600    79840516.69008
      -727.375  
  23467887.700   125361229.54504     -4059.727    23467893.300    97503207.03604
     -3157.574  
  20423994.200   109216287.30205      3001.672    20424000.240    84946017.37708
      2334.633  
  19695950.560   105360053.06106     -1705.223    19695953.500    81946716.04607
     -1326.285  
 20  5  7  5 11 15.0000000  0 14G 1G30G28G27G 7G 8G11G13R10R18R 9R16
                                R20R19
  21952189.000   115359533.32648      2974.465    21952191.180    89890557.40449
      2317.766  
  20898535.260   109822542.85349       312.867    20898536.940    85576013.61949
       243.789  
  22430192.640   117871462.16049      2369.047    22430191.280    91847887.09946
      1846.012  
  24120924.880   126756313.70147     -3553.766    24120926.760    98771162.48645
     -2769.172  
  21103160.760   110897855.87349     -1810.254    21103160.600    86413910.55149
     -1410.590  
  21453221.100   112737438.00149     -2388.348    21453223.100    87847362.55048
     -1861.055  
  20510628.580   107784081.98748       367.930    20510627.360    83987589.30647
       286.695  
  23636245.600   124209301.53147       147.566    23636246.200    96786470.37145
       114.988  
  19846782.480   105794518.92008      2131.688           0.000           0.00000
         0.000  
  23119119.700   123411428.62507     -4196.430    23119125.700    95986691.20407
     -3263.895  
  19224313.480   102656762.83908      -938.883    19224317.060    79844160.96108
      -730.246  
  23471688.500   125381533.25205     -4061.148    23471694.240    97518998.78804
     -3158.680  
  20421189.140   109201287.61305      2998.910    20421195.240    84934350.95608
      2332.484  
  19697546.500   105368590.36606     -1709.387    19697549.460    81953356.17107
     -1329.527  
 20  5  7  5 11 20.0000000  0 14G 1G30G28G27G 7G 8G11G13R10R18R 9R16
                                R20R19
  21949360.220   115344668.02948      2971.902    21949362.420    89878974.06049
      2315.770  
  20898239.320   109820987.57049       309.547    20898240.980    85574801.70949
       241.203  
  22427939.220   117859620.25349      2368.012    22427937.880    91838659.64346
      1845.203  
  24124306.520   126774084.39447     -3554.367    24124308.420    98785009.78445
     -2769.637  
  21104884.780   110906915.64949     -1813.402    21104884.620    86420970.11049
     -1413.043  
  21455494.540   112749384.87749     -2390.188    21455496.540    87856671.80048
     -1862.488  
  20510280.440   107782252.49948       364.266    20510279.220    83986163.73747
       283.844  
  23636107.000   124208572.74148       144.141    23636107.420    96785902.47945
       112.313  
  19844784.480   105783868.59708      2128.734           0.000           0.00000
         0.000  
  23123050.900   123432413.19407     -4197.012    23123056.860    96003012.53207
     -3264.348  
  19225194.440   102661466.91308      -942.516    19225197.980    79847819.68108
      -733.016  
  23475490.260   125401842.05204     -4062.246    23475496.140    97534794.50304
     -3159.531  
  20418387.220   109186304.55705      2995.270    20418393.320    84922697.47408
      2329.652  
  19699146.120   105377147.09405     -1713.230    19699149.060    81960011.40207
     -1332.516  
 20  5  7  5 11 25.0000000  0 14G 1G30G28G27G 7G 8G11G13R10R18R 9R16
                                R20R19
  21946533.420   115329813.10348      2969.629    21946535.620    89867398.79649
      2313.996  
  20897946.160   109819446.89849       306.480    20897947.820    85573601.18749
       238.816  
  22425686.220   117847780.69549      2367.527    22425684.880    91829434.02146
      1844.828  
  24127688.220   126791855.07747     -3554.168    24127690.080    98798857.04145
     -2769.484  
  21106611.240   110915988.20549     -1815.926    21106611.080    86428039.63049
     -1415.012  
  21457769.200   112761338.17549     -2391.406    21457771.200    87865986.06248
     -1863.438  
  20509935.180   107780438.09848       361.414    20509933.900    83984749.92147
       281.617  
  23635971.220   124207858.87647       141.184    23635971.500    96785346.21945
       110.008  
  19842788.740   105773230.31108      2126.305           0.000           0.00000
         0.000  
  23126982.460   123453399.94207     -4197.656    23126988.400    96019335.55607
     -3264.848  
  19226078.380   102666187.00208      -945.691    19226081.900    79851490.86108
      -735.543  
  23479292.400   125422153.55304     -4062.738    23479298.500    97550592.30504
     -3159.914  
  20415587.860   109171335.58605      2991.984    20415594.040    84911054.94808
      2327.098  
  19700748.880   105385720.71205     -1716.473    19700751.800    81966679.77407
     -1335.039  
 20  5  7  5 11 30.0000000  0 14G 1G30G28G27G 7G 8G11G13R10R18R 9R16
                                R20R19
  21943708.580   115314968.48448      2967.680    21943710.780    89855831.56949
      2312.477  
  20897655.760   109817920.81049       303.551    20897657.400    85572412.02149
       236.527  
  22423433.660   117835943.47049      2366.922    22423432.280    91820210.21046
      1844.352  
  24131069.920   126809625.81047     -3554.547    24131071.780    98812704.37945
     -2769.777  
  21108340.120   110925073.54349     -1818.594    21108339.940    86435119.11149
     -1417.090  
  21460045.080   112773297.96649     -2392.734    21460047.080    87875305.37848
     -1864.473  
  20509592.760   107778638.78248       358.094    20509591.500    83983347.86047
       279.035  
  23635838.320   124207159.91248       137.922    23635838.340    96784801.57344
       107.473  
  19840795.340   105762604.33808      2123.664           0.000           0.00000
         0.000  
  23130914.480   123474389.04907     -4198.289    23130920.400    96035660.40207
     -3265.340  
  19226965.320   102670923.07008      -949.043    19226968.800    79855174.46808
      -738.168  
  23483095.160   125442467.71605     -4063.043    23483101.320    97566392.18504
     -3160.148  
  20412791.240   109156380.66305      2989.461    20412797.400    84899423.34308
      2325.133  
  19702354.740   105394311.28005     -1720.414    19702357.720    81973361.32507
     -1338.105  
 20  5  7  5 11 35.0000000  0 14G 1G30G28G27G 7G 8G11G13R10R18R 9R16
                                R20R19
  21940886.300   115300137.40848      2965.016    21940888.520    89844274.89349
      2310.402  
  20897368.740   109816412.49449       300.055    20897370.380    85571236.70649
       233.805  
  22421182.160   117824111.74249      2366.008    22421180.720    91810990.68146
      1843.641  
  24134452.220   126827399.65947     -3554.941    24134454.100    98826554.12545
     -2770.086  
  21110072.040   110934174.80249     -1821.727    21110071.840    86442210.99949
     -1419.531  
  21462322.800   112785267.30849     -2394.641    21462324.760    87884632.14648
     -1865.953  
  20509253.840   107776857.71448       354.367    20509252.580    83981960.01147
       276.125  
  23635708.860   124206479.03848       134.617    23635708.680    96784271.01844
       104.895  
  19838804.860   105751993.99908      2120.797           0.000           0.00000
         0.000  
  23134847.460   123495383.46707     -4199.164    23134853.380    96051989.40807
     -3266.016  
  19227855.880   102675678.48308      -952.906    19227859.340    79858873.11808
      -741.152  
  23486899.140   125462787.84604     -4064.020    23486905.280    97582196.74304
     -3160.902  
  20409997.780   109141443.12805      2985.742    20410004.000    84887805.26808
      2322.242  
  19703964.400   105402921.87005     -1724.031    19703967.360    81980058.45007
     -1340.918  
 20  5  7  5 11 40.0000000  0 14G 1G30G28G27G 7G 8G11G13R10R18R 9R16
                                R20R19
  21938066.500   115285319.15448      2962.613    21938068.700    89832728.19949
      2308.531  
  20897084.980   109814921.24649       296.859    20897086.620    85570074.70349
       231.316  
  22418931.580   117812284.85149      2365.004    22418930.060    91801774.92246
      1842.855  
  24137834.960   126845175.99348     -3555.320    24137836.780    98840405.80745
     -2770.383  
  21111806.860   110943291.27749     -1824.543    21111806.660    86449314.73849
     -1421.727  
  21464602.180   112797245.47549     -2396.316    21464604.140    87893965.76648
     -1867.262  
  20508918.280   107775094.24548       351.051    20508916.980    83980585.87747
       273.543  
  23635582.680   124205815.54048       131.063    23635582.300    96783753.99844
       102.121  
  19836817.120   105741398.34908      2117.969           0.000           0.00000
         0.000  
  23138781.320   123516382.60707     -4200.082    23138787.240    96068322.05806
     -3266.734  
  19228749.880   102680452.38008      -956.414    19228753.320    79862586.14708
      -743.883  
  23490704.280   125483113.15304     -4065.293    23490710.200    97598005.30104
     -3161.898  
  20407207.400   109126522.20905      2982.473    20407213.720    84876200.10908
      2319.695  
  19705577.660   105411551.88406     -1727.574    19705580.660    81986770.68307
     -1343.672  
 20  5  7  5 11 45.0000000  0 14G 1G30G28G27G 7G 8G11G13R10R18R 9R16
                                R20R19
  21935249.020   115270513.19448      2959.809    21935251.240    89821191.10049
      2306.344  
  20896804.360   109813446.51849       293.137    20896805.980    85568925.55249
       228.414  
  22416681.780   117800462.17249      2364.082    22416680.240    91792562.44345
      1842.137  
  24141218.040   126862954.19947     -3555.891    24141219.820    98854258.94546
     -2770.828  
  21113544.440   110952422.39549     -1827.766    21113544.240    86456429.89149
     -1424.238  
  21466883.160   112809232.03049     -2398.152    21466885.080    87903305.94348
     -1868.695  
  20508585.920   107773347.72348       347.598    20508584.640    83979224.94747
       270.852  
  23635459.720   124205168.81648       127.605    23635459.120    96783250.06044
        99.430  
  19834832.000   105730816.73208      2114.801           0.000           0.00000
         0.000  
  23142715.940   123537385.90507     -4201.070    23142721.900    96084657.96106
     -3267.500  
  19229647.240   102685244.13108      -960.090    19229650.640    79866313.06208
      -746.742  
  23494509.980   125503443.11704     -4066.160    23494516.020    97613817.48304
     -3162.574  
  20404419.980   109111617.31705      2979.363    20404426.460    84864607.42508
      2317.281  
  19707194.520   105420200.59605     -1731.750    19707197.460    81993497.45107
     -1346.922  
 20  5  7  5 11 50.0000000  0 14G 1G30G28G27G 7G 8G11G13R10R18R 9R16
                                R20R19
  21932433.660   115255718.29048      2958.016    21932435.880    89809662.60149
      2304.941  
  20896526.640   109811987.05549       290.387    20896528.240    85567788.31049
       226.270  
  22414432.560   117788642.53549      2363.809    22414431.020    91783352.34746
      1841.930  
  24144601.260   126880733.05347     -3555.746    24144603.000    98868112.59445
     -2770.715  
  21115284.600   110961566.95349     -1830.059    21115284.380    86463555.51649
     -1426.023  
  21469165.480   112821225.72949     -2399.215    21469167.420    87912651.67648
     -1869.523  
  20508256.540   107771616.97748       344.496    20508255.280    83977876.31247
       268.434  
  23635339.700   124204537.68948       124.691    23635338.960    96782758.26244
        97.160  
  19832849.340   105720248.23008      2112.434           0.000           0.00000
         0.000  
  23146651.140   123558392.13407     -4201.391    23146657.100    96100996.13006
     -3267.754  
  19230547.720   102690052.63808      -963.250    19230551.120    79870053.01208
      -749.199  
  23498316.400   125523776.33504     -4067.641    23498322.440    97629632.21004
     -3163.723  
  20401635.480   109096727.17605      2976.824    20401641.920    84853026.21508
      2315.309  
  19708814.620   105428866.82205     -1735.297    19708817.540    82000237.85907
     -1349.676  
 20  5  7  5 11 55.0000000  0 14G 1G30G28G27G 7G 8G11G13R10R18R 9R16
                                R20R19
  21929620.720   115240936.07348      2954.926    21929622.920    89798143.99649
      2302.539  
  20896252.160   109810544.49049       286.590    20896253.740    85566664.23449
       223.313  
  22412184.220   117776827.53749      2362.211    22412182.720    91774145.87946
      1840.684  
  24147984.900   126898514.12847     -3556.758    24147986.660    98881967.97545
     -2771.504  
  21117027.600   110970726.51449     -1833.742    21117027.380    86470692.83449
     -1428.895  
  21471449.480   112833228.09849     -2401.684    21471451.400    87922004.16648
     -1871.445  
  20507930.480   107769903.57848       340.523    20507929.200    83976541.20447
       265.344  
  23635222.960   124203923.72448       120.855    23635222.020    96782279.84044
        94.168  
  19830869.420   105709694.34808      2109.090           0.000           0.00000
         0.000  
  23150587.080   123579402.78007     -4202.508    23150593.100    96117337.72106
     -3268.621  
  19231451.640   102694879.45708      -967.512    19231455.000    79873807.20008
      -752.512  
  23502123.660   125544114.46504     -4068.172    23502129.780    97645450.74004
     -3164.137  
  20398854.120   109081853.58205      2972.566    20398860.480    84841457.86408
      2311.992  
  19710438.300   105437552.25706     -1739.164    19710441.200    82006993.19607
     -1352.688  
 20  5  7  5 12  0.0000000  0 14G 1G30G28G27G 7G 8G11G13R10R18R 9R16
                                R20R19
  21926810.540   115226168.60948      2951.863    21926812.760    89786636.88849
      2300.152  
  20895981.280   109809120.85449       282.793    20895982.840    85565554.90049
       220.355  
  22409937.160   117765019.23349      2360.906    22409935.700    91764944.60846
      1839.668  
  24151369.360   126916299.51147     -3557.738    24151371.000    98895826.70745
     -2772.266  
  21118773.860   110979903.13349     -1837.238    21118773.640    86477843.44449
     -1431.617  
  21473735.480   112845241.07549     -2403.793    21473737.420    87931364.93148
     -1873.090  
  20507608.120   107768209.59948       336.645    20507606.840    83975221.22047
       262.316  
  23635109.860   124203329.01548       117.059    23635108.740    96781816.44045
        91.211  
  19828892.660   105699157.05108      2105.605           0.000           0.00000
         0.000  
  23154524.360   123600420.08706     -4204.180    23154530.340    96133684.51806
     -3269.918  
  19232359.380   102699726.70808      -971.699    19232362.720    79877577.28108
      -755.770  
  23505932.360   125564459.54704     -4069.773    23505938.460    97661274.68104
     -3165.383  
  20396076.120   109066998.48205      2969.223    20396082.500    84829903.90208
      2309.395  
  19712065.860   105446258.86005     -1743.258    19712068.820    82013764.99407
     -1355.871  
 20  5  7  5 12  5.0000000  0 14G 1G30G28G27G 7G 8G11G13R10R18R 9R16
                                R20R19
  21924002.760   115211413.54648      2950.188    21924004.980    89775139.43649
      2298.844  
  20895713.540   109807713.80249       280.164    20895715.100    85564458.49949
       218.305  
  22407690.940   117753215.24149      2360.805    22407689.480    91755746.68846
      1839.590  
  24154754.140   126934086.74547     -3556.961    24154755.840    98909686.88945
     -2771.660  
  21120522.900   110989094.42749     -1839.344    21120522.680    86485005.48749
     -1433.258  
  21476023.080   112857262.43949     -2404.801    21476025.000    87940732.22548
     -1873.875  
  20507289.000   107766532.70748       334.035    20507287.740    83973914.55147
       260.289  
  23634999.980   124202751.17448       114.430    23634998.620    96781366.14444
        89.156  
  19826918.560   105688634.17608      2103.535           0.000           0.00000
         0.000  
  23158462.340   123621441.43906     -4204.230    23158468.380    96150034.45206
     -3269.965  
  19233270.480   102704591.98209      -974.484    19233273.820    79881361.38108
      -757.938  
  23509741.920   125584809.38304     -4069.379    23509748.020    97677102.29804
     -3165.082  
  20393301.240   109052159.64705      2966.727    20393307.580    84818362.59208
      2307.453  
  19713697.040   105454984.17505     -1746.750    19713699.940    82020551.35207
     -1358.250  
 20  5  7  5 12 10.0000000  0 14G 1G30G28G27G 7G 8G11G13R10R18R 9R16
                                R20R19
  21921196.920   115196668.82848      2947.402    21921199.180    89763650.04849
      2296.676  
  20895448.560   109806321.28949       276.488    20895450.100    85563373.42149
       215.441  
  22405445.160   117741413.53749      2359.617    22405443.720    91746550.56946
      1838.664  
  24158138.960   126951873.90847     -3557.895    24158140.660    98923547.00045
     -2772.391  
  21122274.340   110998298.35149     -1842.605    21122274.120    86492177.37249
     -1435.801  
  21478311.860   112869290.05949     -2406.688    21478313.780    87950104.39148
     -1875.344  
  20506972.740   107764870.81548       330.422    20506971.500    83972619.57047
       257.473  
  23634892.900   124202188.10548       110.707    23634891.380    96780927.38744
        86.262  
  19824946.780   105678123.43708      2100.395           0.000           0.00000
         0.000  
  23162400.760   123642464.88806     -4205.328    23162406.800    96166386.00306
     -3270.816  
  19234184.560   102709473.15308      -978.320    19234187.900    79885157.84508
      -760.918  
  23513551.960   125605161.74604     -4072.328    23513558.060    97692931.89504
     -3167.371  
  20390528.980   109037334.91905      2962.648    20390535.280    84806832.25408
      2304.281  
  19715331.220   105463726.12305     -1750.590    19715334.160    82027350.64707
     -1361.574  
 20  5  7  5 12 15.0000000  0 14G 1G30G28G27G 7G 8G11G13R10R18R 9R16
                                R20R19
  21918393.640   115181937.49848      2945.145    21918395.900    89752171.10149
      2294.918  
  20895186.920   109804946.34349       273.375    20895188.460    85562302.03149
       213.016  
  22403200.400   117729617.13949      2358.848    22403198.900    91737358.56646
      1838.059  
  24161524.300   126969663.88747     -3558.094    24161526.020    98937409.32146
     -2772.543  
  21124028.780   111007517.91449     -1845.309    21124028.540    86499361.44149
     -1437.906  
  21480602.420   112881326.99149     -2408.234    21480604.340    87959483.82548
     -1876.547  
  20506659.920   107763226.92948       327.199    20506658.700    83971338.63047
       254.961  
  23634789.160   124201642.82948       107.344    23634787.380    96780502.50544
        83.645  
  19822977.840   105667628.06308      2097.703           0.000           0.00000
         0.000  
  23166340.100   123663493.30206     -4205.883    23166346.140    96182741.44007
     -3271.246  
  19235102.220   102714373.29108      -981.797    19235105.540    79888969.06308
      -763.648  
  23517362.960   125625519.62704     -4072.031    23517369.100    97708765.76704
     -3167.145  
  20387760.000   109022527.26205      2959.902    20387766.160    84795315.19408
      2302.145  
  19716969.080   105472487.77005     -1754.273    19716972.040    82034165.26107
     -1364.438  
 20  5  7  5 12 20.0000000  0 14G 1G30G28G27G 7G 8G11G13R10R18R 9R16
                                R20R19
  21915593.000   115167219.95948      2942.555    21915595.240    89740702.88949
      2292.898  
  20894928.700   109803589.31149       269.973    20894930.240    85561244.60149
       210.363  
  22400956.720   117717826.45049      2357.867    22400955.220    91728171.01546
      1837.301  
  24164910.240   126987457.12247     -3558.781    24164911.980    98951274.18245
     -2773.082  
  21125786.260   111016753.51549     -1848.398    21125786.020    86506558.00749
     -1440.313  
  21482894.840   112893373.63749     -2409.949    21482896.740    87968870.82148
     -1877.887  
  20506350.600   107761601.47148       323.582    20506349.380    83970072.03147
       252.137  
  23634688.920   124201115.78348       103.859    23634686.920    96780091.81544
        80.930  
  19821011.880   105657148.45608      2094.660           0.000           0.00000
         0.000  
  23170280.540   123684527.25906     -4206.777    23170286.540    96199101.17607
     -3271.941  
  19236023.500   102719292.85609      -985.539    19236026.820    79892795.38808
      -766.535  
  23521175.140   125645883.46404     -4073.188    23521181.260    97724604.30204
     -3168.039  
  20384994.120   109007737.32605      2956.117    20385000.360    84783811.91308
      2299.199  
  19718610.740   105481269.59205     -1757.570    19718613.700    82040995.56307
     -1367.004  
 20  5  7  5 12 25.0000000  0 14G 1G30G28G27G 7G 8G11G13R10R18R 9R16
                                R20R19
  21912794.460   115152513.52748      2940.082    21912796.700    89729243.33649
      2290.969  
  20894673.380   109802247.50649       266.848    20894674.920    85560199.03949
       207.930  
  22398713.600   117706038.75649      2357.156    22398712.080    91718985.79946
      1836.746  
  24168296.280   127005250.86647     -3559.168    24168298.000    98965139.42945
     -2773.383  
  21127546.260   111026002.41449     -1851.180    21127546.040    86513764.94149
     -1442.480  
  21485188.600   112905427.26449     -2411.457    21485190.500    87978263.25448
     -1879.063  
  20506044.240   107759991.71948       320.418    20506043.060    83968817.67947
       249.676  
  23634591.580   124200604.23747       100.832    23634589.400    96779693.20445
        78.566  
  19819048.340   105646681.71508      2091.930           0.000           0.00000
         0.000  
  23174221.400   123705563.85906     -4207.902    23174227.420    96215462.96807
     -3272.816  
  19236947.920   102724229.12208      -988.984    19236951.220    79896634.69708
      -769.215  
  23524987.940   125666250.52504     -4073.633    23524993.980    97740445.34804
     -3168.387  
  20382231.120   108992962.01105      2953.691    20382237.280    84772320.00508
      2297.316  
  19720255.660   105490068.73005     -1761.699    19720258.600    82047839.34407
     -1370.211  
 20  5  7  5 12 30.0000000  0 14G 1G30G28G27G 7G 8G11G13R10R18R 9R16
                                R20R19
  21909998.080   115137818.46948      2937.559    21910000.320    89717792.65049
      2289.008  
  20894421.000   109800921.24849       263.426    20894422.560    85559165.59149
       205.262  
  22396471.100   117694254.31849      2356.422    22396469.580    91709803.12446
      1836.172  
  24171682.480   127023045.41547     -3559.203    24171684.180    98979005.30746
     -2773.410  
  21129308.840   111035264.85049     -1853.988    21129308.600    86520982.42049
     -1444.672  
  21487483.720   112917488.12349     -2413.129    21487485.600    87987661.32148
     -1880.363  
  20505740.960   107758398.03348       316.965    20505739.820    83967575.85247
       246.980  
  23634497.240   124200108.50047        97.102    23634494.920    96779306.90844
        75.660  
  19817087.320   105636228.34608      2089.195           0.000           0.00000
         0.000  
  23178162.840   123726603.40307     -4208.230    23178168.840    96231827.04507
     -3273.070  
  19237875.460   102729182.22808      -992.516    19237878.780    79900487.11508
      -771.961  
  23528801.460   125686621.01204     -4074.469    23528807.360    97756289.04404
     -3169.035  
  20379470.840   108978201.97005      2950.203    20379477.060    84760839.98608
      2294.602  
  19721904.000   105498885.59805     -1765.152    19721906.820    82054696.90407
     -1372.898  
 20  5  7  5 12 35.0000000  0 14G 1G30G28G27G 7G 8G11G13R10R18R 9R16
                                R20R19
  21907204.220   115123136.67348      2934.895    21907206.480    89706352.29349
      2286.930  
  20894171.940   109799612.33249       259.992    20894173.480    85558145.65049
       202.586  
  22394229.560   117682474.97249      2355.277    22394228.060    91700624.41546
      1835.277  
  24175069.160   127040842.55747     -3559.813    24175070.860    98992873.19746
     -2773.883  
  21131074.360   111044542.71849     -1857.254    21131074.120    86528211.92149
     -1447.215  
  21489780.560   112929558.06749     -2415.051    21489782.440    87997066.46848
     -1881.859  
  20505441.080   107756822.22648       313.246    20505439.960    83966347.95947
       244.086  
  23634406.240   124199630.33948        93.543    23634403.840    96778934.29444
        72.887  
  19815129.100   105625790.13108      2085.977           0.000           0.00000
         0.000  
  23182105.180   123747647.80406     -4209.430    23182111.180    96248194.90007
     -3274.004  
  19238806.540   102734154.09208      -996.406    19238809.860    79904354.11608
      -774.988  
  23532615.880   125706996.85204     -4077.055    23532621.820    97772136.89704
     -3171.051  
  20376713.840   108963458.90805      2946.809    20376720.040    84749373.15908
      2291.961  
  19723555.840   105507721.82605     -1769.254    19723558.640    82061569.52707
     -1376.086  
 20  5  7  5 12 40.0000000  0 14G 1G30G28G27G 7G 8G11G13R10R18R 9R16
                                R20R19
  21904412.580   115108466.59748      2932.934    21904414.860    89694921.07249
      2285.402  
  20893925.880   109798319.29449       256.938    20893927.420    85557138.09049
       200.207  
  22391988.700   117670699.23449      2354.762    22391987.220    91691448.51346
      1834.875  
  24178456.120   127058640.82347     -3559.691    24178457.840    99006741.97445
     -2773.789  
  21132842.520   111053834.45449     -1859.707    21132842.280    86535452.23949
     -1449.125  
  21492078.820   112941635.43649     -2416.270    21492080.700    88006477.41248
     -1882.809  
  20505144.300   107755262.75248       310.129    20505143.180    83965132.78247
       241.656  
  23634318.340   124199168.29348        90.762    23634315.840    96778574.26644
        70.723  
  19813173.460   105615365.50108      2083.586           0.000           0.00000
         0.000  
  23186048.160   123768695.44006     -4209.371    23186054.140    96264565.27307
     -3273.961  
  19239740.860   102739143.25008      -999.523    19239744.160    79908234.57208
      -777.438  
  23536431.000   125727376.52304     -4076.934    23536436.920    97787987.74704
     -3170.953  
  20373959.680   108948731.30205      2944.496    20373965.880    84737918.35908
      2290.164  
  19725211.060   105516575.95205     -1772.621    19725213.820    82068456.07007
     -1378.711  
 20  5  7  5 12 45.0000000  0 14G 1G30G28G27G 7G 8G11G13R10R18R 9R16
                                R20R19
  21901623.660   115093810.67748      2929.848    21901625.920    89683500.87849
      2282.996  
  20893683.280   109797044.45149       253.406    20893684.840    85556144.70049
       197.457  
  22389749.000   117658929.50749      2353.543    22389747.540    91682277.30946
      1833.930  
  24181843.680   127076442.55047     -3560.430    24181845.480    99020613.43345
     -2774.363  
  21134613.760   111063142.43849     -1863.078    21134613.540    86542705.20749
     -1451.754  
  21494378.980   112953722.73049     -2418.258    21494380.820    88015896.07848
     -1884.359  
  20504851.060   107753721.88948       306.598    20504849.960    83963932.11047
       238.902  
  23634233.880   124198724.72947        86.996    23634231.320    96778228.62445
        67.789  
  19811220.840   105604957.03408      2080.328           0.000           0.00000
         0.000  
  23189992.120   123789748.71606     -4210.934    23189998.160    96280940.03907
     -3275.172  
  19240678.840   102744152.06408     -1003.586    19240682.140    79912130.31108
      -780.570  
  23540247.320   125747762.30103     -4077.578    23540253.160    97803843.33404
     -3171.453  
  20371208.880   108934021.58905      2940.371    20371215.100    84726477.47508
      2286.957  
  19726869.980   105525450.36905     -1776.180    19726872.800    82075358.39607
     -1381.473  
 20  5  7  5 12 50.0000000  0 14G 1G30G28G27G 7G 8G11G13R10R18R 9R16
                                R20R19
  21898837.000   115079166.66648      2927.520    21898839.260    89672089.96149
      2281.184  
  20893443.740   109795785.63149       250.129    20893445.300    85555163.79949
       194.902  
  22387510.020   117647163.55149      2352.734    22387508.560    91673109.03846
      1833.301  
  24185231.480   127094245.54947     -3561.000    24185233.240    99034485.89046
     -2774.809  
  21136387.680   111072464.45049     -1865.867    21136387.460    86549969.10749
     -1453.926  
  21496680.600   112965817.68349     -2419.855    21496682.400    88025320.71748
     -1885.605  
  20504560.980   107752197.51148       303.176    20504559.860    83962744.28547
       236.242  
  23634152.520   124198297.40847        83.789    23634150.040    96777895.63644
        65.285  
  19809270.840   105594562.44708      2077.445           0.000           0.00000
         0.000  
  23193936.660   123810805.34406     -4211.852    23193942.780    96297317.40207
     -3275.887  
  19241620.080   102749178.29208     -1007.008    19241623.380    79916039.59908
      -783.203  
  23544064.320   125768152.12404     -4078.500    23544070.240    97819702.07604
     -3172.172  
  20368461.020   108919327.63505      2937.199    20368467.240    84715048.85308
      2284.488  
  19728532.400   105534342.85205     -1780.629    19728535.160    82082274.77407
     -1384.934  
 20  5  7  5 12 55.0000000  0 14G 1G30G28G27G 7G 8G11G13R10R18R 9R16
                                R20R19
  21896052.860   115064535.84948      2925.078    21896055.100    89660689.32649
      2279.281  
  20893207.460   109794544.10049       246.434    20893209.060    85554196.37049
       192.027  
  22385271.980   117635402.59849      2351.758    22385270.560    91663944.66146
      1832.539  
  24188619.740   127112051.02247     -3561.242    24188621.500    99048360.26846
     -2774.996  
  21138164.520   111081801.73149     -1869.000    21138164.260    86557244.90449
     -1456.367  
  21498983.880   112977921.49049     -2421.605    21498985.700    88034752.25148
     -1886.969  
  20504274.260   107750690.82448       299.594    20504273.140    83961570.24347
       233.445  
  23634074.460   124197887.66747        80.137    23634071.880    96777576.34344
        62.441  
  19807323.680   105584182.95108      2074.258           0.000           0.00000
         0.000  
  23197882.200   123831866.67206     -4212.816    23197888.300    96313698.42507
     -3276.641  
  19242564.800   102754223.18308     -1010.824    19242568.120    79919963.39908
      -786.199  
  23547882.280   125788547.01803     -4080.152    23547888.200    97835564.75304
     -3173.457  
  20365716.360   108904650.52805      2933.926    20365722.540    84703633.33608
      2281.941  
  19730198.380   105543254.69805     -1784.180    19730201.120    82089206.20707
     -1387.699  
 20  5  7  5 13  0.0000000  0 14G 1G30G28G27G 7G 8G11G13R10R18R 9R16
                                R20R19
  21893270.920   115049916.83948      2922.598    21893273.200    89649297.89249
      2277.348  
  20892974.220   109793318.41349       243.469    20892975.840    85553241.29049
       189.711  
  22383034.660   117623645.28149      2351.246    22383033.200    91654783.11746
      1832.141  
  24192008.240   127129857.57147     -3561.379    24192009.960    99062235.50546
     -2775.105  
  21139943.980   111091152.85749     -1871.430    21139943.740    86564531.49349
     -1458.262  
  21501288.600   112990032.76849     -2422.844    21501290.420    88044189.61048
     -1887.941  
  20503990.640   107749200.44648       296.387    20503989.520    83960408.91447
       230.945  
  23633999.440   124197493.97847        76.863    23633997.000    96777269.57744
        59.891  
  19805379.040   105573817.09108      2071.977           0.000           0.00000
         0.000  
  23201828.220   123852931.12006     -4213.367    23201834.400    96330081.89107
     -3277.066  
