     2              OBSERVATION DATA    M                   RINEX VERSION / TYPE
LEICA GEO OFFICE 7.0                    31-5-20 14:16       PGM / RUN BY / DATE
                                                            OBSERVER / AGENCY
GGS1636                                                     MARKER NAME
GGS1636                                                     MARKER NUMBER
472680              LEICA GX1230GG      9.02                REC # / TYPE / VERS
                    LEIAX1202GG                             ANT # / TYPE
 -1129838.6560  3836533.5541  4952431.9795                  APPROX POSITION XYZ
        1.8150        0.0000        0.0000                  ANTENNA: DELTA H/E/N
L1PhaOff:   0.0644  L2PhaOff:   0.0640                      COMMENT
     1     1                                                WAVELENGTH FACT L1/2
     6    C1    L1    D1    P2    L2    D2                  # / TYPES OF OBSERV
  2020     5    13     2    46   10.000000                  TIME OF FIRST OBS
  2020     5    13     3    46   20.000000                  TIME OF LAST OBS
    18                                                      LEAP SECONDS
    23                                                      # OF SATELLITES
          C1    L1    D1    P2    L2    D2                  COMMENT
   G 1    56    56    56    55    55    55                  PRN / # OF OBS
   G 2     0     0     0     0     0     0                  PRN / # OF OBS
   G 3     0     0     0     0     0     0                  PRN / # OF OBS
   G 4   253   253   253   244   244   244                  PRN / # OF OBS
   G 5     0     0     0     0     0     0                  PRN / # OF OBS
   G 6     0     0     0     0     0     0                  PRN / # OF OBS
   G 7   723   723   723   723   723   723                  PRN / # OF OBS
   G 8   723   723   723   723   723   723                  PRN / # OF OBS
   G 9   723   723   723   723   723   723                  PRN / # OF OBS
   G10     0     0     0     0     0     0                  PRN / # OF OBS
   G11   723   723   723   723   723   723                  PRN / # OF OBS
   G12     0     0     0     0     0     0                  PRN / # OF OBS
   G13    39    39    39    38    38    38                  PRN / # OF OBS
   G14     0     0     0     0     0     0                  PRN / # OF OBS
   G15     0     0     0     0     0     0                  PRN / # OF OBS
   G16   723   723   723   723   723   723                  PRN / # OF OBS
   G17     0     0     0     0     0     0                  PRN / # OF OBS
   G18     0     0     0     0     0     0                  PRN / # OF OBS
   G19     0     0     0     0     0     0                  PRN / # OF OBS
   G20     0     0     0     0     0     0                  PRN / # OF OBS
   G21   110   110   110   109   109   109                  PRN / # OF OBS
   G22     0     0     0     0     0     0                  PRN / # OF OBS
   G23     0     0     0     0     0     0                  PRN / # OF OBS
   G24     0     0     0     0     0     0                  PRN / # OF OBS
   G25     0     0     0     0     0     0                  PRN / # OF OBS
   G26     0     0     0     0     0     0                  PRN / # OF OBS
   G27   723   723   723   723   723   723                  PRN / # OF OBS
   G28   128   128   128   127   127   127                  PRN / # OF OBS
   G29     0     0     0     0     0     0                  PRN / # OF OBS
   G30   723   723   723   723   723   723                  PRN / # OF OBS
   G31     0     0     0     0     0     0                  PRN / # OF OBS
   G32     0     0     0     0     0     0                  PRN / # OF OBS
   R 1     0     0     0     0     0     0                  PRN / # OF OBS
   R 2     0     0     0     0     0     0                  PRN / # OF OBS
   R 3     0     0     0     0     0     0                  PRN / # OF OBS
   R 4     0     0     0     0     0     0                  PRN / # OF OBS
   R 5   387   387   387   387   387   387                  PRN / # OF OBS
   R 6   723   723   723     0     0     0                  PRN / # OF OBS
   R 7   225   225   225   224   224   224                  PRN / # OF OBS
   R 8     0     0     0     0     0     0                  PRN / # OF OBS
   R 9     0     0     0     0     0     0                  PRN / # OF OBS
   R10     0     0     0     0     0     0                  PRN / # OF OBS
   R11     0     0     0     0     0     0                  PRN / # OF OBS
   R12     0     0     0     0     0     0                  PRN / # OF OBS
   R13    22    22    22    22    22    22                  PRN / # OF OBS
   R14   723   723   723   723   723   723                  PRN / # OF OBS
   R15   723   723   723   723   723   723                  PRN / # OF OBS
   R16   436   436   436   436   436   436                  PRN / # OF OBS
   R17   723   723   723   723   723   723                  PRN / # OF OBS
   R18   169   169   169   168   168   168                  PRN / # OF OBS
   R19     0     0     0     0     0     0                  PRN / # OF OBS
   R20     0     0     0     0     0     0                  PRN / # OF OBS
   R21     0     0     0     0     0     0                  PRN / # OF OBS
   R22     0     0     0     0     0     0                  PRN / # OF OBS
   R23   723   723   723   722   722   722                  PRN / # OF OBS
   R24   723   723   723   723   723   723                  PRN / # OF OBS
                                                            END OF HEADER
 20  5 13  2 46 10.0000000  0 15G27G16G30G 4G 7G 8G 9G11R14R 6R15R 5
                                R24R23R17
  20567469.160   108082779.74049      -846.289    20567470.240    84220352.03449
      -659.449  
  22130525.940   116296699.02948     -2877.191    22130525.040    90620800.82445
     -2241.973  
  23866343.660   125418481.99748      3365.844    23866345.580    97728694.32849
      2622.734  
  23825597.500   125204359.66546     -3632.965    23825599.540    97561839.18945
     -2830.883  
  21595100.760   113483019.79249      2227.031    21595099.780    88428323.39949
      1735.348  
  20620506.480   108361492.43049      1543.672    20620508.580    84437535.38149
      1202.855  
  22405203.040   117740135.67849     -2442.695    22405204.480    91745566.77849
     -1903.402  
  23850689.960   125336220.61247      3726.266    23850686.080    97664591.06744
      2903.582  
  19644243.700   104714870.76708     -1269.422    19644249.020    81444921.85107
      -987.332  
  22534259.600   120247112.80406       873.000           0.000           0.00000
         0.000  
  20186345.400   107869708.90409      2242.785    20186349.640    83898679.71908
      1744.383  
  22370900.320   119585279.58707     -2935.688    22370905.380    93010796.86307
     -2283.316  
  19984553.900   106866391.23409       865.898    19984557.440    83118319.99207
       673.477  
  21021826.620   112452597.50808     -2443.188    21021832.120    87463156.30905
     -1900.262  
  21812963.580   116725578.01207      4219.129    21812968.800    90786578.56707
      3281.543  
 20  5 13  2 46 15.0000000  0 15G27G16G30G 4G 7G 8G 9G11R14R 6R15R 5
                                R24R23R17
  20568272.960   108087003.64349      -840.602    20568274.040    84223643.39549
      -655.016  
  22133261.000   116311071.93448     -2869.234    22133260.100    90632000.49545
     -2235.770  
  23863138.340   125401637.95048      3374.449    23863140.240    97715569.09949
      2629.441  
  23829051.080   125222509.09746     -3624.324    23829053.380    97575981.59145
     -2824.156  
  21592979.660   113471873.26049      2234.180    21592978.660    88419637.77749
      1740.914  
  20619036.220   108353766.26749      1549.488    20619038.320    84431515.00749
      1207.395  
  22407525.400   117752339.72849     -2436.297    22407526.840    91755076.42749
     -1898.418  
  23847141.840   125317574.12347      3734.891    23847139.740    97650061.32943
      2910.305  
  19645432.600   104721208.46208     -1262.859    19645438.000    81449851.17307
      -982.223  
  22533440.580   120242743.87205       877.313           0.000           0.00000
         0.000  
  20184244.620   107858483.83609      2250.078    20184249.060    83889949.11208
      1750.059  
  22373644.300   119599948.82907     -2929.328    22373649.500    93022206.25006
     -2278.371  
  19983743.340   106862056.74909       870.551    19983746.800    83114948.73407
       677.094  
  21024108.920   112464806.90508     -2437.781    21024114.460    87472652.49005
     -1896.055  
  21809019.440   116704470.49307      4226.449    21809024.300    90770161.60107
      3287.234  
 20  5 13  2 46 20.0000000  0 15G27G16G30G 4G 7G 8G 9G11R14R 6R15R 5
                                R24R23R17
  20569075.520   108091221.12249      -848.363    20569076.620    84226929.74049
      -661.066  
  22135992.720   116325427.23648     -2874.840    22135991.780    90643186.44445
     -2240.141  
  23859929.260   125384774.36348      3369.172    23859931.200    97702428.65349
      2625.328  
  23832500.980   125240639.09246     -3629.410    23832503.620    97590108.84845
     -2828.117  
  21590855.900   113460712.90249      2227.938    21590854.920    88410941.39949
      1736.055  
  20617564.480   108346032.27449      1541.914    20617566.600    84425488.52049
      1201.492  
  22409845.640   117764532.68249     -2443.043    22409847.100    91764577.42849
     -1903.672  
  23843589.620   125298907.66947      3729.758    23843590.040    97635516.06141
      2906.305  
  19646619.440   104727535.17608     -1269.879    19646624.900    81454771.95507
      -987.723  
  22532621.580   120238373.31005       868.762           0.000           0.00000
         0.000  
  20182141.320   107847244.38009      2243.707    20182145.800    83881207.31508
      1745.105  
  22376386.820   119614609.40207     -2936.680    22376392.180    93033608.91207
     -2284.090  
  19982932.560   106857721.93009       861.480    19982936.200    83111577.21207
       670.039  
  21026390.620   112477012.06808     -2446.074    21026396.200    87482145.39005
     -1902.508  
  21805072.780   116683348.67007      4220.313    21805077.080    90753733.52107
      3282.465  
 20  5 13  2 46 25.0000000  0 16G27G16G30G 4G21G 7G 8G 9G11R14R 6R15
                                R 5R24R23R17
  20569886.300   108095481.80749      -855.195    20569887.420    84230249.75349
      -666.391  
  22138730.540   116339814.47448     -2879.238    22138729.600    90654397.28245
     -2243.566  
  23856725.940   125367940.85048      3365.008    23856727.860    97689311.63449
      2622.086  
  23835956.840   125258799.32646     -3633.637    23835959.660    97604259.68646
     -2831.410  
  25155528.100   132193195.75706     -1911.883           0.000           0.00000
         0.000  
  21588738.960   113449588.38449      2222.668    21588738.000    88402272.92649
      1731.945  
  20616100.720   108338340.08749      1535.539    20616102.820    84419494.61049
      1196.523  
  22412173.220   117776764.14049     -2448.973    22412174.700    91774108.42849
     -1908.293  
  23840043.260   125280270.85447      3726.039    23840044.440    97620993.86744
      2903.406  
  19647813.680   104733901.35308     -1275.910    19647819.180    81459723.42007
      -992.379  
  22531811.620   120234051.35705       860.785           0.000           0.00000
         0.000  
  20180044.860   107836040.91109      2238.473    20180049.240    83872493.50808
      1741.031  
  22379137.360   119629311.74907     -2943.000    22379142.660    93045044.06606
     -2289.004  
  19982131.320   106853437.19309       853.313    19982134.900    83108244.64107
       663.684  
  21028680.780   112489263.47108     -2453.445    21028686.460    87491674.25905
     -1908.238  
  21801132.560   116662263.14707      4214.691    21801136.720    90737333.66907
      3278.094  
 20  5 13  2 46 30.0000000  0 16G27G16G30G 4G21G 7G 8G 9G11R14R 6R15
                                R 5R24R23R17
  20570701.600   108099766.21449      -858.332    20570702.720    84233588.25649
      -668.836  
  22141470.760   116354214.22548     -2880.258    22141469.800    90665617.85245
     -2244.359  
  23853524.620   125351117.93948      3364.531    23853526.520    97676202.87549
      2621.711  
  23839414.600   125276970.27746     -3634.285    23839417.620    97618418.88544
     -2831.910  
  25157348.780   132202760.33446     -1913.766    25157347.820   103015129.11745
     -1491.246  
  21586625.140   113438480.21149      2220.926    21586624.200    88393617.23249
      1730.590  
  20614641.200   108330670.26849      1532.766    20614643.300    84413518.13249
      1194.363  
  22414504.380   117789014.61649     -2450.957    22414505.880    91783654.25349
     -1909.840  
  23836498.820   125261644.27647      3725.410    23836499.620    97606479.68143
      2902.918  
  19649011.700   104740287.20408     -1278.152    19649017.180    81464690.19307
      -994.121  
  22531007.040   120229758.36205       856.449           0.000           0.00000
         0.000  
  20177951.320   107824853.72409      2236.918    20177955.680    83863792.36508
      1739.824  
  22381891.600   119644036.07907     -2945.930    22381897.160    93056496.31906
     -2291.281  
  19981335.760   106849182.76709       848.949    19981339.340    83104935.64107
       660.289  
  21030975.760   112501541.05908     -2457.117    21030981.660    87501223.49205
     -1911.094  
  21797195.380   116641194.17507      4213.168    21797199.420    90720946.70007
      3276.910  
 20  5 13  2 46 35.0000000  0 16G27G16G30G 4G21G 7G 8G 9G11R14R 6R15
                                R 5R24R23R17
  20571519.520   108104064.46249      -861.094    20571520.660    84236937.54349
      -670.984  
  22144211.420   116368616.60648     -2880.773    22144210.400    90676840.48545
     -2244.762  
  23850323.460   125334295.77748      3364.324    23850325.360    97663094.69849
      2621.551  
  23842872.600   125295142.07646     -3634.223    23842875.460    97632578.68646
     -2831.867  
  25159170.780   132212332.77846     -1915.180    25159169.020   103022588.17445
     -1492.348  
  21584512.540   113427378.54449      2219.645    21584511.620    88384966.58449
      1729.594  
  20613184.040   108323012.92749      1530.309    20613186.160    84407551.37949
      1192.449  
  22416837.320   117801274.28249     -2452.926    22416838.840    91793207.23249
     -1911.375  
  23832954.440   125243018.03147      3725.344    23832954.520    97591965.71043
      2902.863  
  19650211.460   104746682.67208     -1280.023    19650216.980    81469664.44207
      -995.617  
  22530206.260   120225484.20605       853.250           0.000           0.00000
         0.000  
  20175858.880   107813672.68209      2235.602    20175863.340    83855096.00108
      1738.801  
  22384648.260   119658772.33007     -2948.238    22384653.900    93067957.84306
     -2293.078  
  19980543.940   106844948.56909       844.871    19980547.480    83101642.37807
       657.121  
  21033273.980   112513835.01808     -2460.398    21033279.880    87510785.46305
     -1913.648  
  21793259.600   116620131.61407      4211.988    21793263.380    90704564.70707
      3275.992  
 20  5 13  2 46 40.0000000  0 16G27G16G30G 4G21G 7G 8G 9G11R14R 6R15
                                R 5R24R23R17
  20572341.320   108108382.93249      -868.934    20572342.440    84240302.58249
      -677.094  
  22146953.800   116383027.97948     -2886.285    22146952.900    90688070.13245
     -2249.055  
  23847123.660   125317480.77548      3358.895    23847125.560    97649992.10349
      2617.320  
  23846331.980   125313321.09446     -3639.738    23846334.680    97646744.15646
     -2836.164  
  25160994.760   132221919.46846     -1921.977    25160994.420   103030058.33245
     -1497.645  
  21582402.400   113416289.76049      2213.313    21582401.480    88376325.97149
      1724.660  
  20611730.460   108315374.35749      1522.680    20611732.580    84401599.25149
      1186.504  
  22419173.200   117813549.46249     -2459.793    22419174.740    91802772.30349
     -1916.727  
  23829411.320   125224398.54547      3720.141    23829411.100    97577457.04344
      2898.809  
  19651414.220   104753094.35608     -1287.105    19651419.760    81474651.30907
     -1001.066  
  22529410.280   120221235.35906       843.863           0.000           0.00000
         0.000  
  20173768.980   107802504.40909      2229.145    20173773.340    83846409.56908
      1733.777  
  22387408.440   119673527.04707     -2955.938    22387414.100    93079433.72807
     -2299.066  
  19979757.200   106840741.15009       835.512    19979760.660    83098369.94507
       649.844  
  21035576.420   112526151.68008     -2468.652    21035582.380    87520365.08205
     -1920.066  
  21789325.900   116599082.07707      4205.082    21789329.760    90688192.84607
      3270.621  
 20  5 13  2 46 45.0000000  0 16G27G16G30G 4G21G 7G 8G 9G11R14R 6R15
                                R 5R24R23R17
  20573169.200   108112733.55549      -870.395    20573170.360    84243692.67649
      -678.230  
  22149700.180   116397460.29848     -2885.676    22149699.240    90699316.08345
     -2248.582  
  23843927.480   125300684.82248      3360.516    23843929.380    97636904.35249
      2618.582  
  23849794.860   125331519.22146     -3638.699    23849797.400    97660924.49645
     -2835.355  
  25162823.740   132231532.37646     -1921.605    25162823.780   103037548.90245
     -1497.359  
  21580296.980   113405225.78749      2213.227    21580296.100    88367704.69749
      1724.594  
  20610282.720   108307766.54849      1521.566    20610284.860    84395671.09249
      1185.637  
  22421514.300   117825852.04949     -2460.285    22421515.840    91812358.73049
     -1917.109  
  23825871.760   125205797.76847      3721.367    23825871.860    97562962.94243
      2899.766  
  19652622.380   104759534.23508     -1287.727    19652627.900    81479660.10407
     -1001.570  
  22528621.140   120217023.95406       841.285           0.000           0.00000
         0.000  
  20171683.640   107791360.97409      2229.184    20171688.000    83837742.45608
      1733.809  
  22390174.140   119688312.25807     -2956.922    22390179.920    93090933.33506
     -2299.832  
  19978977.700   106836572.60709       832.984    19978981.100    83095127.74707
       647.875  
  21037885.400   112538503.30508     -2470.727    21037891.380    87529971.90205
     -1921.680  
  21785397.140   116578057.66507      4205.500    21785400.840    90671840.52507
      3270.941  
 20  5 13  2 46 50.0000000  0 16G27G16G30G 4G21G 7G 8G 9G11R14R 6R15
                                R 5R24R23R17
  20573997.260   108117084.92749      -871.238    20573998.400    84247083.35749
      -678.887  
  22152444.580   116411882.11048     -2884.227    22152443.680    90710553.85845
     -2247.453  
  23840728.960   125283876.56848      3362.113    23840730.880    97623807.02149
      2619.828  
  23853255.440   125349705.06546     -3636.762    23853257.820    97675095.29045
     -2833.844  
  25164652.000   132241140.11546     -1921.852    25164652.000   103045035.45445
     -1497.688  
  21578190.300   113394155.21949      2213.848    21578189.440    88359078.28349
      1725.074  
  20608834.900   108300158.19249      1520.930    20608837.020    84389742.50949
      1185.141  
  22423854.660   117838150.69249     -2460.172    22423856.220    91821942.08249
     -1917.020  
  23822329.760   125187184.36447      3723.207    23822329.960    97548459.01045
      2901.199  
  19653829.880   104765970.49208     -1287.715    19653835.320    81484666.07407
     -1001.555  
  22527833.280   120212818.13905       839.586           0.000           0.00000
         0.000  
  20169596.980   107780210.43909      2230.008    20169601.340    83829069.82108
      1734.449  
  22392939.740   119703096.01007     -2957.477    22392945.540    93102431.79806
     -2300.262  
  19978199.440   106832411.06509       830.891    19978202.880    83091890.99407
       646.246  
  21040194.860   112550857.72608     -2472.164    21040200.940    87539580.89505
     -1922.793  
  21781466.900   116557026.46207      4206.074    21781470.640    90655482.92907
      3271.391  
 20  5 13  2 46 55.0000000  0 16G27G16G30G 4G21G 7G 8G 9G11R14R 6R15
                                R 5R24R23R17
  20574828.820   108121454.84949      -876.094    20574829.980    84250488.49149
      -682.672  
  22155190.340   116426311.25248     -2887.020    22155189.360    90721797.34345
     -2249.625  
  23837531.500   125267073.84748      3359.395    23837533.420    97610713.99849
      2617.711  
  23856717.220   125367896.44246     -3639.031    23856719.480    97689270.36445
     -2835.613  
  25166482.560   132250760.42446     -1925.367    25166482.400   103052531.78645
     -1500.289  
  21576085.780   113383095.93949      2210.395    21576084.920    88350460.66049
      1722.383  
  20607390.360   108292567.12549      1516.348    20607392.480    84383827.39849
      1181.570  
  22426197.640   117850463.15649     -2464.211    22426199.200    91831536.20449
     -1920.168  
  23818788.780   125168576.11047      3720.887    23818788.680    97533959.09044
      2899.395  
  19655040.000   104772421.24408     -1291.914    19655045.460    81489683.32407
     -1004.824  
  22527049.680   120208636.20005       833.820           0.000           0.00000
         0.000  
  20167512.420   107769070.97709      2226.484    20167516.780    83820405.79408
      1731.707  
  22395708.460   119717896.45107     -2961.961    22395714.240    93113943.24606
     -2303.750  
  19977425.900   106828274.63309       824.379    19977429.300    83088673.77407
       641.184  
  21042508.260   112563233.16608     -2477.457    21042514.420    87549206.23405
     -1926.914  
  21777538.700   116536006.66207      4202.367    21777542.600    90639134.20407
      3268.508  
 20  5 13  2 47  0.0000000  0 16G27G16G30G 4G21G 7G 8G 9G11R14R 6R15
                                R 5R24R23R17
  20575662.860   108125837.70449      -877.672    20575664.020    84253903.70649
      -683.902  
  22157936.460   116440742.08448     -2886.027    22157935.480    90733042.13945
     -2248.855  
  23834334.020   125250271.03148      3360.586    23834335.940    97597620.89749
      2618.637  
  23860178.980   125386087.71746     -3637.895    23860181.100    97703445.38845
     -2834.727  
  25168314.580   132260387.75246     -1925.688    25168314.720   103060033.57145
     -1500.539  
  21573982.340   113372042.32149      2210.574    21573981.500    88341847.45649
      1722.523  
  20605948.020   108284987.58049      1515.008    20605950.120    84377921.26349
      1180.527  
  22428542.180   117862783.82649     -2464.430    22428543.760    91841136.72249
     -1920.340  
  23815247.720   125149967.40547      3722.012    23815247.600    97519458.82443
      2900.273  
  19656251.820   104778880.72908     -1292.461    19656257.240    81494707.36607
     -1005.227  
  22526269.500   120204472.25806       830.977           0.000           0.00000
         0.000  
  20165428.820   107757936.86409      2226.555    20165433.200    83811745.93308
      1731.766  
  22398479.240   119732707.84707     -2963.180    22398484.960    93125463.21606
     -2304.699  
  19976656.000   106824157.62109       821.625    19976659.400    83085471.65507
       639.043  
  21044824.540   112575623.85508     -2479.266    21044830.760    87558843.43605
     -1928.316  
  21773611.700   116514992.49707      4202.668    21773615.600    90622789.85807
      3268.742  
 20  5 13  2 47  5.0000000  0 16G27G16G30G 4G21G 7G 8G 9G11R14R 6R15
                                R 5R24R23R17
  20576499.700   108130235.34849      -881.352    20576500.860    84257330.43949
      -686.770  
  22160683.240   116455176.48448     -2887.578    22160682.220    90744289.72045
     -2250.066  
  23831136.880   125233469.97348      3359.777    23831138.800    97584529.16649
      2618.008  
  23863640.980   125404280.72146     -3639.410    23863643.080    97717621.74644
     -2835.906  
  25170148.280   132270023.97946     -1928.555    25170148.460   103067542.33445
     -1502.773  
  21571880.320   113360996.23449      2208.156    21571879.500    88333240.11949
      1720.641  
  20604508.240   108277421.56149      1511.555    20604510.360    84372025.66649
      1177.836  
  22430888.640   117875114.55149     -2467.406    22430890.240    91850745.07349
     -1922.656  
  23811706.900   125131360.07547      3721.023    23811706.320    97504959.59843
      2899.500  
  19657465.640   104785350.83308     -1295.363    19657471.040    81499739.66707
     -1007.508  
  22525492.780   120200328.15006       826.613           0.000           0.00000
         0.000  
  20163346.560   107746810.05009      2224.301    20163350.980    83803091.74608
      1730.012  
  22401252.360   119747532.07607     -2966.543    22401258.140    93136993.16406
     -2307.316  
  19975890.040   106820061.78309       816.648    19975893.480    83082286.00707
       635.172  
  21047144.040   112588031.74908     -2483.730    21047150.340    87568494.02305
     -1931.789  
  21769686.060   116493985.94407      4200.434    21769690.020    90606451.43607
      3267.004  
 20  5 13  2 47 10.0000000  0 16G27G16G30G 4G21G 7G 8G 9G11R14R 6R15
                                R 5R24R23R17
  20577339.360   108134647.84449      -884.094    20577340.540    84260768.74749
      -688.902  
  22163430.720   116469614.50548     -2888.090    22163429.720    90755540.11745
     -2250.465  
  23827940.060   125216670.79948      3359.648    23827942.040    97571438.90949
      2617.906  
  23867103.400   125422475.51746     -3638.980    23867105.520    97731799.48745
     -2835.574  
  25171983.760   132279669.11346     -1930.211    25171983.680   103075058.00845
     -1503.852  
  21569779.760   113349957.74349      2206.684    21569778.920    88324638.69849
      1719.492  
  20603071.040   108269869.08749      1508.969    20603073.160    84366140.62649
      1175.820  
  22433237.040   117887455.38749     -2469.574    22433238.620    91860361.30349
     -1924.348  
  23808166.360   125112754.24747      3720.824    23808165.580    97490461.56444
      2899.348  
  19658681.460   104791831.70108     -1297.398    19658686.820    81504780.33907
     -1009.117  
  22524719.840   120196203.95705       822.805           0.000           0.00000
         0.000  
  20161265.720   107735690.56009      2222.949    20161270.140    83794443.25408
      1728.957  
  22404027.880   119762369.16307     -2968.906    22404033.680    93148533.11006
     -2309.152  
  19975128.080   106815987.30409       812.598    19975131.520    83079116.96807
       632.020  
  21049466.800   112600456.82608     -2486.953    21049473.120    87578157.96505
     -1934.297  
  21765761.900   116472987.00907      4198.770    21765765.840    90590118.93907
      3265.711  
 20  5 13  2 47 15.0000000  0 16G27G16G30G 4G21G 7G 8G 9G11R14R 6R15
                                R 5R24R23R17
  20578182.660   108139079.42949      -888.379    20578183.860    84264221.93049
      -692.246  
  22166179.700   116484060.39548     -2890.125    22166178.660    90766796.65545
     -2252.051  
  23824744.440   125199877.75348      3357.734    23824746.440    97558353.43049
      2616.418  
  23870566.920   125440676.35847     -3640.855    23870569.220    97745981.95445
     -2837.035  
  25173821.700   132289327.39246     -1933.148    25173821.660   103082583.93946
     -1506.352  
  21567681.440   113338931.12149      2204.055    21567680.620    88316046.52249
      1717.441  
  20601637.220   108262334.37349      1504.988    20601639.340    84360269.42649
      1172.719  
  22435588.140   117899810.56249     -2472.551    22435589.720    91869988.70749
     -1926.668  
  23804626.900   125094154.17547      3719.191    23804626.200    97475968.01044
      2898.070  
  19659900.080   104798327.50608     -1300.797    19659905.420    81509832.63207
     -1011.770  
  22523951.640   120192104.08306       817.066           0.000           0.00000
         0.000  
  20159187.020   107724582.72709      2220.309    20159191.460    83785803.83608
      1726.906  
  22406806.560   119777223.35007     -2972.555    22406812.420    93160086.36106
     -2311.992  
  19974370.920   106811938.55809       807.164    19974374.360    83075967.94607
       627.793  
  21051793.520   112612903.43108     -2491.625    21051799.900    87587838.65405
     -1937.934  
  21761840.020   116452000.17507      4195.996    21761843.900    90573795.84607
      3263.551  
 20  5 13  2 47 20.0000000  0 16G27G16G30G 4G21G 7G 8G 9G11R14R 6R15
                                R 5R24R23R17
  20579029.260   108143528.32649      -891.891    20579030.460    84267688.60349
      -694.980  
  22168929.820   116498512.34148     -2891.086    22168928.800    90778057.90645
     -2252.797  
  23821549.640   125183089.03648      3357.086    23821551.660    97545271.30749
      2615.906  
  23874031.260   125458881.46247     -3642.008    23874033.600    97760167.72145
     -2837.934  
  25175661.680   132298997.06246     -1935.176    25175661.940   103090118.74846
     -1507.934  
  21565585.060   113327914.57249      2201.941    21565584.240    88307462.20549
      1715.797  
  20600206.460   108254815.66549      1501.891    20600208.580    84354410.69749
      1170.305  
  22437941.660   117912178.31149     -2475.078    22437943.220    91879625.91149
     -1928.637  
  23801088.200   125075558.08147      3718.367    23801087.420    97461477.57043
      2897.434  
  19661121.180   104804836.65708     -1303.426    19661126.520    81514895.30007
     -1013.781  
  22523187.380   120188026.77105       812.949           0.000           0.00000
         0.000  
  20157110.240   107713484.76909      2218.387    20157114.620    83777172.08908
      1725.410  
  22409588.220   119792092.94107     -2975.777    22409594.020    93171651.59006
     -2314.496  
  19973618.240   106807913.66909       802.281    19973621.660    83072837.48307
       623.996  
  21054124.020   112625369.83908     -2495.551    21054130.380    87597534.74905
     -1940.988  
  21757919.900   116431023.43407      4194.125    21757923.880    90557480.61207
      3262.098  
 20  5 13  2 47 25.0000000  0 16G27G16G30G 4G21G 7G 8G 9G11R14R 6R15
                                R 5R24R23R17
  20579879.220   108147995.00449      -894.887    20579880.460    84271169.13549
      -697.316  
  22171681.200   116512970.87348     -2892.164    22171680.140    90789324.29645
     -2253.633  
  23818355.720   125166305.17648      3356.531    23818357.780    97532192.98449
      2615.480  
  23877496.400   125477091.22646     -3642.465    23877498.700    97774357.16845
     -2838.289  
  25177504.100   132308678.58546     -1937.441    25177504.200   103097662.80645
     -1509.656  
  21563490.680   113316908.61849      2200.285    21563489.880    88298886.13649
      1714.504  
  20598778.840   108247313.48749      1498.805    20598780.940    84348564.84849
      1167.898  
  22440297.640   117924559.07849     -2477.297    22440299.200    91889273.25949
     -1930.363  
  23797550.340   125056966.44347      3718.086    23797549.820    97446990.58244
      2897.211  
  19662344.840   104811359.50608     -1305.711    19662350.200    81519968.62507
     -1015.535  
  22522427.520   120183972.42406       808.773           0.000           0.00000
         0.000  
  20155035.360   107702397.19109      2216.691    20155039.760    83768548.42208
      1724.094  
  22412372.820   119806978.27807     -2978.168    22412378.560    93183229.06506
     -2316.355  
  19972870.120   106803913.19409       797.730    19972873.520    83069726.00407
       620.453  
  21056458.240   112637856.25108     -2499.094    21056464.580    87607246.40105
     -1943.738  
  21754001.820   116410057.40107      4192.133    21754005.860    90541173.69707
      3260.543  
 20  5 13  2 47 30.0000000  0 16G27G16G30G 4G21G 7G 8G 9G11R14R 6R15
                                R 5R24R23R17
  20580731.920   108152475.98049      -897.539    20580733.160    84274660.80349
      -699.387  
  22174433.160   116527432.49648     -2892.934    22174432.080    90800593.08645
     -2254.238  
  23815162.120   125149522.72948      3355.918    23815164.200    97519115.75749
      2615.000  
  23880961.860   125495302.24247     -3642.105    23880964.060    97788547.53945
     -2838.008  
  25179348.040   132318368.43446     -1938.969    25179348.300   103105213.33045
     -1510.883  
  21561397.680   113305909.79749      2199.020    21561396.860    88290315.62549
      1713.523  
  20597353.700   108239824.34949      1496.449    20597355.780    84342729.16249
      1166.063  
  22442655.440   117936949.39849     -2479.105    22442657.000    91898928.04849
     -1931.773  
  23794012.700   125038375.87547      3718.207    23794012.240    97432504.43944
      2897.309  
  19663570.460   104817892.57208     -1307.707    19663575.800    81525049.89307
     -1017.109  
  22521671.620   120179937.58006       805.000           0.000           0.00000
         0.000  
  20152961.760   107691316.44509      2215.363    20152966.140    83759930.06608
      1723.055  
  22415159.720   119821875.94607     -2980.625    22415165.460    93194816.14106
     -2318.270  
  19972125.920   106799933.61409       793.707    19972129.320    83066630.77507
       617.328  
  21058795.580   112650359.41808     -2502.340    21058801.900    87616971.08205
     -1946.270  
  21750085.200   116389098.66607      4190.996    21750089.200    90524872.46307
      3259.664  
 20  5 13  2 47 35.0000000  0 16G27G16G30G 4G21G 7G 8G 9G11R14R 6R15
                                R 5R24R23R17
  20581588.060   108156975.02149      -901.305    20581589.300    84278166.55149
      -702.320  
  22177186.420   116541900.92048     -2894.191    22177185.280    90811867.17045
     -2255.219  
  23811969.460   125132745.38748      3355.207    23811971.580    97506042.51049
      2614.445  
  23884428.260   125513518.23446     -3642.969    23884430.480    97802741.82945
     -2838.680  
  25181194.160   132328070.33646     -1941.313    25181194.600   103112773.23544
     -1512.715  
  21559306.740   113294921.84649      2196.762    21559305.940    88281753.58749
      1711.762  
  20595931.760   108232351.98649      1492.980    20595933.840    84336906.54349
      1163.363  
  22445015.800   117949353.00849     -2481.824    22445017.340    91908593.18849
     -1933.895  
  23790475.940   125019790.13947      3716.797    23790475.460    97418022.07844
      2896.211  
  19664798.700   104824439.63608     -1310.590    19664804.020    81530142.05507
     -1019.426  
  22520919.840   120175926.10806       800.113           0.000           0.00000
         0.000  
  20150890.180   107680246.36809      2213.199    20150894.520    83751320.01008
      1721.379  
  22417949.580   119836789.61907     -2984.309    22417955.340    93206415.65606
     -2321.133  
  19971386.340   106795978.61909       788.781    19971389.720    83063554.67007
       613.496  
  21061136.760   112662883.03408     -2506.457    21061143.060    87626711.66805
     -1949.469  
  21746170.660   116368150.97907      4188.688    21746174.640    90508579.83007
      3257.867  
 20  5 13  2 47 40.0000000  0 16G27G16G30G 4G21G 7G 8G 9G11R14R 6R15
                                R 5R24R23R17
  20582447.260   108161490.30849      -904.785    20582448.540    84281684.95249
      -705.031  
  22179940.640   116556374.41848     -2895.266    22179939.520    90823145.22445
     -2256.051  
  23808777.460   125115971.38748      3354.250    23808779.600    97492971.86949
      2613.703  
  23887895.300   125531737.36847     -3644.086    23887897.560    97816938.53645
     -2839.551  
  25183042.340   132337782.54847     -1943.301    25183042.780   103120341.16645
     -1514.270  
  21557217.520   113283942.99449      2194.848    21557216.720    88273198.63849
      1710.266  
  20594512.660   108224894.66049      1489.957    20594514.740    84331095.64649
      1161.004  
  22447378.320   117961768.06349     -2484.164    22447379.840    91918267.25349
     -1935.715  
  23786939.760   125001207.37247      3716.223    23786939.360    97403542.01444
      2895.758  
  19666029.180   104830998.78408     -1313.027    19666034.520    81535243.61107
     -1021.246  
  22520172.240   120171936.12306       796.090           0.000           0.00000
         0.000  
  20148820.200   107669185.08709      2211.336    20148824.540    83742716.79108
      1719.926  
  22420742.140   119851717.48207     -2986.879    22420747.880    93218026.20806
     -2323.133  
  19970651.000   106792046.45009       784.203    19970654.380    83060496.32007
       609.938  
  21063481.420   112675425.19708     -2510.371    21063487.680    87636466.68405
     -1952.516  
  21742257.760   116347212.56307      4186.777    21742261.800    90492294.40207
      3256.383  
 20  5 13  2 47 45.0000000  0 16G27G16G30G 4G21G 7G 8G 9G11R14R 6R15
                                R 5R24R23R17
  20583309.760   108166022.72649      -907.551    20583311.060    84285216.70949
      -707.188  
  22182696.000   116570853.85148     -2895.914    22182694.900    90834427.89145
     -2256.559  
  23805586.260   125099201.67648      3354.141    23805588.440    97479904.56549
      2613.617  
  23891363.060   125549960.58346     -3644.438    23891365.400    97831138.43445
     -2839.824  
  25184892.720   132347506.08446     -1945.441    25184893.280   103127917.96045
     -1515.934  
  21555130.220   113272974.19049      2193.293    21555129.440    88264651.52249
      1709.059  
  20593096.620   108217453.23549      1487.297    20593098.680    84325297.13749
      1158.934  
  22449743.200   117974195.51049     -2486.141    22449744.720    91927950.97449
     -1937.258  
  23783404.340   124982628.53047      3716.031    23783403.880    97389064.98844
      2895.609  
  19667262.140   104837571.12508     -1315.258    19667267.480    81540355.42407
     -1022.980  
  22519428.860   120167968.47006       791.719           0.000           0.00000
         0.000  
  20146752.100   107658133.62209      2209.766    20146756.420    83734121.21208
      1718.707  
  22423537.580   119866660.46507     -2989.641    22423543.260    93229648.52006
     -2325.281  
  19969920.100   106788138.12509       779.840    19969923.480    83057456.51607
       606.543  
  21065829.760   112687986.88808     -2513.746    21065835.960    87646236.88305
     -1955.141  
  21738346.800   116326284.33307      4184.922    21738350.840    90476016.89407
      3254.938  
 20  5 13  2 47 50.0000000  0 16G27G16G30G 4G21G 7G 8G 9G11R14R 6R15
                                R 5R24R23R17
  20584175.260   108170571.01249      -910.832    20584176.560    84288760.82849
      -709.742  
  22185452.220   116585337.90648     -2896.953    22185451.140    90845714.15745
     -2257.371  
  23802395.640   125082434.98348      3353.297    23802397.840    97466839.61849
      2612.957  
  23894831.360   125568186.53846     -3644.848    23894833.760    97845340.46145
     -2840.148  
  25186744.960   132357239.49846     -1947.254    25186745.480   103135502.45045
     -1517.340  
  21553044.580   113262014.14749      2191.508    21553043.800    88256111.22649
      1707.664  
  20591683.360   108210026.48349      1484.188    20591685.400    84319510.06249
      1156.508  
  22452110.180   117986634.05349     -2488.453    22452111.700    91937643.33749
     -1939.059  
  23779869.420   124964052.32947      3715.523    23779868.940    97374590.02044
      2895.215  
  19668497.340   104844155.21008     -1317.625    19668502.640    81545476.37407
     -1024.824  
  22518689.300   120164021.89506       787.652           0.000           0.00000
         0.000  
  20144685.560   107647090.68809      2208.000    20144689.880    83725532.26108
      1717.332  
  22426335.520   119881617.17607     -2991.941    22426341.240    93241281.51006
     -2327.070  
  19969193.420   106784252.24009       775.285    19969196.820    83054434.16807
       603.000  
  21068181.460   112700566.76808     -2517.574    21068187.620    87656021.23705
     -1958.117  
  21734437.420   116305364.92007      4183.266    21734441.540    90459746.24707
      3253.652  
 20  5 13  2 47 55.0000000  0 16G27G16G30G 4G21G 7G 8G 9G11R14R 6R15
                                R 5R24R23R17
  20585043.480   108175133.56249      -914.230    20585044.800    84292316.06449
      -712.387  
  22188209.040   116599824.96948     -2898.020    22188208.060    90857002.77845
     -2258.199  
  23799205.280   125065669.66048      3352.512    23799207.500    97453775.73449
      2612.348  
  23898299.920   125586413.65046     -3646.070    23898302.160    97859543.41145
     -2841.094  
  25188598.800   132366981.24146     -1949.488    25188599.260   103143093.41245
     -1519.086  
  21550960.320   113251061.27149      2189.613    21550959.540    88247576.51949
      1706.191  
  20590272.580   108202612.74249      1481.098    20590274.600    84313733.12549
      1154.102  
  22454478.980   117999082.04449     -2490.875    22454480.500    91947343.06249
     -1940.945  
  23776334.720   124945477.23547      3714.531    23776334.400    97360115.95544
      2894.441  
  19669734.380   104850749.43608     -1320.141    19669739.700    81550605.21407
     -1026.781  
  22517953.320   120160094.79406       783.027           0.000           0.00000
         0.000  
  20142620.300   107636054.54609      2206.254    20142624.620    83716948.60308
      1715.977  
  22429135.780   119896586.14407     -2995.594    22429141.480    93252924.03506
     -2329.910  
  19968470.620   106780387.18409       770.523    19968474.040    83051428.01907
       599.344  
  21070536.220   112713163.14908     -2521.180    21070542.400    87665818.41605
     -1960.922  
  21730529.500   116284452.86607      4181.547    21730533.620    90443481.32107
      3252.313  
 20  5 13  2 48  0.0000000  0 16G27G16G30G 4G21G 7G 8G 9G11R14R 6R15
                                R 5R24R23R17
  20585914.800   108179712.34349      -917.355    20585916.120    84295883.94749
      -714.828  
  22190966.780   116614317.03048     -2898.742    22190965.840    90868295.29545
     -2258.762  
  23796015.600   125048907.78948      3351.891    23796017.800    97440714.53849
      2611.863  
  23901769.040   125604643.85747     -3646.387    23901771.200    97873748.75045
     -2841.344  
  25190454.540   132376733.27847     -1951.406    25190454.880   103150692.39445
     -1520.582  
  21548877.780   113240117.57349      2187.801    21548877.040    88239048.96449
      1704.781  
  20588864.660   108195214.05149      1478.242    20588866.680    84307967.91749
      1151.879  
  22456849.960   118011541.49149     -2493.098    22456851.460    91957051.71849
     -1942.676  
  23772800.580   124926905.17547      3714.094    23772800.160    97345644.21844
      2894.098  
  19670973.720   104857355.86908     -1322.480    19670979.060    81555743.54707
     -1028.602  
  22517221.440   120156189.20006       779.539           0.000           0.00000
         0.000  
  20140556.700   107625027.36309      2204.559    20140561.020    83708371.90508
      1714.656  
  22431938.660   119911569.21007     -2997.840    22431944.340    93264577.52306
     -2331.656  
  19967752.100   106776545.03909       766.289    19967755.540    83048439.68607
       596.004  
  21072894.480   112725778.10608     -2524.762    21072900.620    87675630.04705
     -1963.707  
  21726623.280   116263550.18807      4179.766    21726627.440    90427223.69007
      3250.930  
 20  5 13  2 48  5.0000000  0 16G27G16G30G 4G21G 7G 8G 9G11R14R 6R15
                                R 5R24R23R17
  20586789.540   108184309.31149      -921.246    20586790.900    84299465.99649
      -717.859  
  22193725.880   116628816.08848     -2900.578    22193724.920    90879593.26245
     -2260.191  
  23792826.940   125032151.26248      3350.746    23792829.140    97427657.50849
      2610.973  
  23905239.180   125622879.15047     -3647.723    23905241.240    97887958.04845
     -2842.391  
  25192312.660   132386497.54947     -1954.441    25192312.900   103158300.93645
     -1522.941  
  21546797.360   113229184.96849      2185.230    21546796.620    88230530.05249
      1702.777  
  20587460.000   108187832.47949      1474.527    20587462.000    84302216.04749
      1148.980  
  22459223.480   118024014.33149     -2496.105    22459224.980    91966770.80849
     -1945.020  
  23769267.420   124908338.17347      3712.758    23769267.020    97331176.43743
      2893.059  
  19672215.720   104863976.45908     -1325.777    19672221.080    81560892.89107
     -1031.164  
  22516493.920   120152307.15306       773.957           0.000           0.00000
         0.000  
  20138495.140   107614011.09709      2202.078    20138499.480    83699803.69608
      1712.727  
  22434744.540   119926568.48207     -3001.531    22434750.260    93276243.61306
     -2334.527  
  19967038.220   106772727.69509       760.945    19967041.680    83045470.64307
       591.848  
  21075256.520   112738413.45908     -2529.188    21075262.700    87685457.54405
     -1967.148  
  21722719.260   116242658.79907      4177.012    21722723.380    90410974.84007
      3248.785  
 20  5 13  2 48 10.0000000  0 16G27G16G30G 4G21G 7G 8G 9G11R14R 6R15
                                R 5R24R23R17
  20587667.840   108188924.72549      -924.613    20587669.200    84303062.42449
      -720.480  
  22196486.340   116643322.35848     -2901.594    22196485.420    90890896.83945
     -2260.980  
  23789639.320   125015400.38448      3350.125    23789641.540    97414604.88449
      2610.488  
  23908710.260   125641119.74946     -3648.082    23908712.340    97902171.49145
     -2842.668  
  25194173.180   132396274.40847     -1955.891    25194173.380   103165919.23345
     -1524.074  
  21544719.100   113218263.73249      2183.461    21544718.380    88222020.00249
      1701.398  
  20586058.600   108180468.12749      1471.680    20586060.620    84296477.59349
      1146.758  
  22461599.600   118036500.80349     -2498.227    22461601.080    91976500.52449
     -1946.676  
  23765735.260   124889776.51247      3712.543    23765734.820    97316712.81844
      2892.891  
  19673460.420   104870611.53108     -1328.012    19673465.800    81566053.49807
     -1032.902  
  22515770.900   120148449.03606       769.684           0.000           0.00000
         0.000  
  20136435.680   107603006.00709      2200.402    20136440.020    83691244.18808
      1711.426  
  22437553.540   119941584.02607     -3004.258    22437559.180    93287922.36306
     -2336.648  
  19966329.080   106768935.55709       756.422    19966332.540    83042521.20407
       588.324  
  21077622.480   112751069.77108     -2532.844    21077628.660    87695301.33605
     -1969.992  
  21718817.380   116221779.09107      4175.355    21718821.480    90394735.06907
      3247.500  
 20  5 13  2 48 15.0000000  0 16G27G16G30G 4G21G 7G 8G 9G11R14R 6R15
                                R 5R24R23R17
  20588549.200   108193556.40349      -928.359    20588550.580    84306671.52449
      -723.398  
  22199247.740   116657833.66948     -2902.789    22199246.760    90902204.34145
     -2261.918  
  23786452.380   124998652.98848      3348.762    23786454.620    97401554.97249
      2609.426  
  23912181.940   125659363.48747     -3649.543    23912184.060    97916387.39345
     -2843.805  
  25196035.660   132406061.57347     -1958.848    25196035.820   103173545.61545
     -1526.375  
  21542642.620   113207351.72749      2181.141    21542641.900    88213517.13949
      1699.586  
  20584660.060   108173118.79249      1468.047    20584662.080    84290750.84549
      1143.934  
  22463977.880   118048998.73849     -2501.031    22463979.360    91986239.16549
     -1948.859  
  23762203.680   124871218.07947      3711.164    23762203.260    97302251.70344
      2891.816  
  19674707.460   104877258.81708     -1330.926    19674712.840    81571223.61007
     -1035.168  
  22515052.020   120144612.33806       765.160           0.000           0.00000
         0.000  
  20134377.880   107592009.87009      2198.012    20134382.220    83682691.63808
      1709.566  
  22440365.240   119956613.70607     -3007.496    22440370.740    93299612.10406
     -2339.168  
  19965624.200   106765166.36209       751.352    19965627.680    83039589.61207
       584.383  
  21079991.860   112763744.46908     -2536.852    21079998.060    87705159.43205
     -1973.109  
  21714917.300   116200908.84907      4172.832    21714921.360    90378502.66807
      3245.535  
 20  5 13  2 48 20.0000000  0 16G27G16G30G 4G21G 7G 8G 9G11R14R 6R15
                                R 5R24R23R17
  20589433.640   108198204.10949      -931.129    20589435.020    84310293.11549
      -725.555  
  22202010.080   116672349.82148     -2903.570    22202009.140    90913515.62745
     -2262.527  
  23783266.060   124981908.88548      3348.309    23783268.340    97388507.62849
      2609.070  
  23915654.220   125677610.13247     -3649.480    23915656.260    97930605.54745
     -2843.754  
  25197900.020   132415858.73347     -1960.625    25197900.120   103181179.75646
     -1527.762  
  21540567.840   113196448.75149      2179.668    21540567.120    88205021.31549
      1698.441  
  20583264.380   108165784.42849      1465.340    20583266.380    84285035.76049
      1141.824  
  22466358.340   118061507.90849     -2503.066    22466359.780    91995986.56449
     -1950.445  
  23758672.680   124852662.58547      3710.914    23758672.280    97287792.89745
      2891.621  
  19675956.720   104883918.06309     -1333.176    19675962.100    81576403.01707
     -1036.918  
  22514337.000   120140796.86506       760.902           0.000           0.00000
         0.000  
  20132321.760   107581022.51109      2196.531    20132326.080    83674145.91808
      1708.414  
  22443179.420   119971657.35407     -3010.262    22443184.940    93311312.70606
     -2341.320  
  19964923.600   106761419.96309       746.961    19964927.100    83036675.74607
       580.969  
  21082364.680   112776437.44808     -2540.391    21082370.900    87715031.74905
     -1975.863  
  21711018.960   116180047.80108      4171.320    21711022.960    90362277.41407
      3244.359  
 20  5 13  2 48 25.0000000  0 16G27G16G30G 4G21G 7G 8G 9G11R14R 6R15
                                R 5R24R23R17
  20590320.740   108202865.86949      -933.859    20590322.120    84313925.65649
      -727.688  
  22204772.960   116686868.81248     -2904.242    22204771.980    90924829.12044
     -2263.051  
  23780079.980   124965166.03748      3348.598    23780082.260    97375461.26249
      2609.297  
  23919126.640   125695857.63346     -3649.754    23919128.620    97944824.35546
     -2843.969  
  25199765.920   132425664.00947     -1962.047    25199765.940   103188820.21245
     -1528.875  
  21538494.400   113185552.82949      2178.484    21538493.700    88196530.98649
      1697.516  
  20581871.140   108158462.90849      1462.941    20581873.120    84279330.68649
      1139.953  
  22468740.520   118074026.27049     -2504.859    22468741.960    92005741.13149
     -1951.844  
  23755141.840   124834108.07747      3710.473    23755141.500    97273334.84944
      2891.277  
  19677207.860   104890587.31909     -1334.949    19677213.220    81581590.21207
     -1038.297  
  22513625.640   120137000.92806       757.313           0.000           0.00000
         0.000  
  20130266.900   107570041.91409      2195.309    20130271.220    83665605.45608
      1707.461  
  22445995.940   119986712.77307     -3012.355    22446001.340    93323022.47106
     -2342.945  
  19964226.820   106757694.16709       742.883    19964230.360    83033777.91207
       577.797  
  21084740.580   112789146.76608     -2543.672    21084746.760    87724916.76805
     -1978.414  
  21707121.900   116159193.95308      4169.711    21707125.900    90346057.76307
      3243.109  
 20  5 13  2 48 30.0000000  0 16G27G16G30G 4G21G 7G 8G 9G11R14R 6R15
                                R 5R24R23R17
  20591211.140   108207544.97949      -937.539    20591212.540    84317571.71349
      -730.555  
  22207537.000   116701393.93748     -2905.566    22207535.980    90936147.40645
     -2264.082  
  23776894.800   124948427.87148      3347.176    23776897.120    97362418.54349
      2608.188  
  23922599.860   125714109.35947     -3650.617    23922601.900    97959046.48145
     -2844.641  
  25201633.960   132435480.70447     -1964.527    25201634.020   103196469.57945
     -1530.805  
  21536422.940   113174667.30949      2176.215    21536422.240    88188048.76349
      1695.746  
  20580480.980   108151157.60249      1459.563    20580482.980    84273638.24349
      1137.320  
  22471125.080   118086557.16049     -2507.258    22471126.520    92015505.45349
     -1953.711  
  23751611.860   124815557.84947      3709.852    23751611.540    97258880.13244
      2890.789  
  19678461.500   104897270.01909     -1337.793    19678466.880    81586787.86307
     -1040.508  
  22512918.480   120133227.75206       752.555           0.000           0.00000
         0.000  
  20128213.940   107559071.46209      2193.117    20128218.240    83657072.88008
      1705.754  
  22448815.260   120001783.35007     -3015.285    22448820.620    93334744.02006
     -2345.227  
  19963534.560   106753992.46509       737.973    19963538.120    83030898.81007
       573.977  
  21087120.140   112801875.67908     -2547.578    21087126.300    87734817.03205
     -1981.449  
  21703226.760   116138350.78807      4167.375    21703230.840    90329846.41707
      3241.293  
 20  5 13  2 48 35.0000000  0 16G27G16G30G 4G21G 7G 8G 9G11R14R 6R15
                                R 5R24R23R17
  20592104.800   108212241.13149      -941.094    20592106.180    84321231.05049
      -733.324  
  22210302.160   116715924.91448     -2906.934    22210301.120    90947470.22744
     -2265.148  
  23773710.460   124931694.01748      3346.172    23773712.760    97349379.18149
      2607.406  
  23926073.820   125732364.96146     -3651.438    23926075.820    97973271.60345
     -2845.281  
  25203504.120   132445308.44547     -1966.813    25203504.260   103204127.54146
     -1532.590  
  21534353.400   113163791.87749      2173.926    21534352.720    88179574.40449
      1693.969  
  20579093.860   108143868.31949      1456.055    20579095.860    84267958.28949
      1134.590  
  22473511.960   118099100.29349     -2509.918    22473513.400    92025279.31949
     -1955.785  
  23748082.640   124797011.68347      3708.629    23748082.320    97244428.58544
      2889.840  
  19679717.600   104903965.67508     -1340.672    19679722.960    81591995.59307
     -1042.746  
  22512215.620   120129476.91106       747.938           0.000           0.00000
         0.000  
  20126162.760   107548110.74109      2190.891    20126167.080    83648547.88308
      1704.027  
  22451637.300   120016869.01207     -3018.723    22451642.720    93346477.31206
     -2347.898  
  19962846.740   106750314.52408       733.000    19962850.340    83028038.19107
       570.109  
  21089503.280   112814623.81208     -2551.664    21089509.440    87744732.25305
     -1984.629  
  21699333.620   116117517.95908      4165.242    21699337.720    90313643.11407
      3239.633  
 20  5 13  2 48 40.0000000  0 16G27G16G30G 4G21G 7G 8G 9G11R14R 6R15
                                R 5R24R23R17
  20593001.760   108216954.73549      -944.238    20593003.160    84324903.98649
      -735.773  
  22213068.480   116730461.98548     -2907.766    22213067.400    90958797.82245
     -2265.797  
  23770527.000   124914964.88048      3345.523    23770529.300    97336343.49349
      2606.898  
  23929548.600   125750624.84547     -3651.977    23929550.640    97987500.08245
     -2845.699  
  25205376.440   132455147.60947     -1968.520    25205376.520   103211794.42345
     -1533.910  
  21532285.860   113152926.90749      2171.988    21532285.180    88171108.19249
      1692.453  
  20577709.860   108136595.36549      1453.047    20577711.860    84262291.05049
      1132.246  
  22475901.240   118111655.99549     -2512.145    22475902.680    92035062.97449
     -1957.520  
  23744554.220   124778469.89848      3708.098    23744553.940    97229980.44644
      2889.426  
  19680976.260   104910674.93708     -1342.852    19680981.620    81597213.90407
     -1044.445  
  22511516.900   120125748.73006       743.289           0.000           0.00000
         0.000  
  20124113.520   107537160.38209      2189.270    20124117.860    83640030.93708
      1702.762  
  22454462.180   120031969.80907     -3021.949    22454467.620    93358222.35606
     -2350.410  
  19962163.480   106746660.83609       728.613    19962167.080    83025196.43907
       566.695  
  21091890.140   112827391.69508     -2555.359    21091896.260    87754662.80905
     -1987.504  
  21695442.500   116096695.93508      4163.465    21695446.580    90297448.21007
      3238.250  
 20  5 13  2 48 45.0000000  0 16G27G16G30G 4G21G 7G 8G 9G11R14R 6R15
                                R 5R24R23R17
  20593901.700   108221683.84949      -947.344    20593903.080    84328589.01449
      -738.195  
  22215835.620   116745003.35948     -2908.496    22215834.520    90970128.75144
     -2266.363  
  23767344.100   124898238.59348      3344.770    23767346.380    97323310.03049
      2606.313  
  23933023.780   125768887.03747     -3652.516    23933025.860    98001730.33345
     -2846.125  
  25207250.640   132464996.37847     -1970.441    25207250.720   103219468.80545
     -1535.508  
  21530219.960   113142070.51649      2170.551    21530219.280    88162648.66949
      1691.336  
  20576328.600   108129336.85049      1450.320    20576330.620    84256635.07049
      1130.121  
  22478292.540   118124222.39549     -2514.422    22478293.980    92044854.97749
     -1959.293  
  23741026.300   124759930.67448      3707.594    23741026.020    97215534.30444
      2889.031  
  19682237.040   104917395.65209     -1345.137    19682242.400    81602441.11907
     -1046.223  
  22510822.180   120122041.60306       739.820           0.000           0.00000
         0.000  
  20122065.880   107526218.23509      2187.750    20122070.180    83631520.38008
      1701.582  
  22457289.660   120047083.91207     -3023.918    22457295.020    93369977.76106
     -2351.941  
  19961484.320   106743029.31409       724.070    19961487.960    83022371.91907
       563.164  
  21094280.280   112840177.25208     -2558.816    21094286.400    87764607.13805
     -1990.195  
  21691553.040   116075882.73208      4161.652    21691557.120    90281260.17307
      3236.840  
 20  5 13  2 48 50.0000000  0 16G27G16G30G 4G21G 7G 8G 9G11R14R 6R15
                                R 5R24R23R17
  20594804.780   108226429.51649      -950.852    20594806.160    84332286.93549
      -740.926  
  22218603.760   116759550.08848     -2910.004    22218602.660    90981463.85045
     -2267.539  
  23764161.960   124881516.17248      3343.828    23764164.220    97310279.57749
      2605.582  
  23936499.640   125787152.63647     -3653.707    23936501.720    98015963.26744
     -2847.047  
  25209126.840   132474855.69247     -1972.727    25209126.820   103227151.37945
     -1537.195  
  21528155.880   113131223.80049      2168.211    21528155.220    88154196.68249
      1689.512  
  20574950.260   108122093.69049      1446.902    20574952.300    84250991.05649
      1127.457  
  22480686.100   118136800.49349     -2516.977    22480687.520    92054656.08649
     -1961.285  
