     2              OBSERVATION DATA    M                   RINEX VERSION / TYPE
LEICA GEO OFFICE 7.0                    26-9-20 23:44       PGM / RUN BY / DATE
                                                            OBSERVER / AGENCY
HABG                                                        MARKER NAME
HABG                                                        MARKER NUMBER
468588              LEICA GX1220GG      5.60                REC # / TYPE / VERS
                    LEIAX1202GG                             ANT # / TYPE
 -1164126.9432  3810905.6476  4964508.0520                  APPROX POSITION XYZ
        1.6690        0.0000        0.0000                  ANTENNA: DELTA H/E/N
L1PhaOff:   0.0644  L2PhaOff:   0.0640                      COMMENT
     1     1                                                WAVELENGTH FACT L1/2
     6    C1    L1    D1    P2    L2    D2                  # / TYPES OF OBSERV
  2020     9    26     5    29   20.000000                  TIME OF FIRST OBS
  2020     9    26     8    51   20.000000                  TIME OF LAST OBS
    18                                                      LEAP SECONDS
    29                                                      # OF SATELLITES
          C1    L1    D1    P2    L2    D2                  COMMENT
   G 1     0     0     0     0     0     0                  PRN / # OF OBS
   G 2     5     5     5     5     5     5                  PRN / # OF OBS
   G 3     0     0     0     0     0     0                  PRN / # OF OBS
   G 4     0     0     0     0     0     0                  PRN / # OF OBS
   G 5   938   938   938   938   938   938                  PRN / # OF OBS
   G 6     0     0     0     0     0     0                  PRN / # OF OBS
   G 7     0     0     0     0     0     0                  PRN / # OF OBS
   G 8   730   730   730   725   725   725                  PRN / # OF OBS
   G 9     0     0     0     0     0     0                  PRN / # OF OBS
   G10  1825  1825  1825  1825  1825  1825                  PRN / # OF OBS
   G11    43    43    43    42    42    42                  PRN / # OF OBS
   G12     0     0     0     0     0     0                  PRN / # OF OBS
   G13  1885  1885  1885  1885  1885  1885                  PRN / # OF OBS
   G14     0     0     0     0     0     0                  PRN / # OF OBS
   G15  2425  2425  2425  2425  2425  2425                  PRN / # OF OBS
   G16     0     0     0     0     0     0                  PRN / # OF OBS
   G17     0     0     0     0     0     0                  PRN / # OF OBS
   G18  2424  2424  2424  2424  2424  2424                  PRN / # OF OBS
   G19     0     0     0     0     0     0                  PRN / # OF OBS
   G20  2425  2425  2425  2425  2425  2425                  PRN / # OF OBS
   G21   898   898   898   894   894   894                  PRN / # OF OBS
   G22     0     0     0     0     0     0                  PRN / # OF OBS
   G23     0     0     0     0     0     0                  PRN / # OF OBS
   G24  1981  1981  1981  1981  1981  1981                  PRN / # OF OBS
   G25     0     0     0     0     0     0                  PRN / # OF OBS
   G26     0     0     0     0     0     0                  PRN / # OF OBS
   G27  1494  1494  1494  1490  1490  1490                  PRN / # OF OBS
   G28     0     0     0     0     0     0                  PRN / # OF OBS
   G29   684   684   684   684   684   684                  PRN / # OF OBS
   G30   751   751   751   751   751   751                  PRN / # OF OBS
   G31     0     0     0     0     0     0                  PRN / # OF OBS
   G32   687   687   687   686   686   686                  PRN / # OF OBS
   R 1  2408  2408  2408  2405  2405  2405                  PRN / # OF OBS
   R 2   688   688   688   663   663   663                  PRN / # OF OBS
   R 3     0     0     0     0     0     0                  PRN / # OF OBS
   R 4     0     0     0     0     0     0                  PRN / # OF OBS
   R 5     0     0     0     0     0     0                  PRN / # OF OBS
   R 6   249   249   249     0     0     0                  PRN / # OF OBS
   R 7  1606  1606  1606  1606  1606  1606                  PRN / # OF OBS
   R 8  2425  2425  2425  2425  2425  2425                  PRN / # OF OBS
   R 9     0     0     0     0     0     0                  PRN / # OF OBS
   R10  1569  1569  1569     0     0     0                  PRN / # OF OBS
   R11   746   746   746   719   719   719                  PRN / # OF OBS
   R12     0     0     0     0     0     0                  PRN / # OF OBS
   R13     0     0     0     0     0     0                  PRN / # OF OBS
   R14     0     0     0     0     0     0                  PRN / # OF OBS
   R15    46    46    46    46    46    46                  PRN / # OF OBS
   R16  1127  1127  1127  1127  1127  1127                  PRN / # OF OBS
   R17  1381  1381  1381  1380  1380  1380                  PRN / # OF OBS
   R18   316   316   316   315   315   315                  PRN / # OF OBS
   R19     0     0     0     0     0     0                  PRN / # OF OBS
   R20     0     0     0     0     0     0                  PRN / # OF OBS
   R21     0     0     0     0     0     0                  PRN / # OF OBS
   R22   851   851   851   851   851   851                  PRN / # OF OBS
   R23  2015  2015  2015  2015  2015  2015                  PRN / # OF OBS
   R24  2422  2422  2422  2423  2423  2423                  PRN / # OF OBS
                                                            END OF HEADER
 20  9 26  5 29 20.0000000  0 14G30G20G18G15G 5G29G 2G13R 7R 8R 6R22
                                R24R23
  23822658.050   125188912.94757      -300.280    23822660.379    97549811.28655
      -233.972  
  23452769.290   123245131.67248      3179.401    23452769.112    96035170.35244
      2477.460  
  21148954.194   111138502.41349      2104.480    21148954.363    86601432.07547
      1639.852  
  20671232.789   108628062.32949      2100.801    20671232.772    84645244.30448
      1636.987  
  21973650.319   115472311.17349     -2693.000    21973650.200    89978422.69947
     -2098.445  
  22493797.018   118205699.52748     -2971.973    22493797.525    92108339.79147
     -2315.828  
  24742236.506   130021331.09846     -3358.397    24742237.604   101315340.39645
     -2616.938  
  20505263.619   107755887.86049        89.051    20505262.574    83965623.83748
        69.387  
  19459408.670   104167738.84309     -1309.323    19459412.256    81019367.13808
     -1018.362  
  20258083.821   108481128.22508      2292.565    20258087.379    84374218.43008
      1783.104  
  22580323.126   120492930.31815     -3766.516           0.000           0.00000
         0.000  
  20419536.239   109000861.93507     -3128.702    20419541.005    84778473.06604
     -2433.440  
  23229692.906   124219615.70007      4169.258    23229697.145    96615270.47206
      3242.750  
  20163389.739   107860534.63009      2317.227    20163396.105    83891555.25206
      1802.285  
 20  9 26  5 29 25.0000000  0 15G30G20G18G15G 5G29G 2G13R 7R 8R 6R22
                                R15R24R23
  23822944.971   125190420.85146      -304.027    23822947.316    97550986.30844
      -236.898  
  23449744.101   123229234.32347      3178.148    23449744.006    96022782.80044
      2476.479  
  21146952.544   111127983.66949      2102.023    21146952.705    86593235.65147
      1637.940  
  20669234.922   108617563.50049      2097.167    20669234.889    84637063.39948
      1634.155  
  21976212.784   115485777.02248     -2694.766    21976212.709    89988915.55847
     -2099.874  
  22496625.333   118220562.26548     -2974.390    22496625.812    92119921.12447
     -2317.710  
  24745431.844   130038122.12046     -3359.332    24745432.412   101328424.28645
     -2617.667  
  20505180.024   107755448.62549        85.132    20505179.007    83965281.58248
        66.335  
  19460632.661   104174290.96509     -1312.887    19460636.256    81024463.23708
     -1021.137  
  20255944.176   108469670.49508      2289.113    20255947.740    84365306.87808
      1780.421  
  22583852.443   120511763.18304     -3767.656           0.000           0.00000
         0.000  
  20422468.030   109016512.28607     -3132.772    20422472.842    84790645.55904
     -2436.605  
  23547735.270   125831957.72816  -2097152.000    23547744.551    97869339.02816
  -2097152.000  
  23225794.706   124198770.67706      4167.093    23225799.184    96599057.73006
      3241.047  
  20161225.040   107848954.95408      2313.102    20161231.397    83882548.83005
      1799.073  
 20  9 26  5 29 30.0000000  0 15G30G20G18G15G 5G29G 2G13R 7R 8R 6R22
                                R15R24R23
  23823238.021   125191961.02747      -309.914    23823240.350    97552186.42043
      -241.495  
  23446722.638   123213356.49048      3174.875    23446722.639    96010410.49545
      2473.929  
  21144956.126   111117492.42349      2096.698    21144956.287    86585060.65748
      1633.792  
  20667242.994   108607095.81549      2091.780    20667242.964    84628906.76848
      1629.960  
  21978779.584   115499265.70548     -2698.913    21978779.547    89999426.20547
     -2103.055  
  22499458.813   118235452.15048     -2979.522    22499459.244    92131523.61947
     -2321.711  
  24748631.053   130054933.39047     -3363.147    24748631.653   101341523.98644
     -2620.637  
  20505102.927   107755043.45149        79.249    20505101.921    83964965.86348
        61.753  
  19461862.497   104180874.31409     -1318.323    19461866.104    81029583.62008
     -1025.362  
  20253810.158   108458242.92208      2283.804    20253813.701    84356418.77208
      1776.293  
  22587385.325   120530615.50604     -3770.675           0.000           0.00000
         0.000  
  20425406.021   109032195.51107     -3138.543    20425410.812    84802843.60704
     -2441.093  
  23549182.671   125839692.20205  -2097152.000    23549191.960    97875354.76204
  -2097152.000  
  23221900.817   124177948.65007      4163.565    23221905.427    96582862.81606
      3238.328  
  20159066.914   107837410.40409      2306.887    20159073.281    83873569.73905
      1794.246  
 20  9 26  5 29 35.0000000  0 16G30G20G18G15G 5G29G 2G13R 7R 8R 6R22
                                R16R15R24R23
  23823532.290   125193507.54647      -309.613    23823534.523    97553391.51244
      -241.257  
  23443700.001   123197472.48747      3177.188    23443700.140    95998033.36544
      2475.733  
  21142960.025   111107002.77849      2097.901    21142960.166    86576886.90548
      1634.726  
  20665252.053   108596633.47349      2091.522    20665252.040    84620754.30048
      1629.754  
  21981345.797   115512751.27648     -2696.820    21981345.813    90009934.47847
     -2101.418  
  22502292.524   118250343.30848     -2978.253    22502292.939    92143127.12647
     -2320.723  
  24751829.165   130071739.01847     -3360.930    24751829.715   101354619.23644
     -2618.918  
  20505027.355   107754646.41249        78.637    20505026.397    83964656.48248
        61.270  
  19463093.239   104187462.44509     -1318.125    19463096.845    81034707.72508
     -1025.206  
  20251676.871   108446819.14608      2284.273    20251680.356    84347533.62408
      1776.656  
  22590917.143   120549461.36805     -3768.526           0.000           0.00000
         0.000  
  20428345.331   109047885.52707     -3138.812    20428350.045    84815046.96104
     -2441.300  
  22954441.953   122618508.88015      1770.219    22954448.236    95369976.38714
      1376.831  
  23550631.936   125847436.63205  -2097152.000    23550641.223    97881378.20404
  -2097152.000  
  23218006.546   124157123.10407      4165.284    23218011.002    96566665.18905
      3239.671  
  20156910.425   107825874.73109      2306.121    20156916.811    83864597.55705
      1793.648  
 20  9 26  5 29 40.0000000  0 15G30G20G18G15G 5G29G 2G13R 7R 8R 6R22
                                R15R24R23
  23823829.202   125195068.07745      -314.636    23823831.293    97554607.54844
      -245.176  
  23440677.580   123181589.78047      3175.590    23440677.811    95985657.21444
      2474.479  
  21140965.643   111096522.41849      2094.249    21140965.839    86568720.40647
      1631.883  
  20663263.587   108586184.01649      2087.781    20663263.578    84612611.87748
      1626.844  
  21983912.866   115526241.35049     -2699.300    21983912.878    90020446.18147
     -2103.359  
  22505127.917   118265243.33448     -2981.777    22505128.326    92154737.53047
     -2323.464  
  24755027.561   130088546.67046     -3362.324    24755027.621   101367716.12744
     -2619.996  
  20504954.763   107754265.02849        73.815    20504953.860    83964359.29748
        57.516  
  19464326.305   104194063.11109     -1322.316    19464329.898    81039841.57708
     -1028.515  
  20249545.727   108435406.80808      2280.566    20249549.153    84338657.36308
      1773.770  
  22594449.069   120568308.09004     -3769.898           0.000           0.00000
         0.000  
  20431287.320   109063589.81507     -3143.039    20431292.000    84827261.39404
     -2444.590  
  23552084.621   125855199.34106  -2097152.000    23552093.900    97887415.83104
  -2097152.000  
  23214112.732   124136301.91506      4163.280    23214117.312    96550470.93106
      3238.190  
  20154757.069   107814355.79209      2301.332    20154763.459    83855638.38106
      1789.922  
 20  9 26  5 29 45.0000000  0 15G30G20G18G15G 5G29G13R 7R 8R 6R22R16
                                R15R24R23
  23824128.372   125196640.10347      -316.187    23824130.263    97555832.46644
      -246.378  
  23437654.978   123165705.86748      3176.194    23437655.035    95973280.20244
      2474.961  
  21138972.567   111086048.76648      2093.499    21138972.782    86560559.11047
      1631.293  
  20661277.099   108575744.94949      2086.020    20661277.122    84604477.54948
      1625.469  
  21986480.303   115539733.38149     -2699.230    21986480.303    90030959.45047
     -2103.300  
  22507964.541   118280149.70948     -2982.656    22507964.942    92166352.87247
     -2324.151  
  20504884.707   107753896.82349        71.801    20504883.785    83964072.38247
        55.944  
  19465561.245   104200673.65609     -1323.847    19465564.777    81044983.09708
     -1029.663  
  20247416.267   108424003.49108      2279.070    20247419.651    84329788.12708
      1772.609  
  22597980.700   120587153.42705     -3769.719           0.000           0.00000
         0.000  
  20434231.536   109079305.92707     -3145.027    20434236.133    84839485.03004
     -2446.137  
  22951135.713   122600846.87815      1762.542    22951141.874    95356241.09614
      1370.883  
  23553543.733   125862996.39217  -2097152.000    23553548.968    97893463.39916
  -2097152.000  
  23210219.555   124115473.38116      4163.078    23210224.090    96534276.02314
      3237.948  
  20152606.359   107802850.91209      2298.844    20152612.760    83846690.15005
      1787.961  
 20  9 26  5 29 50.0000000  0 15G30G20G18G15G 5G29G13R 7R 8R 6R22R16
                                R15R24R23
  23824431.663   125198233.87447      -321.456    23824433.607    97557074.35844
      -250.487  
  23434634.149   123149831.30447      3173.582    23434634.223    95960910.38844
      2472.917  
  21136982.757   111075592.30549      2088.976    21136983.014    86552411.21547
      1627.769  
  20659294.534   108565326.65449      2081.566    20659294.587    84596359.39848
      1621.995  
  21989050.100   115553237.78849     -2702.366    21989050.071    90041482.37847
     -2105.785  
  22510804.313   118295072.71848     -2986.276    22510804.708    92177981.17747
     -2326.973  
  20504819.122   107753552.17149        66.543    20504818.218    83963803.83648
        51.852  
  19466799.984   104207304.65809     -1328.437    19466803.499    81050140.55608
     -1033.230  
  20245290.401   108412619.54208      2274.684    20245293.756    84320933.94008
      1769.195  
  22601513.978   120606007.67206     -3771.507           0.000           0.00000
         0.000  
  20437179.839   109095044.32607     -3149.663    20437184.398    84851726.01004
     -2449.741  
  22949488.260   122592048.95005      1757.129    22949494.799    95349398.28504
      1366.660  
  23555004.140   125870800.36606  -2097152.000    23555009.372    97899533.14106
  -2097152.000  
  23206328.430   124094666.25306      4159.944    23206333.038    96518092.64506
      3235.511  
  20150460.268   107791370.83508      2293.534    20150466.657    83837761.19306
      1783.854  
 20  9 26  5 29 55.0000000  0 15G30G20G18G15G 5G29G13R 7R 8R 6R22R16
                                R15R24R23
  23824738.339   125199845.40747      -323.507    23824740.383    97558330.11945
      -252.086  
  23431614.276   123133961.92047      3174.047    23431614.397    95948544.67244
      2473.288  
  21134995.436   111065148.86149      2087.870    21134995.694    86544273.47247
      1626.913  
  20657315.171   108554925.12849      2079.362    20657315.245    84588254.32748
      1620.281  
  21991621.477   115566750.53148     -2702.746    21991621.468    90052011.78747
     -2106.038  
  22513646.485   118310008.42948     -2987.750    22513646.881    92189619.39847
     -2328.121  
  20504757.250   107753227.09349        63.758    20504756.350    83963550.52648
        49.679  
  19468041.785   104213952.12009     -1330.511    19468045.255    81055310.80008
     -1034.847  
  20243167.446   108401251.09208      2272.738    20243170.741    84312091.81708
      1767.683  
  22605048.225   120624866.71905     -3771.570           0.000           0.00000
         0.000  
  20440131.636   109110801.15507     -3152.965    20440136.159    84863981.31504
     -2452.308  
  22947845.312   122583272.36605      1753.453    22947851.568    95342572.04404
      1363.797  
  23556468.650   125878626.26506  -2097152.000    23556473.888    97905619.97706
  -2097152.000  
  23202438.875   124073867.42807      4159.476    23202443.612    96501915.77405
      3235.140  
  20148318.042   107779911.30909      2290.297    20148324.441    83828848.22506
      1781.339  
 20  9 26  5 30  0.0000000  0 15G30G20G18G15G 5G29G13R 7R 8R 6R22R16
                                R15R24R23
  23825048.241   125201473.92047      -328.238    23825050.432    97559599.09045
      -255.770  
  23428595.245   123118096.83747      3172.042    23428595.339    95936182.26045
      2471.718  
  21133010.447   111054717.73949      2084.184    21133010.713    86536145.33747
      1624.039  
  20655338.828   108544539.52949      2074.894    20655338.956    84580161.65748
      1616.801  
  21994194.269   115580270.76549     -2705.597    21994194.271    90062547.01547
     -2108.214  
  22516490.884   118324955.91048     -2991.371    22516491.284    92201266.78547
     -2330.940  
  20504698.936   107752920.71449        58.601    20504698.047    83963311.78747
        45.660  
  19469286.520   104220615.15909     -1335.116    19469289.982    81060493.16308
     -1038.429  
  20241047.167   108389897.21708      2268.313    20241050.465    84303261.03508
      1764.242  
  22608583.158   120643730.10705     -3774.652           0.000           0.00000
         0.000  
  20443086.708   109126575.28407     -3157.339    20443091.145    84876250.07104
     -2455.710  
  22946206.070   122574515.92204      1747.499    22946212.265    95335761.49204
      1359.171  
  23557937.089   125886473.15406  -2097152.000    23557942.333    97911723.13806
  -2097152.000  
  23198550.698   124053075.91007      4157.026    23198555.510    96485744.60206
      3233.242  
  20146179.545   107768471.66609      2285.230    20146185.913    83819950.72706
      1777.401  
 20  9 26  5 30  5.0000000  0 15G30G20G18G15G 5G29G13R 7R 8R 6R22R16
                                R15R24R23
  23825361.407   125203119.46547      -330.281    23825363.580    97560881.35045
      -257.363  
  23425577.055   123102236.26747      3172.456    23425577.092    95923823.38645
      2472.042  
  21131027.829   111044298.97849      2083.258    21131028.072    86528026.82047
      1623.313  
  20653365.544   108534169.94849      2072.917    20653365.677    84572081.47448
      1615.262  
  21996768.536   115593798.60249     -2705.769    21996768.525    90073088.18747
     -2108.398  
  22519337.558   118339915.25048     -2992.343    22519337.950    92212923.40647
     -2331.698  
  20504644.207   107752633.14049        56.227    20504643.324    83963087.70447
        43.813  
  19470534.150   104227293.78509     -1336.629    19470537.613    81065687.65208
     -1039.601  
  20238929.622   108378557.95608      2267.120    20238932.909    84294441.61308
      1763.315  
  22612118.872   120662597.41805     -3773.206           0.000           0.00000
         0.000  
  20446044.967   109142366.85507     -3159.258    20446049.445    84888532.40104
     -2457.202  
  22944570.792   122565779.87705      1746.156    22944576.643    95328966.79804
      1358.120  
  23559409.458   125894341.05107  -2097152.000    23559414.696    97917842.58706
  -2097152.000  
  23194663.991   124032291.97707      4156.851    23194668.759    96469579.32906
      3233.070  
  20144044.721   107757051.86309      2282.577    20144051.073    83811068.66206
      1775.340  
 20  9 26  5 30 10.0000000  0 15G30G20G18G15G 5G29G13R 7R 8R 6R22R16
                                R15R24R23
  23825676.872   125204777.11947      -333.019    23825679.125    97562173.01545
      -259.500  
  23422558.782   123086375.19348      3172.141    23422558.798    95911464.10445
      2471.792  
  21129046.613   111033887.64849      2081.453    21129046.841    86519914.10147
      1621.910  
  20651394.364   108523811.39049      2070.690    20651394.494    84564009.87248
      1613.526  
  21999343.297   115607328.96849     -2706.444    21999343.228    90083631.32047
     -2108.922  
  22522185.540   118354881.49948     -2994.168    22522185.912    92224585.39747
     -2333.120  
  20504592.097   107752359.39749        53.242    20504591.248    83962874.40248
        41.487  
  19471783.750   104233982.96509     -1339.019    19471787.208    81070890.34608
     -1041.464  
  20236813.864   108367228.32408      2264.819    20236817.150    84285629.67808
      1761.527  
  22615654.545   120681463.85705     -3773.640           0.000           0.00000
         0.000  
  20449005.562   109158170.80507     -3161.781    20449010.018    84900824.35404
     -2459.167  
  22942938.322   122557059.23205      1741.831    22942943.876    95322184.06104
      1354.753  
  23560884.825   125902224.96207  -2097152.000    23560890.065    97923974.53006
  -2097152.000  
  23190777.750   124011510.49907      4156.082    23190782.503    96453415.95906
      3232.508  
  20141912.664   107745646.85808      2279.538    20141918.996    83802198.10005
      1772.972  
 20  9 26  5 30 15.0000000  0 15G30G20G18G15G 5G29G13R 7R 8R 6R22R16
                                R15R24R23
  23825995.095   125206449.42147      -335.832    23825997.379    97563476.11946
      -261.688  
  23419540.924   123070516.24448      3171.343    23419540.873    95899106.48545
      2471.172  
  21127067.320   111023486.36349      2079.386    21127067.525    86511809.19748
      1620.297  
  20649425.783   108513466.52049      2067.335    20649425.947    84555948.93948
      1610.910  
  22001919.053   115620864.56049     -2707.862    22001918.959    90094178.54347
     -2110.022  
  22525035.313   118369857.22148     -2996.219    22525035.702    92236254.78147
     -2334.719  
  20504543.125   107752102.07749        49.772    20504542.306    83962673.89748
        38.784  
  19473035.774   104240685.27009     -1341.750    19473039.247    81076103.24908
     -1043.586  
  20234700.438   108355911.05308      2262.237    20234703.709    84276827.36307
      1759.519  
  22619190.507   120700331.89405     -3773.664           0.000           0.00000
         0.000  
  20451968.982   109173989.74607     -3165.315    20451973.424    84913127.97704
     -2461.917  
  22941309.303   122548356.80405      1738.417    22941314.836    95315415.49804
      1352.097  
  23562363.677   125910127.50306  -2097152.000    23562368.916    97930120.94306
  -2097152.000  
  23186892.504   123990734.24607      4154.804    23186897.207    96437256.64205
      3231.511  
  20139783.890   107734259.35108      2275.633    20139790.231    83793341.15306
      1769.938  
 20  9 26  5 30 20.0000000  0 15G30G20G18G15G 5G29G13R 7R 8R 6R22R16
                                R15R24R23
  23826316.276   125208137.39647      -339.547    23826318.571    97564791.41045
      -264.585  
  23416523.578   123054660.17247      3170.570    23416523.622    95886751.12944
      2470.577  
  21125090.110   111013096.05749      2076.687    21125090.300    86503712.85448
      1618.194  
  20647459.995   108503136.26649      2064.195    20647460.158    84547899.39148
      1608.464  
  22004495.984   115634406.26949     -2709.222    22004495.847    90104730.53147
     -2111.081  
  22527887.056   118384843.41748     -2998.421    22527887.480    92247932.33347
     -2336.438  
  20504497.454   107751862.13549        46.069    20504496.646    83962486.92848
        35.897  
  19474290.454   104247401.79409     -1345.030    19474293.935    81081327.21208
     -1046.137  
  20232589.506   108344606.92308      2259.144    20232592.754    84268035.28108
      1757.113  
  22622726.891   120719202.74605     -3774.940           0.000           0.00000
         0.000  
  20454935.407   109189824.75607     -3169.020    20454939.832    84925444.09404
     -2464.796  
  22939683.991   122539673.33605      1734.137    22939689.294    95308661.68204
      1348.770  
  23563846.195   125918049.62507  -2097152.000    23563851.435    97936282.59806
  -2097152.000  
  23183008.358   123969964.12907      4152.710    23183013.021    96421102.12906
      3229.890  
  20137658.562   107722890.34308      2271.559    20137664.924    83784498.60006
      1766.766  
 20  9 26  5 30 25.0000000  0 15G30G20G18G15G 5G29G13R 7R 8R 6R22R16
                                R15R24R23
  23826640.600   125209841.54247      -342.046    23826643.030    97566119.32645
      -266.530  
  23413506.989   123038807.85747      3170.242    23413507.106    95874398.68845
      2470.320  
  21123115.091   111002717.38749      2074.988    21123115.266    86495625.57747
      1616.875  
  20645497.091   108492821.26249      2061.718    20645497.251    84539861.74248
      1606.535  
  22007074.193   115647954.78549     -2710.102    22007074.025    90115287.79947
     -2111.676  
  22530740.927   118399840.64248     -3000.246    22530741.334    92259618.48547
     -2337.854  
  20504455.205   107751640.18049        42.848    20504454.425    83962313.97748
        33.386  
  19475547.905   104254132.96809     -1347.390    19475551.376    81086562.57508
     -1047.969  
  20230481.133   108333316.77508      2256.964    20230484.368    84259254.05208
      1755.417  
  22626263.902   120738076.85105     -3774.804           0.000           0.00000
         0.000  
  20457904.894   109205676.35707     -3171.641    20457909.322    84937773.10104
     -2466.835  
  22938062.076   122531009.67305      1730.906    22938067.568    95301923.28704
      1346.261  
  23565332.500   125925991.99206  -2097152.000    23565337.736    97942459.97706
  -2097152.000  
  23179125.398   123949200.72906      4152.238    23179130.162    96404952.79306
      3229.512  
  20135536.832   107711540.55009      2268.167    20135543.200    83775670.98206
      1764.128  
 20  9 26  5 30 30.0000000  0 15G30G20G18G15G 5G29G13R 7R 8R 6R22R16
                                R15R24R23
  23826967.558   125211559.75347      -344.348    23826970.056    97567458.19344
      -268.323  
  23410490.664   123022956.99447      3170.566    23410490.844    95862047.38244
      2470.569  
  21121141.853   110992348.04549      2073.343    21121142.033    86487545.57747
      1615.594  
  20643536.669   108482519.26649      2059.336    20643536.839    84531834.21448
      1604.675  
  22009653.275   115661507.76748     -2710.597    22009653.079    90125848.56347
     -2112.155  
  22533596.454   118414846.53848     -3001.637    22533596.896    92271311.37746
     -2338.940  
  20504415.949   107751433.94849        39.984    20504415.212    83962153.28348
        31.156  
  19476807.660   104260876.69009     -1349.609    19476811.174    81091807.68608
     -1049.698  
  20228374.888   108322038.02208      2254.983    20228378.151    84250481.70108
      1753.875  
  22629801.006   120756951.80105     -3774.503           0.000           0.00000
         0.000  
  20460877.023   109221542.22207     -3174.069    20460881.524    84950113.21304
     -2468.726  
  22936443.188   122522363.17405      1728.160    22936448.855    95295198.25504
      1344.129  
  23566822.167   125933952.32206  -2097152.000    23566827.410    97948651.37205
  -2097152.000  
  23175243.376   123928441.97007      4151.781    23175248.219    96388807.11206
      3229.160  
  20133418.229   107700207.51609      2265.301    20133424.594    83766856.40106
      1761.898  
 20  9 26  5 30 35.0000000  0 15G30G20G18G15G 5G29G13R 7R 8R 6R22R16
                                R15R24R23
  23827297.360   125213293.12147      -348.901    23827299.954    97568808.85245
      -271.875  
  23407474.806   123007108.74147      3168.585    23407474.992    95849698.09544
      2469.026  
  21119170.630   110981989.32049      2070.218    21119170.804    86479473.84948
      1613.155  
  20641578.961   108472231.47649      2055.531    20641579.133    84523817.76548
      1601.711  
  22012233.413   115675066.39249     -2712.797    22012233.161    90136413.72647
     -2113.948  
  22536453.888   118429862.48648     -3004.836    22536454.386    92283012.09947
     -2341.434  
  20504379.900   107751244.57349        35.718    20504379.174    83962005.71248
        27.827  
  19478069.995   104267634.06909     -1353.527    19478073.524    81097063.42508
     -1052.746  
  20226271.048   108310772.11408      2251.656    20226274.323    84241719.33208
      1751.289  
  22633338.605   120775828.95105     -3775.770           0.000           0.00000
         0.000  
  20463852.132   109237423.55507     -3178.492    20463856.647    84962465.35604
     -2472.164  
  22934828.261   122513735.49205      1723.238    22934833.787    95288487.86304
      1340.296  
  23568315.405   125941931.73206  -2097152.000    23568320.643    97954857.56106
  -2097152.000  
  23171362.444   123907688.88207      4149.543    23171367.275    96372665.83406
      3227.526  
  20131302.985   107688892.57409      2260.395    20131309.361    83758055.88406
      1758.081  
 20  9 26  5 30 40.0000000  0 15G30G20G18G15G 5G29G13R 7R 8R 6R22R16
                                R15R24R23
  23827630.371   125215043.23347      -351.445    23827633.072    97570172.60145
      -273.852  
  23404459.814   122991264.75647      3168.874    23404459.814    95837352.16443
      2469.261  
  21117201.716   110971642.79449      2068.414    21117201.902    86471411.62148
      1611.749  
  20639624.264   108461959.47349      2053.328    20639624.437    84515813.61048
      1599.995  
  22014814.942   115688632.29049     -2713.340    22014814.605    90146984.55647
     -2114.378  
  22539313.532   118444889.92348     -3006.168    22539314.023    92294721.77647
     -2342.472  
  20504347.397   107751073.76949        32.770    20504346.664    83961872.61848
        25.531  
  19479335.176   104274406.71009     -1355.487    19479338.746    81102331.03008
     -1054.270  
  20224169.926   108299520.70308      2249.516    20224173.181    84232968.24408
      1749.625  
  22636876.993   120794709.87305     -3775.895           0.000           0.00000
         0.000  
  20466830.479   109253322.01807     -3180.828    20466834.950    84974830.82704
     -2473.980  
  22933216.959   122505127.98605      1720.281    22933222.450    95281793.12904
      1337.995  
  23569812.517   125949931.84407  -2097152.000    23569817.750    97961079.84806
  -2097152.000  
  23167482.936   123886943.09508      4148.843    23167487.755    96356530.23006
      3226.878  
  20129191.436   107677597.36708      2257.425    20129197.818    83749270.72406
      1755.777  
 20  9 26  5 30 45.0000000  0 16G30G20G18G15G 5G29G13R 7R 8R 1R 6R22
                                R16R15R24R23
  23827966.187   125216807.98647      -354.710    23827968.879    97571547.76944
      -276.397  
  23401445.143   122975422.86547      3167.773    23401445.104    95825007.83843
      2468.397  
  21115234.711   110961306.30049      2065.824    21115234.912    86463357.21948
      1609.734  
  20637672.174   108451701.19949      2049.968    20637672.331    84507820.15548
      1597.379  
  22017397.430   115702203.38948     -2715.097    22017397.023    90157559.44047
     -2115.663  
  22542174.931   118459926.70748     -3008.726    22542175.459    92306438.75147
     -2344.464  
  20504318.001   107750919.35349        28.819    20504317.256    83961752.29248
        22.453  
  19480602.825   104281192.47509     -1358.691    19480606.377    81107608.84708
     -1056.766  
  20222071.053   108288281.46008      2246.120    20222074.342    84224226.62108
      1746.983  
  23587586.503   126089167.44616      3846.656           0.000           0.00000
         0.000  
  22640415.563   120813592.36205     -3777.104           0.000           0.00000
         0.000  
  20469811.618   109269235.32107     -3184.483    20469816.053    84987207.83304
     -2476.824  
  22931608.905   122496538.61705      1716.109    22931614.565    95275112.52104
      1334.750  
  23571313.105   125957950.53206  -2097152.000    23571318.350    97967316.65506
  -2097152.000  
  23163604.425   123866202.64107      4147.011    23163609.222    96340398.75906
      3225.453  
  20127083.154   107666319.69908      2253.296    20127089.571    83740499.21106
      1752.562  
 20  9 26  5 30 50.0000000  0 16G30G20G18G15G 5G29G13R 7R 8R 1R 6R22
                                R16R15R24R23
  23828305.197   125218589.24547      -357.640    23828307.842    97572935.73745
      -278.680  
  23398431.276   122959584.98247      3167.327    23398431.196    95812666.63744
      2468.043  
  21113269.984   110950981.71749      2064.015    21113270.194    86455312.08948
      1608.323  
  20635723.029   108441458.43649      2047.211    20635723.184    84499838.78748
      1595.229  
  22019981.223   115715781.44048     -2716.194    22019980.792    90168139.72847
     -2116.519  
  22545038.502   118474974.65848     -3010.257    22545039.033    92318164.42247
     -2345.660  
  20504292.062   107750783.13649        25.723    20504291.311    83961646.14848
        20.042  
  19481873.254   104287993.08309     -1361.444    19481876.793    81112898.20208
     -1058.905  
  20219974.860   108277056.41008      2243.772    20219978.131    84215496.03808
      1745.156  
  23583989.246   126069936.38905      3845.652           0.000           0.00000
         0.000  
  22643954.773   120832478.41805     -3777.617           0.000           0.00000
         0.000  
  20472795.868   109285165.38807     -3187.343    20472800.320    84999597.87704
     -2479.051  
  22930004.540   122487969.19705      1712.277    22930010.297    95268447.43804
      1331.772  
  23572817.507   125965989.59905  -2097152.000    23572822.752    97973569.26406
  -2097152.000  
  23159727.118   123845469.25407      4146.632    23159732.021    96324272.80106
      3225.155  
  20124978.494   107655061.40409      2249.996    20124984.930    83731742.76306
      1749.991  
 20  9 26  5 30 55.0000000  0 16G30G20G18G15G 5G29G13R 7R 8R 1R 6R22
                                R16R15R24R23
  23828646.859   125220384.47347      -360.526    23828649.394    97574334.61545
      -280.933  
  23395417.667   122943748.54747      3167.058    23395417.504    95800326.57244
      2467.839  
  21111307.051   110940666.53049      2062.012    21111307.256    86447274.28148
      1606.762  
  20633776.369   108431228.70249      2044.555    20633776.515    84491867.56848
      1593.159  
  22022565.866   115729363.86248     -2716.898    22022565.402    90178723.43147
     -2117.125  
  22547903.701   118490031.31448     -3012.093    22547904.280    92329896.87747
     -2347.089  
  20504269.129   107750662.68949        22.464    20504268.384    83961552.29448
        17.500  
  19483145.975   104294806.06109     -1363.937    19483149.533    81118197.19608
     -1060.839  
  20217880.808   108265842.91908      2241.453    20217884.085    84206774.44208
      1743.351  
  23580390.888   126050708.04204      3845.272           0.000           0.00000
         0.000  
  22647494.129   120851365.25905     -3777.496           0.000           0.00000
         0.000  
  20475782.816   109301109.67307     -3190.410    20475787.159    85011998.97804
     -2481.434  
  22928403.594   122479417.29305      1708.651    22928409.287    95261795.95904
      1328.953  
  23574325.264   125974046.59706  -2097152.000    23574330.510    97979835.82306
  -2097152.000  
  23155850.624   123824740.49207      4144.984    23155855.637    96308150.42606
      3223.875  
  20122877.006   107643820.07909      2246.523    20122883.475    83722999.50506
      1747.293  
 20  9 26  5 31  0.0000000  0 15G30G20G18G15G 5G29G13R 7R 8R 1R 6R22
                                R16R15R23
  23828991.416   125222195.13147      -363.624    23828993.959    97575745.52045
      -283.347  
  23392404.567   122927914.97747      3166.292    23392404.460    95787988.72344
      2467.242  
  21109346.204   110930362.23948      2059.940    21109346.409    86439244.97148
      1605.148  
  20631832.469   108421013.43749      2041.934    20631832.594    84483907.62948
      1591.117  
  22025151.658   115742952.22649     -2718.155    22025151.182    90189311.76747
     -2118.108  
  22550770.824   118505098.05548     -3014.289    22550771.420    92341637.18047
     -2348.800  
  20504249.461   107750559.39149        19.066    20504248.728    83961471.80848
        14.855  
  19484421.331   104301633.08109     -1366.617    19484424.891    81123507.09708
     -1062.930  
  20215789.139   108254642.49808      2238.937    20215792.476    84198062.99808
      1741.390  
  23576794.034   126031483.79706      3844.737    23576803.369    98024512.87014
      2990.352  
  22651034.011   120870254.68305     -3777.844           0.000           0.00000
         0.000  
  20478772.651   109317069.64407     -3193.402    20478776.932    85024412.28804
     -2483.761  
  22926806.153   122470884.29805      1704.812    22926811.736    95255159.16003
      1325.960  
  23575836.613   125982122.78304  -2097152.000    23575841.856    97986117.29104
  -2097152.000  
  20120779.011   107632597.15809      2242.960    20120785.460    83714270.56506
      1744.520  
 20  9 26  5 31  5.0000000  0 15G30G20G18G15G 5G29G13R 7R 8R 1R 6R22
                                R16R15R23
  23829338.782   125224020.74246      -366.999    23829341.342    97577168.08945
      -285.972  
  23389391.997   122912083.87447      3165.776    23389392.101    95775652.86944
      2466.844  
  21107387.331   110920068.35349      2057.503    21107387.556    86431223.76448
      1603.246  
  20629891.221   108410812.17449      2038.526    20629891.360    84475958.59948
      1588.461  
  22027738.457   115756545.97948     -2719.438    22027738.011    90199904.30547
     -2119.047  
  22553639.770   118520174.43548     -3016.480    22553640.376    92353385.01247
     -2350.507  
  20504232.975   107750472.75649        15.284    20504232.233    83961404.29448
        11.905  
  19485699.210   104308473.50809     -1369.594    19485702.754    81128827.42408
     -1065.242  
  20213699.888   108243454.65808      2236.133    20213703.238    84189361.36308
      1739.214  
  23573198.154   126012263.19505      3843.414    23573208.125    98009563.50604
      2989.320  
  22654574.092   120889145.79605     -3778.819           0.000           0.00000
         0.000  
  20481765.340   109333044.79107     -3196.973    20481769.635    85036837.39204
     -2486.538  
  22925212.209   122462369.86305      1699.965    22925217.713    95248536.83004
      1322.194  
  23577351.537   125990218.08006  -2097152.000    23577356.788    97992413.66305
  -2097152.000  
  20118684.332   107621392.19209      2239.015    20118690.818    83705555.59306
      1741.457  
 20  9 26  5 31 10.0000000  0 16G30G20G18G15G 5G29G13R 7R 8R 1R 6R22
                                R16R15R24R23
  23829689.598   125225864.48047      -370.207    23829692.296    97578604.78045
      -288.476  
  23386380.455   122896258.36847      3165.308    23386380.519    95763321.25544
      2466.464  
  21105431.039   110909788.00249      2055.086    21105431.264    86423213.10447
      1601.363  
  20627953.259   108400628.11249      2035.402    20627953.384    84468022.97448
      1586.026  
  22030326.913   115770148.34348     -2721.004    22030326.497    90210503.53647
     -2120.266  
  22556511.128   118535263.55648     -3018.707    22556511.751    92365142.75047
     -2352.242  
  20504220.268   107750405.94949        11.960    20504219.515    83961352.24848
         9.319  
  19486980.105   104315330.27209     -1372.723    19486983.640    81134160.46108
     -1067.675  
  20211613.568   108232282.54008      2233.249    20211616.926    84180671.94508
      1736.973  
  23569603.573   125993049.62705      3842.464    23569613.769    97994619.65004
      2988.581  
  22658115.231   120908042.08505     -3779.257           0.000           0.00000
         0.000  
  20484761.466   109349038.31507     -3200.081    20484765.741    85049276.77804
     -2488.957  
  22923622.322   122453877.09405      1696.374    22923627.726    95241931.33304
      1319.397  
  23578870.533   125998335.13706  -2097152.000    23578875.776    97998726.89706
  -2097152.000  
  23144228.683   123762591.21715      4141.648    23144233.738    96259813.93714
      3221.285  
  20116593.605   107610208.37208      2234.906    20116600.152    83696857.07405
      1738.261  
 20  9 26  5 31 15.0000000  0 16G30G20G18G15G 5G29G13R 7R 8R 1R 6R22
                                R16R15R24R23
  23830043.189   125227722.58147      -373.270    23830045.771    97580052.64145
      -290.859  
  23383369.302   122880434.83747      3164.496    23383369.251    95750991.23944
      2465.840  
  21103476.662   110899517.58549      2053.281    21103476.867    86415210.17747
      1599.957  
  20626017.869   108390457.50949      2032.694    20626017.937    84460097.82948
      1583.913  
  22032916.264   115783755.57048     -2721.926    22032915.872    90221106.56347
     -2120.984  
  22559384.215   118550361.79048     -3020.523    22559384.926    92376907.60947
     -2353.659  
  20504210.639   107750355.28949         8.672    20504209.873    83961312.76548
         6.754  
  19488263.432   104322199.93009     -1375.152    19488266.922    81139503.53708
     -1069.562  
  20209529.530   108221122.54608      2230.831    20209532.867    84171991.94608
      1735.090  
  23566009.643   125973839.14005      3841.776    23566020.024    97979678.20504
      2988.054  
  22661656.502   120926939.73805     -3779.737           0.000           0.00000
         0.000  
  20487760.317   109365046.38407     -3203.035    20487764.569    85061727.49604
     -2491.253  
  22922035.790   122445402.31505      1693.272    22922041.168    95235339.86304
      1316.991  
  23580392.957   126006470.50807  -2097152.000    23580398.203    98005054.42206
  -2097152.000  
  23140356.936   123741888.08806      4140.085    23140362.111    96243711.47006
      3220.062  
  20114506.174   107599042.11408      2231.719    20114512.789    83688172.20006
      1735.781  
 20  9 26  5 31 20.0000000  0 16G30G20G18G15G 5G29G13R 7R 8R 1R 6R22
                                R16R15R24R23
  23830399.708   125229596.19847      -376.522    23830402.266    97581512.61344
      -293.394  
  23380358.706   122864614.33247      3163.449    23380358.722    95738663.56544
      2465.020  
  21101524.376   110889258.16249      2050.597    21101524.587    86407215.82148
      1597.863  
  20624085.255   108380301.48949      2029.719    20624085.296    84452184.04948
      1581.598  
  22035506.749   115797368.69048     -2723.352    22035506.340    90231714.18947
     -2122.097  
  22562259.245   118565470.14448     -3022.671    22562259.978    92388680.34547
     -2355.332  
  20504204.299   107750321.87949         4.801    20504203.493    83961286.73348
         3.737  
  19489549.342   104329083.50309     -1378.354    19489552.824    81144857.42708
     -1072.058  
  20207447.892   108209975.59708      2228.101    20207451.234    84163322.11008
      1732.968  
  23562416.975   125954633.01805      3840.566    23562427.176    97964740.12004
      2987.108  
  22665198.214   120945839.55405     -3780.332           0.000           0.00000
         0.000  
  20490762.144   109381070.18307     -3206.444    20490766.342    85074190.44404
     -2493.906  
  22920453.002   122436946.59705      1689.171    22920458.160    95228763.20604
      1313.801  
  23581919.002   126014625.22807  -2097152.000    23581924.248    98011396.98106
  -2097152.000  
  23136486.477   123721191.19207      4138.691    23136491.642    96227613.91805
      3218.977  
  20112422.225   107587894.36109      2227.563    20112428.895    83679501.72806
      1732.542  
 20  9 26  5 31 25.0000000  0 16G30G20G18G15G 5G29G13R 7R 8R 1R 6R22
                                R16R15R24R23
  23830759.393   125231486.47647      -379.887    23830761.823    97582985.53644
      -296.019  
  23377348.869   122848797.96946      3163.233    23377348.926    95726339.14144
      2464.862  
  21099574.408   110879010.85249      2048.315    21099574.574    86399230.90748
      1596.085  
  20622155.627   108370161.19449      2026.460    20622155.649    84444282.53348
      1579.058  
  22038098.597   115810988.91348     -2724.699    22038098.113    90242327.34647
     -2123.145  
  22565136.391   118580589.77748     -3025.348    22565137.171    92400461.87447
     -2357.418  
  20504201.474   107750306.81549         1.141    20504200.626    83961274.99448
         0.887  
  19490838.049   104335982.05309     -1381.175    19490841.493    81150222.96508
     -1074.246  
  20205368.979   108198843.04608      2225.090    20205372.295    84154663.46508
      1730.625  
  23558825.439   125935432.29405      3839.699    23558835.736    97949806.22704
      2986.433  
  22668740.673   120964743.07405     -3781.054           0.000           0.00000
         0.000  
  20493767.079   109397110.88707     -3209.812    20493771.352    85086666.54804
     -2496.523  
  22918873.730   122428511.22105      1685.359    22918878.956    95222202.35304
      1310.836  
  23583448.884   126022800.45507  -2097152.000    23583454.130    98017755.48906
  -2097152.000  
  23132617.278   123700501.63106      4137.086    23132622.559    96211522.03506
      3217.733  
  20110341.984   107576766.41209      2223.616    20110348.727    83670846.66406
      1729.480  
 20  9 26  5 31 30.0000000  0 16G30G20G18G15G 5G29G13R 7R 8R 1R 6R22
                                R16R15R24R23
  23831122.106   125233392.48647      -382.809    23831124.506    97584470.75545
      -298.293  
  23374339.663   122832984.88847      3162.156    23374339.657    95714017.28044
      2464.019  
  21097626.583   110868774.81149      2045.890    21097626.720    86391254.77148
      1594.195  
  20620228.822   108360035.80149      2023.452    20620228.821    84436392.61648
      1576.711  
  22040691.619   115824615.36749     -2726.121    22040691.127    90252945.36847
     -2124.254  
  22568015.511   118595719.78048     -3027.398    22568016.320    92412251.47647
     -2359.015  
  20504201.973   107750309.24849        -2.429    20504201.119    83961276.88648
        -1.898  
  19492129.450   104342894.99309     -1384.297    19492132.858    81155599.69308
     -1076.680  
  20203292.560   108187723.91808      2222.343    20203295.824    84146015.25608
      1728.488  
  23555234.284   125916236.10605      3838.776    23555244.749    97934875.87804
      2985.718  
  22672283.643   120983649.16605     -3781.202           0.000           0.00000
         0.000  
  20496774.963   109413167.36607     -3213.129    20496779.306    85099154.90904
     -2499.105  
  22917298.109   122420095.09605      1681.003    22917303.335    95215656.48204
      1307.445  
  23584982.431   126030995.26507  -2097152.000    23584987.681    98024129.24606
  -2097152.000  
  23128749.347   123679818.62407      4135.647    23128754.737    96195435.26906
      3216.464  
  20108265.251   107565657.26209      2219.804    20108272.042    83662206.21706
      1726.515  
 20  9 26  5 31 35.0000000  0 16G30G20G18G15G 5G29G13R 7R 8R 1R 6R22
                                R16R15R24R23
  23831487.773   125235314.01447      -385.777    23831490.084    97585968.04545
      -300.605  
  23371331.041   122817174.75647      3161.733    23371331.082    95701697.69944
      2463.688  
  21095680.871   110858549.80349      2043.984    21095680.980    86383287.23148
      1592.710  
  20618304.809   108349925.01249      2020.793    20618304.772    84428514.08448
      1574.645  
  22043285.771   115838247.75648     -2727.016    22043285.260    90263568.00247
     -2124.938  
  22570896.551   118610859.86948     -3028.973    22570897.363    92424048.93047
     -2360.242  
  20504205.732   107750328.90949        -5.624    20504204.853    83961292.21048
        -4.382  
  19493423.398   104349821.62909     -1386.680    19493426.781    81160987.07508
     -1078.526  
  20201218.622   108176618.10808      2219.895    20201221.848    84137377.40808
      1726.585  
  23551643.511   125897044.24405      3837.886    23551654.402    97919948.87604
      2985.022  
  22675827.014   121002557.67905     -3782.171           0.000           0.00000
         0.000  
  20499785.831   109429239.58007     -3215.979    20499790.201    85111655.51004
     -2501.319  
  22915726.220   122411698.19405      1677.202    22915731.421    95209125.53904
      1304.488  
  23586519.608   126039209.47006  -2097152.000    23586524.853    98030518.05706
  -2097152.000  
  23124882.725   123659141.81306      4134.621    23124888.126    96179353.29006
      3215.812  
  20106191.994   107554566.76609      2216.327    20106198.836    83653580.27706
      1723.808  
 20  9 26  5 31 40.0000000  0 16G30G20G18G15G 5G29G13R 7R 8R 1R 6R22
                                R16R15R24R23
  23831856.149   125237249.69047      -388.473    23831858.422    97587476.35945
      -302.710  
  23368322.739   122801366.27147      3161.187    23368322.783    95689379.40744
      2463.261  
  21093736.978   110848334.45449      2041.777    21093737.058    86375327.22548
      1590.996  
  20616383.317   108339827.47349      2017.913    20616383.260    84420645.87848
      1572.401  
  22045880.778   115851884.73549     -2728.191    22045880.315    90274194.22447
     -2125.867  
  22573779.258   118626008.69348     -3030.855    22573780.119    92435853.20747
     -2361.710  
  20504212.510   107750364.43349        -8.844    20504211.591    83961319.89448
        -6.895  
  19494719.649   104356760.75009     -1389.359    19494723.067    81166384.16908
     -1080.616  
  20199146.863   108165523.96508      2217.409    20199150.081    84128748.63408
      1724.651  
  23548053.819   125877855.34505      3836.996    23548064.663    97905024.21404
      2984.336  
  22679370.673   121021467.22705     -3782.202           0.000           0.00000
         0.000  
  20502799.349   109445326.07007     -3219.164    20502803.780    85124167.22504
     -2503.796  
  22914157.699   122403318.99905      1673.819    22914162.826    95202608.42104
      1301.863  
  23588060.135   126047441.58106  -2097152.000    23588065.384    98036920.82206
  -2097152.000  
  23121016.963   123638470.06306      4134.105    23121022.485    96163275.28406
      3215.414  
  20104121.948   107543493.44809      2212.726    20104128.819    83644967.69806
      1721.004  
 20  9 26  5 31 45.0000000  0 16G30G20G18G15G 5G29G13R 7R 8R 1R 6R22
                                R16R15R24R23
  23832227.596   125239201.47047      -391.522    23832229.878    97588997.22445
      -305.086  
  23365315.082   122785561.36647      3160.792    23365315.346    95677063.92345
      2462.961  
  21091795.289   110838130.71349      2039.715    21091795.381    86367376.25848
      1589.383  
  20614464.702   108329745.14149      2015.105    20614464.643    84412789.52348
      1570.210  
  22048477.020   115865528.20348     -2729.176    22048476.601    90284825.48847
     -2126.633  
  22576664.033   118641168.16248     -3032.711    22576664.862    92447665.78047
     -2363.155  
  20504222.670   107750417.79349       -12.308    20504221.707    83961361.47548
        -9.589  
  19496018.642   104363714.42609     -1391.894    19496022.049    81171792.58208
     -1082.586  
  20197077.680   108154443.48608      2214.852    20197080.874    84120130.49108
      1722.664  
  23544464.808   125858671.30704      3836.117    23544475.838    97890103.32304
      2983.651  
  22682914.850   121040379.79305     -3782.629           0.000           0.00000
         0.000  
  20505815.976   109461428.75007     -3222.117    20505820.346    85136691.52604
     -2506.093  
  22912592.810   122394959.45405      1670.133    22912598.030    95196106.55504
      1298.995  
  23589604.384   126055693.58206  -2097152.000    23589609.631    98043339.03706
  -2097152.000  
  23117152.503   123617805.15307      4132.371    23117158.141    96147202.58306
      3214.066  
  20102055.525   107532439.41309      2208.996    20102062.407    83636370.11806
      1718.108  
 20  9 26  5 31 50.0000000  0 16G30G20G18G15G 5G29G13R 7R 8R 1R 6R22
                                R16R15R24R23
  23832601.808   125241168.12447      -395.030    23832604.181    97590529.68345
      -307.816  
  23362307.924   122769758.86447      3160.370    23362308.120    95664750.27245
      2462.620  
  21089855.593   110827937.41749      2037.612    21089855.707    86359433.43048
      1587.745  
  20612548.750   108319676.81349      2012.335    20612548.707    84404944.08648
      1568.054  
  22051074.270   115879177.00448     -2730.426    22051073.920    90295460.91947
     -2127.608  
  22579550.587   118656337.04348     -3034.746    22579551.447    92459485.67647
     -2364.742  
  20504235.998   107750487.77149       -15.668    20504235.015    83961416.00048
       -12.210  
  19497320.087   104370681.22609     -1394.832    19497323.499    81177211.20408
     -1084.871  
  20195010.841   108143375.62708      2212.234    20195013.995    84111522.16908
      1720.624  
  23540876.383   125839491.05303      3835.905    23540887.749    97875185.36404
      2983.488  
  22686459.459   121059294.16005     -3782.559           0.000           0.00000
         0.000  
  20508835.336   109477546.39207     -3224.792    20508839.690    85149227.45604
     -2508.175  
  22911031.348   122386618.46905      1667.065    22911036.699    95189619.14804
      1296.609  
  23591152.137   126063964.30107  -2097152.000    23591157.384    98049771.81906
  -2097152.000  
  23113289.097   123597145.97106      4131.472    23113294.857    96131134.31406
      3213.367  
  20099992.447   107521403.37109      2205.261    20099999.366    83627786.53006
      1715.265  
 20  9 26  5 31 55.0000000  0 16G30G20G18G15G 5G29G13R 7R 8R 1R 6R22
                                R16R15R24R23
  23832979.004   125243150.08347      -397.823    23832981.349    97592074.06045
      -309.996  
  23359301.282   122753959.25747      3159.913    23359301.601    95652438.89344
      2462.266  
  21087917.942   110817754.99449      2035.594    21087918.064    86351499.07548
      1586.175  
  20610635.572   108309622.95849      2009.386    20610635.515    84397109.91348
      1565.758  
  22053672.633   115892831.55748     -2731.387    22053672.333    90306100.83247
     -2128.352  
  22582439.022   118671515.80948     -3036.628    22582439.884    92471313.27747
     -2366.207  
  20504252.560   107750574.80549       -18.952    20504251.584    83961483.81548
       -14.773  
  19498624.103   104377661.75409     -1397.406    19498627.520    81182640.50408
     -1086.875  
  20192946.415   108132320.87308      2209.828    20192949.576    84102924.03008
      1718.753  
  23537288.697   125820314.81805      3835.749    23537300.364    97860270.51904
      2983.359  
  22690004.325   121078210.65005     -3783.315           0.000           0.00000
         0.000  
  20511857.615   109493679.45807     -3228.125    20511862.008    85161775.38904
     -2510.770  
  22909473.450   122378296.67305      1663.082    22909478.905    95183146.62304
      1293.504  
  23592703.446   126072254.02707  -2097152.000    23592708.693    98056219.38606
  -2097152.000  
  23109426.830   123576492.88106      4130.378    23109432.665    96115070.84406
      3212.515  
  20097932.871   107510385.83609      2201.831    20097939.748    83619217.34406
      1712.535  
 20  9 26  5 32  0.0000000  0 16G30G20G18G15G 5G29G13R 7R 8R 1R 6R22
                                R16R15R24R23
  23833359.282   125245148.26747      -401.562    23833361.737    97593631.05945
      -312.913  
  23356295.359   122738163.30647      3158.804    23356295.785    95640130.39243
      2461.410  
  21085982.548   110807584.33749      2032.894    21085982.686    86343573.89748
      1584.074  
  20608725.306   108299584.41249      2006.059    20608725.237    84389287.67648
      1563.164  
  22056272.275   115906492.73649     -2732.961    22056271.984    90316745.90647
     -2129.578  
  22585329.495   118686705.28748     -3038.848    22585330.372    92483149.21947
     -2367.938  
  20504272.525   107750679.68949       -22.859    20504271.528    83961565.54548
       -17.815  
  19499930.811   104384656.72909     -1400.378    19499934.254    81188081.03708
     -1089.188  
  20190884.587   108121279.84708      2206.672    20190887.744    84094336.57408
      1716.300  
  23533702.308   125801143.63505      3833.730    23533713.911    97845359.61704
      2981.789  
  22693549.824   121097130.05205     -3784.421           0.000           0.00000
         0.000  
  20514882.895   109509828.76807     -3231.601    20514887.347    85174335.95804
     -2513.473  
  22907919.374   122369994.54505      1658.433    22907924.727    95176689.43604
      1289.894  
  23594258.503   126080563.77806  -2097152.000    23594263.754    98062682.54406
  -2097152.000  
  23105565.892   123555846.89707      4128.332    23105571.770    96099012.82706
      3210.922  
  20095876.861   107499387.63309      2197.516    20095883.756    83610663.18106
      1709.176  
 20  9 26  5 32  5.0000000  0 16G30G20G18G15G 5G29G13R 7R 8R 1R 6R22
                                R16R15R24R23
  23833742.599   125247162.73946      -404.273    23833745.167    97595200.79745
      -315.019  
  23353290.248   122722371.31047      3158.352    23353290.693    95627824.94945
      2461.055  
  21084049.416   110797425.59849      2030.706    21084049.555    86335657.99048
      1582.362  
  20606817.982   108289561.36049      2003.397    20606817.899    84381477.50848
      1561.089  
  22058873.192   115920160.64848     -2733.941    22058872.939    90327396.22447
     -2130.351  
  22588222.021   118701905.61248     -3041.218    22588222.876    92494993.63447
     -2369.785  
  20504295.924   107750802.65449       -26.288    20504294.927    83961661.35948
       -20.483  
