     2              OBSERVATION DATA    M                   RINEX VERSION / TYPE
LEICA GEO OFFICE 7.0                    26-9-20 23:45       PGM / RUN BY / DATE
                                                            OBSERVER / AGENCY
HABG                                                        MARKER NAME
HABG                                                        MARKER NUMBER
468588              LEICA GX1220GG      5.60                REC # / TYPE / VERS
                    LEIAX1202GG                             ANT # / TYPE
 -1164126.9432  3810905.6476  4964508.0520                  APPROX POSITION XYZ
        1.5250        0.0000        0.0000                  ANTENNA: DELTA H/E/N
L1PhaOff:   0.0644  L2PhaOff:   0.0640                      COMMENT
     1     1                                                WAVELENGTH FACT L1/2
     6    C1    L1    D1    P2    L2    D2                  # / TYPES OF OBSERV
  2020     9    26     8    54   45.000000                  TIME OF FIRST OBS
  2020     9    26    10    31   25.000000                  TIME OF LAST OBS
    18                                                      LEAP SECONDS
    24                                                      # OF SATELLITES
          C1    L1    D1    P2    L2    D2                  COMMENT
   G 1   654   654   654   651   651   651                  PRN / # OF OBS
   G 2     0     0     0     0     0     0                  PRN / # OF OBS
   G 3     0     0     0     0     0     0                  PRN / # OF OBS
   G 4     0     0     0     0     0     0                  PRN / # OF OBS
   G 5     0     0     0     0     0     0                  PRN / # OF OBS
   G 6     0     0     0     0     0     0                  PRN / # OF OBS
   G 7     0     0     0     0     0     0                  PRN / # OF OBS
   G 8     0     0     0     0     0     0                  PRN / # OF OBS
   G 9     0     0     0     0     0     0                  PRN / # OF OBS
   G10  1161  1161  1161  1161  1161  1161                  PRN / # OF OBS
   G11  1011  1011  1011  1005  1005  1005                  PRN / # OF OBS
   G12  1121  1121  1121  1118  1118  1118                  PRN / # OF OBS
   G13     0     0     0     0     0     0                  PRN / # OF OBS
   G14     0     0     0     0     0     0                  PRN / # OF OBS
   G15   341   341   341   341   341   341                  PRN / # OF OBS
   G16     0     0     0     0     0     0                  PRN / # OF OBS
   G17     0     0     0     0     0     0                  PRN / # OF OBS
   G18   101   101   101    99    99    99                  PRN / # OF OBS
   G19     0     0     0     0     0     0                  PRN / # OF OBS
   G20  1161  1161  1161  1161  1161  1161                  PRN / # OF OBS
   G21  1161  1161  1161  1161  1161  1161                  PRN / # OF OBS
   G22    70    70    70    70    70    70                  PRN / # OF OBS
   G23     0     0     0     0     0     0                  PRN / # OF OBS
   G24  1157  1157  1157  1157  1157  1157                  PRN / # OF OBS
   G25   721   721   721   720   720   720                  PRN / # OF OBS
   G26     0     0     0     0     0     0                  PRN / # OF OBS
   G27     0     0     0     0     0     0                  PRN / # OF OBS
   G28     0     0     0     0     0     0                  PRN / # OF OBS
   G29     0     0     0     0     0     0                  PRN / # OF OBS
   G30     0     0     0     0     0     0                  PRN / # OF OBS
   G31   511   511   511   510   510   510                  PRN / # OF OBS
   G32  1161  1161  1161  1161  1161  1161                  PRN / # OF OBS
   R 1  1161  1161  1161  1161  1161  1161                  PRN / # OF OBS
   R 2  1161  1161  1161  1161  1161  1161                  PRN / # OF OBS
   R 3   483   483   483   482   482   482                  PRN / # OF OBS
   R 4     0     0     0     0     0     0                  PRN / # OF OBS
   R 5     0     0     0     0     0     0                  PRN / # OF OBS
   R 6     0     0     0     0     0     0                  PRN / # OF OBS
   R 7     0     0     0     0     0     0                  PRN / # OF OBS
   R 8   516   516   516   515   515   515                  PRN / # OF OBS
   R 9     0     0     0     0     0     0                  PRN / # OF OBS
   R10   893   893   893     0     0     0                  PRN / # OF OBS
   R11  1161  1161  1161  1161  1161  1161                  PRN / # OF OBS
   R12  1098  1098  1098  1091  1091  1091                  PRN / # OF OBS
   R13     0     0     0     0     0     0                  PRN / # OF OBS
   R14     0     0     0     0     0     0                  PRN / # OF OBS
   R15     0     0     0     0     0     0                  PRN / # OF OBS
   R16     0     0     0     0     0     0                  PRN / # OF OBS
   R17   798   798   798   798   798   798                  PRN / # OF OBS
   R18  1148  1148  1148  1106  1106  1106                  PRN / # OF OBS
   R19   136   136   136   136   136   136                  PRN / # OF OBS
   R20     0     0     0     0     0     0                  PRN / # OF OBS
   R21     0     0     0     0     0     0                  PRN / # OF OBS
   R22     0     0     0     0     0     0                  PRN / # OF OBS
   R23     0     0     0     0     0     0                  PRN / # OF OBS
   R24   139   139   139   140   140   140                  PRN / # OF OBS
                                                            END OF HEADER
 20  9 26  8 54 45.0000000  0 16G11G20G18G15G21G32G24G10R11R 8R 1R10
                                R17R 2R18R24
  24175762.546   127044487.78245      1503.617    24175760.025    98995696.12241
      1171.645  
  20397040.026   107187184.91449     -1629.754    20397039.105    83522488.73048
     -1269.940  
  24173454.038   127032353.70947     -3845.956    24173456.017    98986254.59844
     -2996.855  
  23654238.283   124303850.09647     -3410.328    23654238.648    96860140.89246
     -2657.406  
  23110412.751   121446038.10448       915.226    23110411.841    94633270.40045
       713.160  
  22533834.275   118416097.89048      2776.319    22533837.216    92272294.94746
      2163.371  
  20768384.207   109138652.19749     -1134.289    20768386.104    85043130.54948
      -883.870  
  20563144.077   108060070.28149       991.753    20563145.780    84202667.51249
       772.793  
  20794181.738   111117823.11408      2870.734    20794186.703    86425004.46207
      2232.792  
  22007826.424   117850909.88707     -3088.813    22007830.173    91661834.34107
     -2402.409  
  19484447.430   104155591.92108      -902.418    19484454.015    81009942.44706
      -701.878  
  21005004.822   111968496.30007     -1664.124           0.000           0.00000
         0.000  
  21360590.487   114304834.25808     -1455.772    21360594.538    88903777.57206
     -1132.266  
  21271537.570   113509001.09408      2948.397    21271543.316    88284800.20007
      2293.194  
  22663814.956   120980975.82804      2140.492    22663821.635    94096340.90205
      1664.836  
  23015930.634   123076534.01806     -4123.601    23015935.663    95726201.43905
     -3207.249  
 20  9 26  8 54 50.0000000  0 15G20G18G15G21G32G24G10R11R 8R 1R10R17
                                R 2R18R24
  20398591.960   107195340.35549     -1632.246    20398591.049    83528843.61648
     -1271.883  
  24177113.442   127051584.25847     -3845.956    24177115.577    99001239.44645
     -2996.847  
  23657483.326   124320903.10247     -3410.706    23657483.746    96873428.96145
     -2657.694  
  23109543.344   121441469.31148       912.652    23109542.282    94629710.32645
       711.160  
  22531193.082   118402218.29348      2775.612    22531196.030    92261479.66747
      2162.813  
  20769464.957   109144331.60549     -1137.354    20769466.895    85047556.08448
      -886.250  
  20562201.616   108055117.58649       989.445    20562203.324    84198808.28248
       770.996  
  20791497.294   111103478.44208      2867.312    20791502.264    86413847.49707
      2230.133  
  22010710.791   117866355.41307     -3089.617    22010714.458    91673847.50506
     -2403.038  
  19485292.667   104160110.23108      -904.617    19485299.231    81013456.67006
      -703.594  
  21006567.811   111976828.03607     -1668.125           0.000           0.00000
         0.000  
  21361952.944   114312124.63608     -1460.062    21361956.851    88909447.83107
     -1135.608  
  21268775.298   113494261.17708      2947.284    21268781.015    88273335.84407
      2292.336  
  22661811.759   120970281.56205      2137.156    22661818.327    94088023.00504
      1662.054  
  23019786.466   123097155.13106     -4124.633    23019791.933    95742240.03305
     -3208.054  
 20  9 26  8 54 55.0000000  0 16G11G20G18G15G21G32G24G10R11R 8R 1R10
                                R17R 2R18R24
  24172906.011   127029476.46955      1498.941    24172898.917    98984019.73851
      1168.020  
  20400146.060   107203507.10849     -1634.168    20400145.151    83535207.31148
     -1273.382  
  24180772.877   127070814.49946     -3846.155    24180774.947    99016224.04645
     -2997.012  
  23660728.445   124337956.41147     -3410.414    23660728.909    96886717.23946
     -2657.469  
  23108676.046   121436911.50348       910.827    23108674.951    94626158.78446
       709.729  
  22528552.510   118388341.90348      2775.195    22528555.456    92250666.89947
      2162.488  
  20770548.366   109150024.92649     -1139.749    20770550.319    85051992.43048
      -888.116  
  20561261.118   108050175.23349       987.843    20561262.837    84194957.11548
       769.749  
  20788815.668   111089148.58408      2864.879    20788820.598    86402702.05807
      2228.237  
  22013595.850   117881804.46207     -3089.703    22013599.383    91685863.42607
     -2403.105  
  19486139.758   104164638.44908      -906.109    19486146.313    81016978.61506
      -704.753  
  21008134.400   111985179.02307     -1671.890           0.000           0.00000
         0.000  
  21363318.964   114319434.35908     -1463.410    21363322.840    88915133.20005
     -1138.207  
  21266013.472   113479524.07307      2947.438    21266019.282    88261873.65607
      2292.453  
  22659811.461   120959611.83414      2134.468    22659820.385    94079734.91816
      1660.140  
  23023643.356   123117780.12806     -4125.152    23023648.912    95758281.70105
     -3208.456  
 20  9 26  8 55  0.0000000  0 16G11G20G18G15G21G32G24G10R11R 8R 1R10
                                R17R 2R18R24
  24171481.265   127021993.46805      1495.184           0.000           0.00000
         0.000  
  20401702.678   107211687.09749     -1637.883    20401701.766    83541581.32648
     -1276.276  
  24184432.547   127090046.13547     -3846.641    24184434.652    99031209.73845
     -2997.383  
  23663973.961   124355011.89847     -3411.660    23663974.431    96900007.23245
     -2658.438  
  23107811.118   121432366.46248       907.320    23107810.082    94622617.16345
       706.996  
  22525912.892   118374470.64948      2773.214    22525915.856    92239858.14747
      2160.944  
  20771634.825   109155734.24649     -1143.964    20771636.807    85056441.26148
      -891.405  
  20560322.964   108045245.16949       984.371    20560324.653    84191115.50048
       767.038  
  20786137.149   111074835.35808      2860.604    20786142.050    86391569.54907
      2224.913  
  22016481.879   117897259.14107     -3091.813    22016485.457    91697883.73107
     -2404.745  
  19486989.053   104169178.44608      -909.602    19486995.558    81020509.71206
      -707.473  
  21009704.894   111993550.73707     -1676.733           0.000           0.00000
         0.000  
  21364688.983   114326765.54408     -1468.922    21364692.862    88920835.26506
     -1142.496  
  21263252.643   113464791.92008      2945.347    21263258.476    88250415.28907
      2290.819  
  22657814.758   120948954.23505      2128.895    22657823.314    94071445.63806
      1655.796  
  23027501.415   123138410.87006     -4127.175    23027506.972    95774327.79805
     -3210.035  
 20  9 26  8 55  5.0000000  0 15G11G20G18G15G21G32G24G10R11R 8R 1R10
                                R17R 2R24
  24170060.920   127014528.72345      1491.374    24170051.657    98972320.21652
      1162.109  
  20403262.357   107219883.20249     -1640.539    20403261.454    83547967.89748
     -1278.347  
  24188093.068   127109282.20846     -3847.602    24188095.240    99046198.85945
     -2998.141  
  23667220.422   124372072.29147     -3412.203    23667220.942    96913301.02646
     -2658.859  
  23106949.177   121427837.12048       904.651    23106948.215    94619087.83746
       704.925  
  22523274.829   118360607.40948      2772.226    22523277.757    92229055.63547
      2160.175  
  20772724.875   109161462.52949     -1147.207    20772726.896    85060904.83848
      -893.930  
  20559387.687   108040330.22749       981.859    20559389.376    84187285.66749
       765.082  
  20783462.291   111060541.82408      2857.019    20783467.191    86380452.37207
      2222.124  
  22019369.530   117912721.94207     -3093.336    22019373.088    91709910.32907
     -2405.937  
  19487841.132   104173733.11308      -912.101    19487847.579    81024052.26006
      -709.464  
  21011279.837   112001946.25707     -1681.293           0.000           0.00000
         0.000  
  21366063.487   114334120.94708     -1472.973    21366067.414    88926556.12207
     -1145.647  
  21260493.198   113450067.61608      2944.745    21260499.165    88238963.09107
      2290.362  
  23031360.992   123159050.26307     -4128.390    23031366.785    95790380.66005
     -3210.973  
 20  9 26  8 55 10.0000000  0 16G11G20G18G15G21G32G24G10R11R 8R 1R10
                                R17R 2R18R24
  24168643.617   127007081.46747      1487.887    24168640.313    98966517.15744
      1159.418  
  20404824.933   107228094.59849     -1643.929    20404824.039    83554366.38848
     -1280.987  
  24191754.197   127128521.85046     -3848.253    24191756.440    99061190.76945
     -2998.648  
  23670467.731   124389137.01747     -3413.863    23670468.284    96926598.22545
     -2660.151  
  23106090.107   121423322.70847       901.367    23106089.071    94615570.13045
       702.366  
  22520638.140   118346751.42148      2770.175    22520641.034    92218258.75747
      2158.574  
  20773818.375   109167208.90949     -1151.081    20773820.430    85065382.54948
      -896.945  
  20558455.145   108035429.68349       978.625    20558456.820    84183467.07048
       762.565  
  20780790.984   111046267.16808      2853.058    20780795.886    86369349.87007
      2219.046  
  22022258.566   117928192.44407     -3094.882    22022262.163    91721942.94607
     -2407.137  
  19488695.853   104178301.89908      -915.300    19488702.255    81027605.75106
      -711.844  
  21012859.174   112010364.94607     -1686.124           0.000           0.00000
         0.000  
  21367442.368   114341499.80908     -1478.223    21367446.412    88932295.19607
     -1149.737  
  21257735.082   113435350.18608      2942.698    21257741.151    88227516.21407
      2288.769  
         0.000           0.00000         0.000    22653840.880    94054909.21616
      1649.164  
  23035222.049   123179697.50506     -4130.233    23035227.868    95806439.61605
     -3212.410  
 20  9 26  8 55 15.0000000  0 16G11G20G18G15G21G32G24G10R11R 8R 1R10
                                R17R 2R18R24
  24167229.467   126999649.90347      1485.577    24167228.110    98960726.32844
      1157.601  
  20406390.081   107236319.50549     -1645.851    20406389.202    83560775.40648
     -1282.483  
  24195415.729   127147763.30146     -3847.636    24195418.060    99076184.11445
     -2998.164  
  23673715.472   124406204.13647     -3413.277    23673716.001    96939897.27246
     -2659.698  
  23105233.635   121418821.45148       899.543    23105232.486    94612062.65145
       700.938  
  22518002.501   118332900.88848      2770.128    22518005.344    92207466.14147
      2158.543  
  20774914.936   109172971.37749     -1153.593    20774917.006    85069872.78448
      -898.902  
  20557525.004   108030541.73249       976.813    20557526.683    84179658.28349
       761.152  
  20778122.845   111032009.60108      2850.301    20778127.796    86358260.66807
      2216.901  
  22025148.744   117943668.90407     -3095.390    22025152.370    91733980.18107
     -2407.531  
  19489552.802   104182882.75208      -916.910    19489559.197    81031168.63106
      -713.156  
  21014442.438   112018804.79407     -1689.461           0.000           0.00000
         0.000  
  21368825.283   114348900.22207     -1481.854    21368829.414    88938051.06506
     -1152.558  
  21254978.036   113420638.43308      2942.335    21254984.174    88216073.73906
      2288.479  
  22651848.823   120917093.29316      2117.352    22651856.584    94046669.19206
      1646.828  
  23039084.346   123200350.79006     -4130.664    23039090.027    95822503.26205
     -3212.746  
 20  9 26  8 55 20.0000000  0 16G11G20G18G15G21G32G24G10R11R 8R 1R10
                                R17R 2R18R24
  24165817.952   126992232.15347      1482.460    24165817.364    98954946.21345
      1155.159  
  20407957.427   107244555.96349     -1647.977    20407956.555    83567193.42248
     -1284.137  
  24199077.216   127167004.57847     -3848.046    24199079.498    99091177.27945
     -2998.480  
  23676963.320   124423271.78747     -3412.999    23676963.850    96953196.73145
     -2659.487  
  23104379.227   121414331.41048       897.331    23104378.032    94608563.90145
       699.211  
  22515367.534   118319053.88548      2769.472    22515370.351    92196676.28247
      2158.030  
  20776014.196   109178748.05749     -1156.362    20776016.267    85074374.10448
      -901.066  
  20556596.888   108025664.41449       974.929    20556598.567    84175857.77049
       759.680  
  20775457.569   111017767.23508      2847.371    20775462.555    86347183.27908
      2214.621  
  22028039.604   117959149.04708     -3096.141    22028043.305    91746020.29207
     -2408.112  
  19490411.627   104187473.75508      -918.812    19490418.058    81034739.42706
      -714.632  
  21016029.374   112027263.93008     -1693.223           0.000           0.00000
         0.000  
  21370211.865   114356320.25508     -1485.647    21370216.037    88943822.22207
     -1155.503  
  21252221.630   113405929.94208      2941.805    21252227.804    88204633.81107
      2288.070  
  22649867.747   120906516.71106      2114.137    22649874.232    94038442.92505
      1644.324  
  23042947.330   123221008.11907     -4131.762    23042953.235    95838570.05705
     -3213.593  
 20  9 26  8 55 25.0000000  0 16G11G20G18G15G21G32G24G10R11R 8R 1R10
                                R17R 2R18R24
  24164408.860   126984826.23047      1479.382    24164408.561    98949175.40145
      1152.761  
  20409526.602   107252802.00549     -1650.812    20409525.723    83573618.90348
     -1286.352  
  24202738.284   127186243.62146     -3848.066    24202740.672    99106168.73745
     -2998.491  
  23680210.875   124440337.95647     -3413.550    23680211.377    96966494.99746
     -2659.918  
  23103526.592   121409850.56748       894.667    23103525.353    94605072.35445
       697.147  
  22512732.852   118305208.41048      2768.315    22512735.606    92185887.59847
      2157.124  
  20777115.771   109184536.96849     -1159.547    20777117.878    85078884.92248
      -903.547  
  20555670.411   108020795.77749       972.219    20555672.102    84172064.02148
       757.570  
  20772794.732   111003537.93808      2843.769    20772799.754    86336116.05707
      2211.820  
  22030930.855   117974631.12807     -3097.245    22030934.562    91758061.90007
     -2408.973  
  19491271.977   104192072.88308      -921.332    19491278.411    81038316.51906
      -716.589  
  21017619.470   112035740.12908     -1697.547           0.000           0.00000
         0.000  
  21371601.745   114363757.94308     -1490.125    21371605.938    88949607.08606
     -1158.988  
  21249465.482   113391222.61208      2940.753    21249471.632    88193194.79606
      2287.258  
  22647890.228   120895955.76306      2110.359    22647896.209    94030228.88506
      1641.386  
  23046810.795   123241667.45707     -4132.608    23046816.795    95854638.43505
     -3214.351  
 20  9 26  8 55 30.0000000  0 16G11G20G18G15G21G32G24G10R11R 8R 1R10
                                R17R 2R18R24
  24163003.461   126977440.18447      1475.063    24163003.432    98943420.04144
      1149.397  
  20411099.134   107261065.71649     -1654.477    20411098.262    83580058.15748
     -1289.207  
  24206400.525   127205488.63746     -3849.562    24206402.803    99121164.83545
     -2999.663  
  23683459.705   124457410.67547     -3415.229    23683460.270    96979798.42546
     -2661.223  
  23102677.201   121405387.04848       890.772    23102676.094    94601594.27845
       694.109  
  22510099.980   118291372.54448      2766.351    22510102.670    92175106.41847
      2155.597  
  20778221.255   109190346.26549     -1164.015    20778223.376    85083411.65948
      -907.023  
  20554747.125   108015943.91049       968.577    20554748.842    84168283.36248
       754.733  
  20770135.905   110989330.03408      2839.296    20770140.941    86325065.47907
      2208.344  
  22033823.824   117990123.15607     -3099.543    22033827.651    91770111.23207
     -2410.757  
  19492135.438   104196688.45208      -924.722    19492141.847    81041906.40106
      -719.137  
  21019214.358   112044241.71908     -1702.597           0.000           0.00000
         0.000  
  21372996.453   114371221.33608     -1495.319    21373000.642    88955411.93907
     -1163.030  
  21246711.111   113376524.91708      2938.222    21246717.230    88181763.25507
      2285.285  
  22645916.323   120885418.51706      2104.914    22645922.639    94022033.30006
      1637.167  
  23050676.064   123262336.97907     -4135.179    23050681.937    95870714.71305
     -3216.253  
 20  9 26  8 55 35.0000000  0 16G11G20G18G15G21G32G24G10R11R 8R 1R10
                                R17R 2R18R24
  24161601.395   126970070.81048      1472.508    24161601.317    98937677.64345
      1147.401  
  20412674.389   107269343.79849     -1656.796    20412673.543    83586508.60848
     -1291.016  
  24210063.188   127224736.21746     -3849.223    24210065.541    99136162.94445
     -2999.397  
  23686709.179   124474486.65147     -3415.348    23686709.749    96993104.37246
     -2661.312  
  23101830.473   121400937.52648       888.848    23101829.440    94598127.12244
       692.604  
  22507468.338   118277543.05149      2765.374    22507470.977    92164330.20147
      2154.836  
  20779329.960   109196172.54649     -1166.793    20779332.089    85087951.62348
      -909.187  
  20553826.412   108011105.52649       966.516    20553828.114    84164513.19948
       753.128  
  20767480.446   110975140.12808      2836.324    20767485.495    86314028.88807
      2206.031  
  22036718.099   118005621.86807     -3100.000    22036721.911    91782165.78606
     -2411.112  
  19493001.258   104201316.97508      -926.737    19493007.697    81045506.34806
      -720.801  
  21020813.373   112052765.36708     -1707.031           0.000           0.00000
         0.000  
  21374395.467   114378707.30408     -1499.210    21374399.584    88961234.36806
     -1166.055  
  21243958.000   113361833.63008      2938.227    21243963.998    88170336.69507
      2285.285  
  22643946.793   120874902.12905      2101.398    22643953.152    94013853.91606
      1634.422  
  23054542.684   123283013.37406     -4135.894    23054548.451    95886796.34905
     -3216.813  
 20  9 26  8 55 40.0000000  0 15G11G20G15G21G32G24G10R11R 8R 1R10R17
                                R 2R18R24
  24160202.223   126962716.38948      1469.112    24160201.611    98931946.95744
      1144.761  
  20414252.095   107277634.66649     -1659.566    20414251.264    83592969.01948
     -1293.172  
  23689959.042   124491564.29447     -3416.219    23689959.589    97006411.64145
     -2661.987  
  23100986.103   121396500.45548       886.003    23100985.119    94594669.67845
       690.394  
  22504837.593   118263718.32648      2764.336    22504840.234    92153557.68347
      2154.023  
  20780441.603   109202014.27049     -1170.094    20780443.746    85092503.60948
      -911.765  
  20552907.946   108006279.05149       963.901    20552909.670    84160752.29348
       751.090  
  20764828.092   110960966.69108      2832.577    20764833.124    86303005.11307
      2203.117  
  22039613.272   118021125.54307     -3101.559    22039617.078    91794224.20907
     -2412.323  
  19493869.246   104205956.92708      -929.452    19493875.702    81049115.22506
      -722.906  
  21022416.172   112061309.40708     -1711.062           0.000           0.00000
         0.000  
  21375798.341   114386214.02308     -1503.690    21375802.356    88967072.92606
     -1169.539  
  21241205.694   113347146.67408      2936.698    21241211.603    88158913.51706
      2284.093  
  22641979.979   120864404.67406      2097.047    22641986.785    94005689.11207
      1631.023  
  23058410.237   123303694.88705     -4136.433    23058415.837    95902881.95404
     -3217.229  
 20  9 26  8 55 45.0000000  0 15G11G20G15G21G32G24G10R11R 8R 1R10R17
                                R 2R18R24
  24158805.150   126955374.00547      1467.026    24158804.274    98926225.62445
      1143.141  
  20415831.659   107285935.36448     -1661.500    20415830.842    83599437.09547
     -1294.680  
  23693208.636   124508640.65448     -3415.663    23693209.167    97019717.87246
     -2661.563  
  23100143.551   121392072.87548       884.414    23100142.600    94591219.63845
       689.151  
  22502207.185   118249895.38048      2764.210    22502209.785    92142786.56147
      2153.930  
  20781555.638   109207868.53049     -1172.433    20781557.784    85097065.37648
      -913.585  
  20551991.187   108001461.51449       962.159    20551992.916    84156998.36948
       749.733  
  20762178.262   110946806.74107      2830.077    20762183.265    86291991.84006
      2201.175  
  22042508.893   118036631.39908     -3101.683    22042512.690    91806284.29707
     -2412.426  
  19494738.859   104210605.29008      -930.937    19494745.264    81052730.60506
      -724.066  
  21024022.247   112069870.87807     -1714.421           0.000           0.00000
         0.000  
  21377204.513   114393738.54608     -1506.909    21377208.514    88972925.32707
     -1172.047  
  21238453.747   113332461.69508      2936.363    21238459.589    88147491.88707
      2283.840  
  22640016.133   120853923.15606      2094.335    22640023.227    93997536.87907
      1628.938  
  23062278.093   123324378.61606     -4137.461    23062283.773    95918969.25504
     -3217.976  
 20  9 26  8 55 50.0000000  0 15G11G20G15G21G32G24G10R11R 8R 1R10R17
                                R 2R18R24
  24157411.618   126948050.22648      1463.147    24157410.451    98920518.74944
      1140.109  
  20417414.331   107294252.39348     -1665.070    20417413.496    83605917.89146
     -1297.460  
  23696459.182   124525722.20248     -3416.804    23696459.617    97033028.13746
     -2662.452  
  23099304.006   121387661.25747       880.827    23099303.014    94587781.98745
       686.355  
  22499578.368   118236080.69348      2762.191    22499580.953    92132021.87046
      2152.351  
  20782673.293   109213741.75449     -1176.698    20782675.462    85101641.89647
      -916.914  
  20551077.350   107996659.48749       959.055    20551079.122    84153256.56648
       747.316  
  20759532.138   110932666.62607      2825.995    20759537.146    86280994.01805
      2197.999  
  22045406.153   118052145.75408     -3103.496    22045409.841    91818351.01906
     -2413.836  
  19495611.209   104215268.68708      -934.065    19495617.700    81056357.71805
      -726.492  
  21025632.805   112078456.24708     -1719.515           0.000           0.00000
         0.000  
  21378615.209   114401287.46508     -1511.996    21378619.206    88978796.69206
     -1175.995  
  21235703.273   113317784.66808      2934.594    21235709.062    88136076.43007
      2282.465  
  22638056.750   120843464.11607      2089.358    22638063.791    93989402.00907
      1625.051  
  23066147.688   123345071.04605     -4139.652    23066153.327    95935063.37801
     -3219.723  
 20  9 26  8 55 55.0000000  0 15G11G20G15G21G32G24G10R11R 8R 1R10R17
                                R 2R18R24
  24156021.148   126940743.16348      1459.727    24156020.067    98914824.98344
      1137.453  
  20418999.771   107302583.84148     -1667.644    20418998.933    83612409.92947
     -1299.465  
  23699710.338   124542807.17248     -3416.995    23699710.804    97046341.11146
     -2662.594  
  23098467.164   121383263.87048       878.242    23098466.338    94584355.47045
       684.344  
  22496950.813   118222272.58448      2761.147    22496953.297    92121262.30746
      2151.543  
  20783794.196   109219632.10849     -1179.590    20783796.401    85106231.76347
      -919.164  
  20550166.122   107991871.07549       956.422    20550167.929    84149525.31948
       745.261  
  20756889.367   110918544.92407      2822.527    20756894.558    86270010.46305
      2195.301  
  22048304.660   118067666.99808     -3104.640    22048308.234    91830423.09706
     -2414.723  
  19496486.032   104219945.18108      -936.440    19496492.573    81059994.99105
      -728.348  
  21027247.582   112087063.85108     -1723.468           0.000           0.00000
         0.000  
  21380030.096   114408858.93808     -1516.269    21380033.993    88984685.63107
     -1179.315  
  21232954.016   113303114.07708      2933.645    21232959.781    88124665.95507
      2281.718  
  22636101.297   120833025.93107      2085.823    22636108.197    93981283.46407
      1622.313  
  23070018.503   123365770.37706     -4141.335           0.000           0.00000
         0.000  
 20  9 26  8 56  0.0000000  0 15G11G20G15G21G32G24G10R11R 8R 1R10R17
                                R 2R18R24
  24154633.809   126933452.52348      1456.414    24154632.720    98909143.96645
      1134.871  
  20420587.883   107310929.49048     -1670.641    20420587.072    83618913.03047
     -1301.796  
  23702962.094   124559895.20148     -3417.628    23702962.594    97059656.45946
     -2663.090  
  23097632.906   121378880.31648       875.261    23097632.288    94580939.70645
       682.020  
  22494324.410   118208470.58749      2759.733    22494326.856    92110507.50445
      2150.440  
  20784918.280   109225539.14549     -1183.129    20784920.465    85110834.65247
      -921.921  
  20549257.423   107987095.98549       953.676    20549259.276    84145804.47548
       743.121  
  20754250.025   110904441.20607      2819.070    20754255.314    86259040.90405
      2192.605  
  22051204.333   118083194.58507     -3106.293    22051207.772    91842500.10206
     -2416.007  
  19497363.228   104224634.54507      -938.937    19497369.831    81063642.27805
      -730.332  
  21028866.417   112095693.09208     -1727.762           0.000           0.00000
         0.000  
  21381449.205   114416452.62608     -1520.828    21381452.976    88990591.84806
     -1182.867  
  21230205.910   113288449.59308      2932.187    21230211.637    88113260.26006
      2280.589  
  22634149.707   120822608.18307      2081.581    22634156.273    93973180.78107
      1619.008  
  23073890.724   123386476.13406     -4141.679           0.000           0.00000
         0.000  
 20  9 26  8 56  5.0000000  0 15G11G20G18G15G21G32G24G10R11R 8R 1R10
                                R17R 2R18
  24153249.633   126926178.28448      1453.141    24153248.400    98903475.72244
      1132.315  
  20422178.644   107319289.08848     -1673.401    20422177.843    83625427.00147
     -1303.952  
  24232045.113   127340265.20154     -3852.453    24232050.323    99226194.39154
     -3001.909  
  23706214.404   124576986.14248     -3418.698    23706214.963    97072974.14945
     -2663.917  
  23096801.289   121374510.45247       872.227    23096800.824    94577534.59445
       679.656  
  22491699.167   118194674.65149      2758.464    22491701.553    92099757.47947
      2149.457  
  20786045.562   109231463.02549     -1186.769    20786047.740    85115450.68648
      -924.749  
  20548351.254   107982334.06749       950.870    20548353.110    84142093.87848
       740.934  
  20751614.037   110890355.22308      2815.292    20751619.274    86248085.09507
      2189.664  
  22054105.205   118098728.65707     -3107.542    22054108.633    91854582.17906
     -2416.976  
  19498242.804   104229336.63308      -942.008    19498249.449    81067299.40506
      -732.632  
  21030489.342   112104344.10008     -1732.738           0.000           0.00000
         0.000  
  21382872.388   114424068.33607     -1525.660    21382876.109    88996515.18106
     -1186.629  
  21227458.863   113273791.07508      2930.769    21227464.620    88101859.15007
      2279.484  
  22632202.107   120812210.88506      2077.000    22632208.415    93965094.01107
      1615.445  
 20  9 26  8 56 10.0000000  0 16G11G20G18G15G21G32G24G10R11R 8R 1R10
                                R17R 2R18R24
  24151869.029   126918923.37948      1450.047    24151868.013    98897822.57744
      1129.910  
  20423772.717   107327665.90548     -1675.979    20423771.909    83631954.37346
     -1305.960  
  24235712.780   127359528.32902     -3850.194           0.000           0.00000
         0.000  
  23709467.866   124594083.07648     -3418.891    23709468.390    97086296.29546
     -2664.085  
  23095972.900   121370157.36547       870.198    23095972.502    94574142.62745
       678.082  
  22489075.659   118180887.80448      2757.367    22489077.994    92089014.47646
      2148.602  
  20787176.574   109237406.46949     -1189.565    20787178.754    85120081.93648
      -926.937  
  20547448.175   107977588.45049       948.511    20547450.057    84138396.02548
       739.102  
  20748981.913   110876290.14108      2811.780    20748987.212    86237145.63306
      2186.941  
  22057007.818   118114272.10808     -3108.503    22057011.230    91866671.48706
     -2417.688  
  19499125.350   104234054.41008      -944.163    19499132.004    81070968.84005
      -734.348  
  21032116.942   112113019.84508     -1736.733           0.000           0.00000
         0.000  
  21384300.215   114431709.20607     -1529.733    21384303.988    89002458.04706
     -1189.800  
  21224713.517   113259141.56608      2930.066    21224719.381    88090465.14107
      2278.944  
  22630258.831   120801836.86007      2073.741    22630264.840    93957025.27407
      1612.898  
  23081639.228   123427896.17916     -4144.183    23081644.660    95999499.74513
     -3223.281  
 20  9 26  8 56 15.0000000  0 15G11G20G15G21G32G24G10R11R 8R 1R10R17
                                R 2R18R24
  24150490.517   126911679.37447      1447.297    24150489.586    98892177.86744
      1127.761  
  20425368.404   107336051.23448     -1678.211    20425367.602    83638488.40847
     -1307.694  
  23712720.837   124611177.40048     -3419.226    23712721.313    97099616.56646
     -2664.335  
  23095146.094   121365812.59348       867.727    23095145.790    94570757.06946
       676.148  
  22486452.298   118167101.63649      2756.375    22486454.532    92078271.99446
      2147.815  
  20788309.699   109243361.11449     -1192.340    20788311.868    85124721.90947
      -929.101  
  20546546.574   107972850.56549       946.479    20546548.463    84134704.14848
       737.512  
  20746352.129   110862237.40207      2808.405    20746357.394    86226215.71805
      2184.316  
  22059910.550   118129816.29608     -3109.871    22059913.909    91878761.42007
     -2418.793  
  19500009.248   104238779.31908      -946.112    19500015.928    81074643.77705
      -735.906  
  21033747.491   112121711.62108     -1740.448           0.000           0.00000
         0.000  
  21385731.154   114439366.51108     -1533.089    21385734.924    89008413.73407
     -1192.405  
  21221968.284   113244492.57208      2928.996    21221974.180    88079071.47506
      2278.104  
  22628318.218   120791477.54706      2070.816    22628324.108    93948968.05807
      1610.640  
  23085514.635   123448618.88107     -4145.519    23085518.219    96015617.49405
     -3224.280  
 20  9 26  8 56 20.0000000  0 16G11G20G18G15G21G32G24G10R11R 8R 1R10
                                R17R 2R18R24
  24149114.930   126904450.46247      1444.074    24149113.778    98886544.97744
      1125.253  
  20426966.505   107344449.27849     -1680.934    20426965.698    83645032.31148
     -1309.824  
  24243041.910   127398056.16457     -3852.163    24243045.126    99271239.73954
     -3001.687  
  23715974.172   124628273.38147     -3419.401    23715974.629    97112938.19345
     -2664.464  
  23094321.606   121361480.31648       865.292    23094321.393    94567381.23946
       674.245  
  22483829.784   118153320.20448      2755.714    22483831.990    92067533.21846
      2147.309  
  20789445.792   109249331.28949     -1195.566    20789447.956    85129374.03248
      -931.609  
  20545647.277   107968124.69649       943.813    20545649.140    84131021.63449
       735.433  
  20743725.434   110848201.20108      2805.495    20743730.691    86215298.65407
      2182.046  
  22062814.238   118145365.69507     -3110.710    22062817.701    91890855.42006
     -2419.440  
  19500895.312   104243515.74908      -948.433    19500901.959    81078327.63106
      -737.620  
  21035381.840   112130423.58707     -1744.495           0.000           0.00000
         0.000  
  21387165.962   114447044.58608     -1537.555    21387169.715    89014385.58706
     -1195.875  
  21219223.965   113229848.23908      2928.395    21219229.824    88067681.41207
      2277.637  
  22626381.166   120781137.49106      2066.246    22626387.100    93940925.83407
      1607.085  
         0.000           0.00000         0.000    23089395.089    96031733.70214
     -3224.663  
 20  9 26  8 56 25.0000000  0 16G11G20G18G15G21G32G24G10R11R 8R 1R10
                                R17R 2R18R24
  24147744.051   126897246.09947      1439.570    24147742.735    98880931.15944
      1121.737  
  20428568.855   107352869.68749     -1685.289    20428568.055    83651593.66448
     -1313.214  
  24246708.325   127417327.87146     -3854.598    24246710.322    99286256.66545
     -3003.585  
  23719229.622   124645380.57547     -3421.585    23719229.975    97126268.45046
     -2666.176  
  23093501.368   121357170.03148       861.097    23093501.188    94564022.57246
       670.983  
  22481210.007   118139553.08748      2753.042    22481212.180    92056805.59747
      2145.226  
  20790586.616   109255326.39149     -1200.429    20790588.784    85134045.53148
      -935.401  
  20544752.066   107963420.30149       939.706    20544753.909    84127355.87748
       732.233  
  20741103.643   110834191.33208      2800.456    20741108.945    86204402.10007
      2178.133  
  22065720.684   118160929.58007     -3113.038    22065724.154    91902960.63307
     -2421.258  
  19501785.279   104248273.19608      -952.609    19501791.926    81082027.85106
      -740.921  
  21037021.814   112139165.60508     -1750.355           0.000           0.00000
         0.000  
  21388606.481   114454753.12608     -1543.464    21388610.244    89020381.13306
     -1200.472  
  21216482.282   113215218.08808      2925.719    21216488.135    88056302.41307
      2275.558  
         0.000           0.00000         0.000    22624455.750    93932906.97717
      1602.375  
  23093269.680   123490090.65216     -4148.749    23093273.587    96047866.65105
     -3226.819  
 20  9 26  8 56 30.0000000  0 16G11G20G18G15G21G32G24G10R11R 8R 1R10
                                R17R 2R18R24
  24146374.965   126890051.47147      1438.371    24146373.507    98875324.96344
      1120.809  
  20430172.594   107361297.35849     -1685.621    20430171.794    83658160.67748
     -1313.477  
  24250375.320   127436594.96446     -3851.987    24250377.092    99301269.97744
     -3001.555  
  23722484.307   124662483.90347     -3419.242    23722484.536    97139595.70645
     -2664.347  
  23092682.451   121352866.78148       860.773    23092682.310    94560669.40545
       670.734  
  22478590.072   118125785.33348      2754.238    22478592.257    92046077.48147
      2146.160  
  20791729.323   109261331.35849     -1201.370    20791731.499    85138724.72648
      -936.137  
  20543858.102   107958722.42749       939.542    20543859.904    84123695.20048
       732.109  
  20738483.948   110820192.54108      2799.288    20738489.281    86193514.16907
      2177.226  
  22068627.051   118176492.98207     -3111.949    22068630.508    91915065.49507
     -2420.409  
  19502676.369   104253036.48608      -952.488    19502683.015    81085732.63906
      -740.827  
  21038664.568   112147922.44008     -1752.112           0.000           0.00000
         0.000  
  21390049.808   114462476.78608     -1545.684    21390053.566    89026388.43206
     -1202.199  
  21213740.507   113200587.26708      2927.078    21213746.324    88044922.91407
      2276.616  
  22622520.269   120760549.42115      2059.519    22622526.061    93924897.57707
      1601.852  
  23097148.392   123510832.36706     -4148.074    23097152.251    96063999.07105
     -3226.289  
 20  9 26  8 56 35.0000000  0 16G11G20G18G15G21G32G24G10R11R 8R 1R10
                                R17R 2R18R24
  24145007.990   126882867.66047      1434.129    24145006.537    98869727.23144
      1117.508  
  20431777.947   107369733.58149     -1689.687    20431777.159    83664734.37848
     -1316.640  
  24254040.746   127455858.68646     -3854.081    24254043.582    99316280.63945
     -3003.180  
  23725738.463   124679584.70547     -3421.621    23725738.776    97152920.99546
     -2666.207  
  23091865.132   121348571.80348       856.547    23091864.982    94557322.67545
       667.438  
  22475970.228   118112018.17848      2751.784    22475972.460    92035349.85047
      2144.250  
  20792874.157   109267347.46849     -1206.046    20792876.341    85143412.60048
      -939.781  
  20542965.630   107954032.35749       935.574    20542967.403    84120040.58848
       729.016  
  20735866.578   110806206.04808      2794.500    20735871.900    86182635.78607
      2173.500  
  22071533.580   118192057.18607     -3114.792    22071537.001    91927170.99706
     -2422.616  
  19503568.749   104257806.95508      -956.469    19503575.448    81089443.01706
      -743.921  
  21040310.354   112156695.34307     -1757.745           0.000           0.00000
         0.000  
  21391496.129   114470216.90408     -1551.272    21391499.985    89032408.49407
     -1206.551  
  21210998.761   113185956.84508      2924.222    21211004.611    88033543.66107
      2274.391  
  22620593.889   120750266.61405      2053.819    22620599.955    93916899.86707
      1597.418  
  23101027.333   123531574.74806     -4149.952    23101031.191    96080132.01404
     -3227.874  
 20  9 26  8 56 40.0000000  0 16G11G20G18G15G21G32G24G10R11R 8R 1R10
                                R17R 2R18R24
  24143645.426   126875707.11447      1430.578    24143643.915    98864147.58343
      1114.737  
  20433387.266   107378190.67249     -1692.831    20433386.492    83671324.29448
     -1319.094  
  24257708.417   127475131.49246     -3854.926    24257711.104    99331298.40545
     -3003.844  
  23728994.517   124696695.25847     -3422.351    23728994.833    97166253.90845
     -2666.766  
  23091051.753   121344297.49848       853.340    23091051.670    94553992.04945
       664.937  
  22473352.881   118098263.98548      2750.172    22473355.147    92024632.29947
      2142.991  
  20794023.469   109273387.11349     -1209.707    20794025.648    85148118.82148
      -942.633  
  20542076.980   107949362.40849       932.757    20542078.711    84116401.66748
       726.820  
  20733253.877   110792244.53208      2790.452    20733259.202    86171776.83807
      2170.352  
  22074442.613   118207634.64707     -3116.194    22074445.923    91939286.77506
     -2423.714  
  19504464.868   104262597.10008      -959.378    19504471.511    81093168.67506
      -746.188  
  21041961.477   112165496.72307     -1762.391           0.000           0.00000
         0.000  
  21392947.889   114477985.93708     -1555.922    21392951.855    89038451.08606
     -1210.160  
  21208259.442   113171339.56608      2922.960    21208265.367    88022174.68907
      2273.413  
  22618672.518   120740011.04805      2048.858    22618678.645    93908923.29107
      1593.554  
  23104908.737   123552330.35906     -4151.512    23104912.394    96096275.27205
     -3228.956  
 20  9 26  8 56 45.0000000  0 16G11G20G18G15G21G32G24G10R11R 8R 1R10
                                R17R 2R18R24
  24142285.949   126868562.73647      1427.520    24142284.410    98858580.51344
      1112.348  
  20434999.202   107386661.57449     -1695.375    20434998.467    83677925.00148
     -1321.073  
  24261376.403   127494406.14246     -3854.909    24261379.322    99346317.61445
     -3003.824  
  23732251.108   124713808.47847     -3422.512    23732251.348    97179588.88945
     -2666.895  
  23090240.950   121340036.73448       851.030    23090240.868    94550671.98346
       663.140  
  22470736.667   118084515.66049      2749.358    22470738.953    92013919.32747
      2142.358  
  20795175.893   109279443.14449     -1212.616    20795178.059    85152837.81548
      -944.897  
  20541190.813   107944705.50749       930.354    20541192.503    84112772.92249
       724.952  
  20730644.489   110778300.72008      2787.218    20730649.765    86160931.66207
      2167.836  
  22077352.749   118223218.22906     -3117.109    22077355.999    91951407.35906
     -2424.417  
  19505363.286   104267399.75708      -961.472    19505369.927    81096904.08506
      -747.813  
  21043616.554   112174319.49707     -1766.354           0.000           0.00000
         0.000  
  21394403.763   114485776.77007     -1560.055    21394407.794    89044510.61707
     -1213.379  
  21205521.186   113156727.73908      2922.108    21205527.096    88010809.96907
      2272.753  
  22616755.002   120729775.84306      2045.305    22616761.135    93900962.52207
      1590.781  
  23108791.227   123573092.02906     -4152.770    23108794.650    96112423.19505
     -3229.940  
 20  9 26  8 56 50.0000000  0 16G11G20G18G15G21G32G24G10R11R 8R 1R10
                                R17R 2R18R24
  24140928.797   126861430.72948      1425.026    24140927.415    98853023.12744
      1110.409  
  20436613.040   107395142.47549     -1697.406    20436612.345    83684533.50048
     -1322.652  
  24265043.800   127513678.94046     -3854.409    24265046.899    99361335.35444
     -3003.441  
  23735507.442   124730920.59647     -3422.374    23735507.621    97192923.00146
     -2666.789  
  23089432.005   121335785.78948       849.175    23089431.938    94547359.55146
       661.690  
  22468120.867   118070769.44349      2748.910    22468123.138    92003208.00047
      2142.007  
  20796330.727   109285511.83549     -1215.112    20796332.895    85157566.67348
      -946.840  
  20540306.416   107940057.90849       928.335    20540308.087    84109151.41548
       723.375  
  20728037.703   110764370.84808      2784.281    20728042.896    86150097.31407
      2165.546  
  22080263.304   118238804.05706     -3117.582    22080266.503    91963529.65806
     -2424.789  
  19506263.359   104272210.97308      -963.379    19506269.935    81100646.14106
      -749.292  
  21045274.950   112183159.71507     -1769.875           0.000           0.00000
         0.000  
  21395862.945   114493585.43008     -1563.655    21395867.027    89050584.01107
     -1216.180  
  21202783.380   113142118.15808      2921.730    21202789.229    87999446.96207
      2272.457  
  22614840.559   120719557.01406      2041.866    22614846.963    93893014.57707
      1588.116  
  23112674.018   123593855.83706     -4153.565    23112677.798    96128572.79704
     -3230.558  
 20  9 26  8 56 55.0000000  0 16G11G20G18G15G21G32G24G10R11R 8R 1R10
                                R17R 2R18R24
  24139574.727   126854315.01148      1421.374    24139573.307    98847478.40543
      1107.566  
  20438229.518   107403637.15549     -1700.203    20438228.876    83691152.73648
     -1324.831  
  24268711.616   127532953.63246     -3855.327    24268714.075    99376354.57545
     -3004.160  
  23738764.244   124748035.36347     -3422.987    23738764.412    97206259.17146
     -2667.262  
  23088625.661   121331548.42448       846.027    23088625.626    94544057.71145
       659.238  
  22465506.192   118057029.14249      2747.538    22465508.439    91992501.27647
      2140.941  
  20797488.700   109291596.93349     -1218.672    20797490.834    85162308.30548
      -949.617  
  20539424.495   107935423.38349       925.633    20539426.159    84105540.09848
       721.272  
  20725434.245   110750458.75808      2780.726    20725439.391    86139276.79207
      2162.784  
  22083174.857   118254395.91506     -3119.195    22083178.151    91975656.66306
     -2426.038  
  19507165.757   104277034.77808      -966.062    19507172.328    81104397.99506
      -751.383  
  21046937.338   112192021.20507     -1774.343           0.000           0.00000
         0.000  
  21397326.241   114501415.88308     -1568.233    21397330.300    89056674.37807
     -1219.738  
  21200046.626   113127514.15608      2920.374    21200052.411    87988088.30807
      2271.401  
  22612929.981   120709358.34406      2037.801    22612936.394    93885082.28107
      1584.957  
  23116557.967   123614625.58806     -4154.511    23116561.863    96144727.02405
     -3231.292  
 20  9 26  8 57  0.0000000  0 16G11G20G18G15G21G32G24G10R11R 8R 1R10
                                R17R 2R18R24
  24138224.015   126847217.00247      1417.984    24138222.649    98841947.53243
      1104.929  
  20439848.919   107412147.19949     -1703.359    20439848.320    83697783.93248
     -1327.297  
  24272380.292   127552231.68546     -3855.479    24272383.081    99391376.41744
     -3004.272  
  23742021.801   124765154.34846     -3423.972    23742022.068    97219598.66746
     -2668.031  
  23087822.194   121327326.17848       843.188    23087822.135    94540767.64345
       657.022  
  22462892.920   118043296.23949      2746.073    22462895.132    91981800.31447
      2139.796  
  20798650.099   109297700.03149     -1222.309    20798652.191    85167063.95948
      -952.453  
  20538545.368   107930803.47349       922.690    20538547.012    84101940.17048
       718.977  
  20722834.380   110736566.05708      2776.754    20722839.557    86128471.37107
      2159.699  
  22086088.042   118269995.60906     -3120.366    22086091.257    91987789.70906
     -2426.960  
  19508070.775   104281872.64508      -968.836    19508077.357    81108160.77006
      -753.543  
  21048604.018   112200905.61408     -1778.988           0.000           0.00000
         0.000  
  21398793.933   114509269.67308     -1573.003    21398797.930    89062782.87807
     -1223.453  
  21197311.270   113112917.61708      2918.823    21197317.008    87976735.43307
      2270.190  
  22611023.561   120699181.61607      2033.613    22611030.111    93877167.12207
      1581.707  
  23120443.381   123635402.76606     -4156.195    23120447.379    96160887.06605
     -3232.598  
 20  9 26  8 57  5.0000000  0 16G11G20G18G15G21G32G24G10R11R 8R 1R10
                                R17R 2R18R24
  24136876.059   126840133.53847      1415.042    24136874.701    98836427.97243
      1102.636  
  20441470.634   107420669.46049     -1705.765    20441470.089    83704424.65148
     -1329.172  
  24276048.787   127571510.04046     -3855.602    24276051.623    99406398.51545
     -3004.363  
  23745279.462   124782274.37646     -3424.789    23745279.898    97232938.93546
     -2668.671  
  23087021.005   121323115.93448       840.866    23087021.005    94537486.93246
       655.218  
  22460280.484   118029567.64049      2745.086    22460282.624    91971102.72047
      2139.026  
  20799814.299   109303817.88249     -1225.265    20799816.326    85171831.11948
      -954.757  
  20537668.433   107926195.05949       920.406    20537670.058    84098349.19248
       717.195  
  20720237.574   110722689.45008      2773.391    20720242.727    86117678.46607
      2157.081  
  22089001.943   118285599.44507     -3121.272    22089005.189    91999926.00906
     -2427.659  
  19508977.831   104286721.31808      -971.093    19508984.440    81111931.96706
      -755.300  
  21050274.423   112209809.71408     -1782.836           0.000           0.00000
         0.000  
  21400265.394   114517143.44608     -1576.964    21400269.348    89068906.92407
     -1226.526  
  21194576.690   113098325.06108      2917.741    21194582.357    87965385.67807
      2269.355  
  22609120.597   120689023.49806      2029.445    22609127.016    93869266.32506
      1578.452  
  23124329.568   123656184.33005     -4156.897    23124333.834    96177050.48305
     -3233.148  
 20  9 26  8 57 10.0000000  0 16G11G20G18G15G21G32G24G10R11R 8R 1R10
                                R17R 2R18R24
  24135531.410   126833067.48747      1411.801    24135529.928    98830921.94443
      1100.098  
  20443095.194   107429206.67549     -1708.792    20443094.690    83711077.02748
     -1331.530  
  24279717.987   127590791.37746     -3856.387    24279720.439    99421422.92144
     -3004.980  
  23748537.801   124799398.31345     -3425.246    23748538.522    97246282.23546
     -2669.030  
  23086222.656   121318920.42348       837.762    23086222.576    94534217.68545
       652.796  
  22457669.378   118015846.12149      2743.823    22457671.476    91960410.63147
      2138.043  
  20800981.842   109309953.23849     -1228.758    20800983.778    85176611.91948
      -957.477  
  20536794.192   107921600.91949       917.597    20536795.837    84094769.34148
       715.008  
  20717644.314   110708831.98208      2769.836    20717649.507    86106900.44007
      2154.315  
  22091917.345   118301210.82207     -3122.594    22091920.580    92012068.19706
     -2428.687  
  19509887.454   104291583.71008      -973.613    19509894.073    81115713.82406
      -757.257  
  21051949.045   112218736.33208     -1787.358           0.000           0.00000
         0.000  
  21401741.139   114525040.14708     -1581.273    21401745.043    89075048.80307
     -1229.883  
  21191843.535   113083740.01608      2916.444    21191849.125    87954041.75107
      2268.348  
  22607221.744   120678886.98007      2025.273    22607228.038    93861382.37306
      1575.206  
  23128217.142   123676973.02806     -4158.487    23128221.526    96193219.45205
     -3234.387  
 20  9 26  8 57 15.0000000  0 16G11G20G18G15G21G32G24G10R11R 8R 1R10
                                R17R 2R18R24
  24134189.624   126826016.57347      1408.133    24134188.135    98825427.77643
      1097.249  
  20444722.193   107437756.61249     -1711.698    20444721.691    83717739.32248
     -1333.792  
  24283387.301   127610073.50347     -3856.957    24283389.884    99436447.93745
     -3005.429  
  23751796.611   124816523.85046     -3425.960    23751797.517    97259626.77546
     -2669.585  
  23085426.683   121314737.40348       834.995    23085426.541    94530958.17945
       650.640  
  22455059.212   118002129.45449      2742.315    22455061.275    91949722.32547
      2136.871  
  20802152.302   109316103.92149     -1232.206    20802154.204    85181404.64848
      -960.164  
  20535922.254   107917018.82249       914.757    20535923.872    84091198.88148
       712.797  
  20715054.229   110694991.22708      2765.937    20715059.445    86096135.41407
      2151.285  
  22094833.637   118316827.09007     -3123.854    22094836.879    92024214.19906
     -2429.664  
  19510799.197   104296457.47008      -976.273    19510805.810    81119504.52406
      -759.327  
  21053627.462   112227683.11208     -1791.843           0.000           0.00000
         0.000  
  21403220.743   114532957.52708     -1585.844    21403224.631    89081206.76007
     -1233.437  
  21189111.119   113069159.28808      2915.124    21189116.655    87942701.17407
      2267.316  
  22605326.407   120668769.60206      2020.965    22605332.883    93853513.26007
      1571.858  
  23132105.606   123697766.58206     -4159.656    23132110.020    96209392.19505
     -3235.293  
 20  9 26  8 57 20.0000000  0 16G11G20G18G15G21G32G24G10R11R 8R 1R10
                                R17R 2R18R24
  24132851.035   126818982.74047      1405.563    24132849.623    98819946.88843
      1095.245  
  20446351.980   107446321.17249     -1713.979    20446351.465    83724413.00648
     -1335.573  
  24287057.027   127629358.35346     -3857.195    24287059.429    99451475.07745
     -3005.608  
  23755056.119   124833652.83647     -3425.690    23755057.130    97272974.03345
     -2669.374  
  23084633.468   121310568.87048       832.581    23084633.296    94527709.97545
       648.761  
  22452450.327   117988419.54449      2741.695    22452452.314    91939039.28246
      2136.387  
  20803326.044   109322271.78949     -1234.992    20803327.896    85186210.78348
      -962.331  
  20535052.968   107912450.69549       912.625    20535054.569    84087639.29548
       711.132  
  20712467.638   110681169.23708      2762.609    20712472.866    86085384.98807
      2148.695  
  22097751.209   118332450.33807     -3124.952    22097754.534    92036365.59807
     -2430.523  
  19511713.403   104301344.58008      -978.586    19511720.010    81123305.62006
      -761.120  
  21055310.005   112236651.92108     -1795.538           0.000           0.00000
         0.000  
  21404704.525   114540897.32408     -1590.000    21404708.467    89087382.14907
     -1236.672  
  21186380.025   113054585.52007      2914.453    21186385.525    87931366.03207
      2266.797  
  22603435.019   120658673.40207      2017.684    22603441.655    93845660.67007
      1569.304  
  23135995.243   123718566.81205     -4160.679    23135999.902    96225570.14705
     -3236.090  
 20  9 26  8 57 25.0000000  0 16G11G20G18G15G21G32G24G10R11R 8R 1R10
                                R17R 2R18R24
  24131515.202   126811963.20447      1402.729    24131513.888    98814477.09043
      1093.023  
  20447984.000   107454897.49549     -1716.383    20447983.517    83731095.85948
     -1337.441  
  24290726.804   127648642.97347     -3856.663    24290729.123    99466502.04944
     -3005.195  
  23758315.783   124850782.52147     -3425.890    23758316.866    97286321.85745
     -2669.522  
  23083842.466   121306411.97048       830.276    23083842.210    94524470.85945
       646.969  
  22449842.190   117974713.59849      2740.765    22449844.147    91928359.33947
      2135.660  
  20804502.478   109328454.05149     -1237.851    20804504.363    85191028.12648
      -964.563  
  20534185.821   107907893.71249       910.261    20534187.423    84084088.41648
       709.292  
  20709884.027   110667363.14208      2759.609    20709889.247    86074646.93007
      2146.363  
  22100669.596   118348077.57606     -3125.992    22100672.861    92048520.11006
     -2431.331  
  19512629.605   104306242.17608      -980.508    19512636.196    81127114.84806
      -762.620  
  21056996.185   112245640.14508     -1799.589           0.000           0.00000
         0.000  
  21406191.980   114548856.89908     -1593.968    21406195.947    89093572.92107
     -1239.757  
  21183649.535   113040015.35308      2913.551    21183655.066    87920033.67607
      2266.090  
