     2              OBSERVATION DATA    G                   RINEX VERSION / TYPE
LEICA GEO OFFICE 7.0                    26-9-20 23:49       PGM / RUN BY / DATE
                                                            OBSERVER / AGENCY
jarg                                                        MARKER NAME
jarg                                                        MARKER NUMBER
457569              LEICA GX1220        2.14                REC # / TYPE / VERS
                    LEIAX1202                               ANT # / TYPE
 -1143546.7628  3815838.0505  4965301.3874                  APPROX POSITION XYZ
        1.6110        0.0000        0.0000                  ANTENNA: DELTA H/E/N
L1PhaOff:   0.0648  L2PhaOff:   0.0622                      COMMENT
     1     1                                                WAVELENGTH FACT L1/2
     6    C1    L1    D1    P2    L2    D2                  # / TYPES OF OBSERV
  2020     9    26     5    25   40.000000                  TIME OF FIRST OBS
  2020     9    26    10    31   20.000000                  TIME OF LAST OBS
    18                                                      LEAP SECONDS
    21                                                      # OF SATELLITES
          C1    L1    D1    P2    L2    D2                  COMMENT
   G 1   678   678   678   677   677   677                  PRN / # OF OBS
   G 2    27    27    27    27    27    27                  PRN / # OF OBS
   G 3     0     0     0     0     0     0                  PRN / # OF OBS
   G 4     0     0     0     0     0     0                  PRN / # OF OBS
   G 5   985   985   985   985   985   985                  PRN / # OF OBS
   G 6     0     0     0     0     0     0                  PRN / # OF OBS
   G 7     3     3     3     3     3     3                  PRN / # OF OBS
   G 8   755   755   755   754   754   754                  PRN / # OF OBS
   G 9     0     0     0     0     0     0                  PRN / # OF OBS
   G10  3033  3033  3033  3033  3033  3033                  PRN / # OF OBS
   G11  1154  1154  1154  1154  1154  1154                  PRN / # OF OBS
   G12  1116  1116  1116  1116  1116  1116                  PRN / # OF OBS
   G13  1925  1925  1925  1925  1925  1925                  PRN / # OF OBS
   G14     0     0     0     0     0     0                  PRN / # OF OBS
   G15  2859  2859  2859  2859  2859  2859                  PRN / # OF OBS
   G16     0     0     0     0     0     0                  PRN / # OF OBS
   G17     0     0     0     0     0     0                  PRN / # OF OBS
   G18  2625  2625  2625  2625  2625  2625                  PRN / # OF OBS
   G19     0     0     0     0     0     0                  PRN / # OF OBS
   G20  3669  3669  3669  3669  3669  3669                  PRN / # OF OBS
   G21  2226  2226  2226  2225  2225  2225                  PRN / # OF OBS
   G22    73    73    73    73    73    73                  PRN / # OF OBS
   G23     0     0     0     0     0     0                  PRN / # OF OBS
   G24  3156  3156  3156  3155  3155  3155                  PRN / # OF OBS
   G25   716   716   716   716   716   716                  PRN / # OF OBS
   G26     0     0     0     0     0     0                  PRN / # OF OBS
   G27  1639  1639  1639  1639  1639  1639                  PRN / # OF OBS
   G28     0     0     0     0     0     0                  PRN / # OF OBS
   G29   720   720   720   719   719   719                  PRN / # OF OBS
   G30   785   785   785   785   785   785                  PRN / # OF OBS
   G31   512   512   512   511   511   511                  PRN / # OF OBS
   G32  1891  1891  1891  1891  1891  1891                  PRN / # OF OBS
                                                            END OF HEADER
 20  9 26  5 25 40.0000000  0  9G13G 2G15G18G 5G29G 7G30G20
  20520819.295   107837633.42859       237.706    20520818.866    84029322.97157
       185.223  
  24617517.572   129365932.64456     -3324.922    24617518.638   100804622.23355
     -2590.851  
  20760243.475   109095815.39259      2220.965    20760244.147    85009729.40958
      1730.617  
  21226852.953   111547865.43658      2187.578    21226853.309    86920416.39757
      1704.601  
  21877516.992   114967128.47858     -2649.116    21877517.539    89584777.61557
     -2064.249  
  22361621.553   117511114.52358     -2880.230    22361622.302    91567104.81757
     -2244.339  
  25088172.211   131839226.81056     -1563.628    25088172.604   102731856.92255
     -1218.414  
  23828487.857   125219550.13257      -157.237    23828490.987    97573685.40155
      -122.526  
  23566623.605   123843443.19857      3199.394    23566624.297    96501387.08455
      2493.030  
 20  9 26  5 25 45.0000000  0  9G13G 2G15G18G 5G29G 7G30G20
  20520594.770   107836453.51149       234.496    20520594.427    84028403.55547
       182.722  
  24620681.645   129382559.39746     -3325.188    24620682.496   100817578.11144
     -2591.062  
  20758131.421   109084716.97449      2218.651    20758132.211    85001081.29248
      1728.815  
  21224772.478   111536932.55948      2185.754    21224772.860    86911897.27247
      1703.183  
  21880038.177   114980377.45348     -2650.218    21880038.740    89595101.48047
     -2065.108  
  22364362.933   117525520.75948     -2881.972    22364363.837    91578330.44747
     -2245.695  
  25089661.216   131847051.46146     -1565.671    25089661.663   102737954.05844
     -1220.007  
  23828638.740   125220343.05847      -159.883    23828641.989    97574303.26345
      -124.585  
  23563580.002   123827449.11247      3198.965    23563580.676    96488924.15344
      2492.694  
 20  9 26  5 25 50.0000000  0  9G13G 2G15G18G 5G29G 7G30G20
  20520373.275   107835289.01349       231.055    20520372.938    84027496.15647
       180.038  
  24623846.243   129399188.06546     -3326.065    24623847.090   100830535.53245
     -2591.742  
  20756021.821   109073630.76349      2215.897    20756022.492    84992442.69048
      1726.671  
  21222693.697   111526008.08348      2183.851    21222693.872    86903384.69547
      1701.698  
  21882560.147   114993630.74548     -2651.211    21882560.696    89605428.71847
     -2065.882  
  22367106.190   117539936.10548     -2884.198    22367107.022    91589563.17647
     -2247.429  
  25091152.085   131854886.78146     -1568.211    25091152.208   102744059.49744
     -1221.983  
  23828792.145   125221149.52247      -162.922    23828795.309    97574931.67346
      -126.957  
  23560536.463   123811455.77147      3198.304    23560537.133    96476461.82045
      2492.187  
 20  9 26  5 25 55.0000000  0  8G13G 2G15G18G 5G29G30G20
  20520153.502   107834134.72549       228.206    20520153.162    84026596.71048
       177.820  
  24627009.965   129415813.41146     -3326.434    24627010.932   100843490.31044
     -2592.035  
  20753913.571   109062551.58149      2213.633    20753914.233    84983809.56248
      1724.905  
  21220615.318   111515086.85148      2182.379    21220615.631    86894874.64847
      1700.551  
  21885082.094   115006883.22848     -2651.987    21885082.666    89615755.32647
     -2066.492  
  22369850.053   117554355.33248     -2885.616    22369850.718    91600798.93247
     -2248.534  
  23828947.207   125221964.37447      -165.401    23828950.266    97575566.63746
      -128.886  
  23557492.314   123795458.00547      3198.254    23557493.001    96463996.04745
      2492.145  
 20  9 26  5 26  0.0000000  0  8G13G 2G15G18G 5G29G30G20
  20519938.673   107833005.53849       223.680    20519938.262    84025716.82447
       174.292  
  24630175.779   129432450.37945     -3328.313    24630177.002   100856454.21045
     -2593.492  
  20751809.500   109051494.30149      2209.625    20751810.095    84975193.50348
      1721.780  
  21218540.543   111504183.74148      2179.065    21218540.839    86886378.71947
      1697.969  
  21887606.529   115020149.72748     -2654.574    21887607.066    89626092.85547
     -2068.503  
  22372597.523   117568793.32148     -2889.026    22372598.312    91612049.30847
     -2251.190  
  23829106.668   125222802.44347      -169.440    23829109.676    97576219.67545
      -132.035  
  23554449.911   123779470.84947      3196.144    23554450.589    96451538.53544
      2490.500  
 20  9 26  5 26  5.0000000  0  8G13G 2G15G18G 5G29G30G20
  20519727.660   107831896.84849       220.187    20519727.248    84024852.91347
       171.570  
  24633343.065   129449094.26646     -3329.246    24633344.033   100869423.42444
     -2594.226  
  20749708.666   109040454.31549      2206.636    20749709.165    84966590.92048
      1719.453  
  21216468.448   111493294.14948      2176.961    21216468.718    86877893.32647
      1696.327  
  21890132.856   115033425.60248     -2655.719    21890133.427    89636437.69347
     -2069.394  
  22375347.658   117583245.47248     -2891.590    22375348.386    91623310.71547
     -2253.191  
  23829269.797   125223659.16247      -172.948    23829272.850    97576887.25245
      -134.769  
  23551408.844   123763489.46447      3196.129    23551409.437    96439085.52445
      2490.491  
 20  9 26  5 26 10.0000000  0  8G13G 2G15G18G 5G29G30G20
  20519519.683   107830803.82849       216.952    20519519.413    84024001.20948
       169.051  
  24636510.594   129465740.36845     -3330.008    24636511.561   100882394.42345
     -2594.815  
  20747610.118   109029426.87049      2204.058    20747610.904    84957998.10848
      1717.445  
  21214397.865   111482413.31748      2175.070    21214398.058    86869414.75547
      1694.854  
  21892660.150   115046706.09048     -2656.729    21892660.741    89646786.12247
     -2070.183  
  22378099.526   117597706.94748     -2893.520    22378100.405    91634579.39647
     -2254.695  
  23829435.381   125224529.71647      -175.562    23829438.423    97577565.58846
      -136.805  
  23548367.949   123747509.26547      3195.815    23548368.522    96426633.42445
      2490.242  
 20  9 26  5 26 15.0000000  0  8G13G 2G15G18G 5G29G30G20
  20519314.931   107829727.50349       213.613    20519314.511    84023162.51248
       166.448  
  24639678.859   129482389.62047     -3330.188    24639679.890   100895367.82544
     -2594.957  
  20745514.430   109018413.05048      2201.437    20745514.853    84949415.91448
      1715.401  
  21212329.192   111471542.27748      2173.348    21212329.391    86860943.81647
      1693.516  
  21895188.409   115059992.24248     -2657.805    21895188.813    89657138.96747
     -2071.020  
  22380853.464   117612178.80148     -2895.390    22380854.365    91645856.15047
     -2256.152  
  23829604.042   125225415.16047      -178.719    23829606.899    97578255.56346
      -139.266  
  23545327.418   123731531.23447      3195.042    23545328.040    96414183.03245
      2489.640  
 20  9 26  5 26 20.0000000  0  8G13G 2G15G18G 5G29G30G20
  20519113.412   107828668.23349       210.194    20519113.045    84022337.10548
       163.785  
  24642847.832   129499042.46546     -3330.863    24642849.204   100908344.10345
     -2595.476  
  20743421.202   109007413.15749      2198.640    20743421.743    84940844.57048
      1713.223  
  21210262.426   111460681.37848      2171.227    21210262.632    86852480.78247
      1691.862  
  21897717.820   115073284.35548     -2659.051    21897718.340    89667496.45547
     -2071.991  
  22383609.485   117626661.32048     -2897.483    22383610.288    91657141.22947
     -2257.785  
  23829775.337   125226315.85247      -181.698    23829778.417    97578957.40046
      -141.586  
  23542287.272   123715555.68647      3194.707    23542287.901    96401734.54645
      2489.379  
 20  9 26  5 26 25.0000000  0  8G13G 2G15G18G 5G29G30G20
  20518914.758   107827624.42649       206.776    20518914.263    84021523.75048
       161.120  
  24646017.191   129515697.24647     -3331.573    24646018.072   100921321.80744
     -2596.038  
  20741330.259   108996425.61349      2195.871    20741330.814    84932282.84848
      1711.066  
  21208197.350   111449829.04948      2169.207    21208197.586    86844024.42147
      1690.289  
  21900247.976   115086580.88448     -2660.164    21900248.570    89677857.38747
     -2072.859  
  22386367.033   117641152.92748     -2899.554    22386367.925    91668433.38247
     -2259.394  
  23829949.477   125227230.15347      -184.698    23829952.227    97579669.84245
      -143.926  
  23539247.482   123699581.01647      3194.308    23539248.016    96389286.75645
      2489.069  
 20  9 26  5 26 30.0000000  0  8G13G 2G15G18G 5G29G30G20
  20518719.924   107826600.28549       202.809    20518719.397    84020725.71648
       158.031  
  24649187.703   129532358.05646     -3332.616    24649188.793   100934304.25445
     -2596.847  
  20739242.559   108985454.58349      2192.613    20739243.297    84923734.00148
      1708.527  
  21206134.579   111438989.45748      2166.695    21206134.742    86835577.98447
      1688.331  
  21902779.845   115099885.97648     -2661.922    21902780.299    89688224.98847
     -2074.226  
  22389127.252   117655657.78748     -2902.183    22389127.998    91679735.85947
     -2261.445  
  23830126.870   125228162.26747      -188.155    23830129.747    97580396.16345
      -146.617  
  23536208.510   123683611.45347      3193.398    23536209.020    96376842.94945
      2488.359  
 20  9 26  5 26 35.0000000  0  8G13G 2G15G18G 5G29G30G20
  20518528.492   107825594.39649       199.477    20518527.944    84019941.90248
       155.433  
  24652358.946   129549023.67546     -3333.555    24652360.064   100947290.42245
     -2597.582  
  20737157.720   108974498.70949      2189.858    20737158.236    84915196.96148
      1706.378  
  21204074.079   111428161.23748      2164.718    21204074.341    86827140.42247
      1686.789  
  21905313.238   115113198.23248     -2663.198    21905313.727    89698598.17347
     -2075.222  
  22391889.746   117670174.47848     -2904.375    22391890.477    91691047.56047
     -2263.152  
  23830307.247   125229110.80747      -191.050    23830310.218    97581135.28545
      -148.875  
  23533170.275   123667645.60647      3193.214    23533171.055    96364402.05345
      2488.214  
 20  9 26  5 26 40.0000000  0  8G13G 2G15G18G 5G29G30G20
  20518340.098   107824604.34449       196.229    20518339.666    84019170.43847
       152.901  
  24655530.767   129565691.39846     -3334.370    24655531.720   100960278.29545
     -2598.210  
  20735075.347   108963555.54749      2187.254    20735075.859    84906669.82048
      1704.352  
  21202015.114   111417341.93248      2162.914    21202015.425    86818709.78747
      1685.383  
  21907847.394   115126515.18948     -2664.007    21907847.884    89708975.02947
     -2075.851  
  22394653.944   117684700.56548     -2906.297    22394654.742    91702366.57747
     -2264.648  
  23830490.534   125230073.33547      -194.151    23830493.328    97581885.31045
      -151.289  
  23530132.420   123651681.07347      3192.296    23530133.131    96351962.17144
      2487.504  
 20  9 26  5 26 45.0000000  0  8G13G 2G15G18G 5G29G30G20
  20518155.133   107823632.10049       192.788    20518154.555    84018412.84448
       150.222  
  24658703.325   129582363.42547     -3334.844    24658704.422   100973269.44845
     -2598.585  
  20732995.829   108952627.10949      2184.265    20732996.386    84898154.16548
      1702.023  
  21199958.436   111406533.57748      2160.652    21199958.694    86810287.69147
      1683.621  
  21910382.687   115139838.90248     -2665.203    21910383.255    89719357.13647
     -2076.785  
  22397420.431   117699238.04948     -2908.444    22397421.141    91713694.48646
     -2266.324  
  23830676.607   125231051.84047      -197.210    23830679.415    97582647.77345
      -153.675  
  23527094.932   123635719.78047      3192.332    23527095.617    96339524.80945
      2487.526  
 20  9 26  5 26 50.0000000  0  8G13G 2G15G18G 5G29G30G20
  20517973.404   107822677.98049       189.207    20517973.114    84017669.37247
       147.429  
  24661876.806   129599040.02446     -3335.640    24661877.937   100986264.21245
     -2599.203  
  20730918.968   108941713.72449      2181.214    20730919.602    84889650.23648
      1699.645  
  21197903.834   111395736.50848      2158.440    21197904.149    86801874.39548
      1681.898  
  21912919.503   115153169.64548     -2666.719    21912919.835    89729744.72647
     -2077.964  
  22400189.031   117713787.20648     -2910.937    22400189.750    91725031.47947
     -2268.266  
  23830865.926   125232046.65947      -200.550    23830868.694    97583422.96545
      -156.277  
  23524058.416   123619762.15247      3190.781    23524059.092    96327090.30945
      2486.320  
 20  9 26  5 26 55.0000000  0  8G13G 2G15G18G 5G29G30G20
  20517795.101   107821740.86749       185.831    20517794.841    84016939.15847
       144.800  
  24665050.921   129615720.07946     -3336.640    24665051.974   100999261.64045
     -2599.984  
  20728844.971   108930814.26149      2178.273    20728845.512    84881157.15348
      1697.352  
  21195851.149   111384949.57348      2156.354    21195851.313    86793468.99747
      1680.273  
  21915457.484   115166506.26448     -2667.898    21915457.672    89740136.89747
     -2078.886  
  22402959.511   117728346.89648     -2913.090    22402960.314    91736376.69447
     -2269.941  
  23831058.118   125233056.63447      -203.558    23831060.881    97584209.96845
      -158.621  
  23521022.102   123603806.90247      3191.012    23521022.814    96314657.66345
      2486.500  
 20  9 26  5 27  0.0000000  0  8G13G 2G15G18G 5G29G30G20
  20517620.040   107820820.79249       182.473    20517619.748    84016222.21148
       142.184  
  24668225.612   129632403.47846     -3336.815    24668226.871   101012261.69045
     -2600.121  
  20726773.445   108919928.72749      2175.644    20726773.888    84872674.91848
      1695.304  
  21193800.344   111374172.83448      2154.336    21193800.682    86785071.53648
      1678.699  
  21917996.402   115179848.77648     -2669.137    21917996.714    89750533.66547
     -2079.851  
  22405732.306   117742917.15748     -2914.894    22405733.093    91747730.16547
     -2271.347  
  23831253.179   125234081.81047      -206.749    23831255.950    97585008.80645
      -161.105  
  23517986.480   123587854.22947      3190.397    23517987.266    96302227.00845
      2486.022  
 20  9 26  5 27  5.0000000  0  8G13G 2G15G18G 5G29G30G20
  20517448.210   107819917.59949       178.921    20517447.825    84015518.43247
       139.417  
  24671401.081   129649090.27345     -3337.832    24671402.348   101025264.33044
     -2600.917  
  20724704.771   108909057.02349      2173.089    20724705.178    84864203.45948
      1693.312  
  21191751.635   111363406.20248      2152.293    21191751.768    86776681.95347
      1677.108  
  21920536.649   115193197.11048     -2670.155    21920536.725    89760934.95947
     -2080.645  
  22408506.802   117757497.85348     -2917.210    22408507.546    91759091.71147
     -2273.159  
  23831451.264   125235122.06847      -209.468    23831454.008    97585819.38446
      -163.227  
  23514951.133   123571903.99447      3189.394    23514952.014    96289798.28245
      2485.238  
 20  9 26  5 27 10.0000000  0  8G13G 2G15G18G 5G29G30G20
  20517279.808   107819032.01649       175.520    20517279.346    84014828.35448
       136.766  
  24674577.264   129665781.09945     -3338.058    24674578.308   101038270.20045
     -2601.085  
  20722638.575   108898199.90148      2170.023    20722639.158    84855743.35948
      1690.925  
  21189704.820   111352650.36948      2150.266    21189705.048    86768300.78947
      1675.526  
  21923077.848   115206551.95448     -2671.594    21923078.234    89771341.32547
     -2081.766  
  22411283.606   117772089.65348     -2919.347    22411284.208    91770461.96047
     -2274.820  
  23831652.213   125236178.15447      -212.766    23831655.031    97586642.31946
      -165.792  
  23511916.478   123555956.86847      3188.905    23511917.112    96277371.96345
      2484.859  
 20  9 26  5 27 15.0000000  0  8G13G 2G15G18G 5G29G30G20
  20517114.437   107818163.73649       172.094    20517114.006    84014151.78047
       134.097  
  24677754.080   129682475.69645     -3339.331    24677755.117   101051278.92244
     -2602.085  
  20720575.411   108887357.02748      2167.179    20720575.822    84847294.37548
      1688.707  
  21187660.125   111341905.01748      2148.159    21187660.276    86759927.79047
      1673.887  
  21925620.396   115219912.91248     -2672.676    21925620.715    89781752.45447
     -2082.609  
  22414062.490   117786692.25748     -2921.379    22414063.091    91781840.58347
     -2276.402  
  23831856.010   125237249.70947      -215.812    23831858.923    97587477.28845
      -168.168  
  23508882.443   123540012.47147      3188.836    23508882.928    96264947.76545
      2484.808  
 20  9 26  5 27 20.0000000  0  7G13G15G18G 5G29G30G20
  20516952.523   107817312.09049       168.988    20516952.096    84013488.16447
       131.675  
  20718514.531   108876527.77749      2165.012    20718515.154    84838856.00348
      1687.019  
  21185617.131   111331169.54248      2146.727    21185617.450    86751562.47847
      1672.770  
  21928164.050   115233279.40848     -2673.421    21928164.191    89792167.90947
     -2083.187  
  22416843.262   117801305.02948     -2923.148    22416843.916    91793227.15947
     -2277.781  
  23832062.898   125238336.10147      -218.379    23832065.505    97588323.83345
      -170.167  
  23505848.772   123524070.26847      3188.762    23505849.325    96252525.29345
      2484.750  
 20  9 26  5 27 25.0000000  0  7G13G15G18G 5G29G30G20
  20516793.269   107816475.48648       165.207    20516792.877    84012836.25147
       128.730  
  20716456.127   108865710.57748      2161.769    20716456.683    84830427.00348
      1684.492  
  21183575.817   111320442.27048      2144.004    21183576.074    86743203.60247
      1670.651  
  21930708.302   115246649.79048     -2674.929    21930708.624    89802586.40346
     -2084.362  
  22419625.566   117815926.22648     -2925.695    22419626.219    91804620.31946
     -2279.761  
  23832271.993   125239435.61846      -221.426    23832274.709    97589180.61045
      -172.543  
  23502815.119   123508128.56347      3187.644    23502815.786    96240103.21044
      2483.879  
 20  9 26  5 27 30.0000000  0  7G13G15G18G 5G29G30G20
  20516637.602   107815657.88848       161.511    20516637.325    84012199.19847
       125.852  
  20714400.777   108854909.35448      2158.555    20714401.160    84822010.48048
      1681.988  
  21181536.809   111309727.30648      2141.628    21181537.125    86734854.25947
      1668.796  
  21933254.269   115260028.09148     -2676.546    21933254.517    89813011.03847
     -2085.625  
  22422410.138   117830559.94048     -2927.969    22422410.945    91816023.18146
     -2281.542  
  23832484.585   125240552.45647      -225.129    23832487.159    97590050.84145
      -175.433  
  23499782.409   123492191.44047      3186.788    23499782.859    96227684.66145
      2483.211  
 20  9 26  5 27 35.0000000  0  7G13G15G18G 5G29G30G20
  20516485.554   107814858.80548       158.151    20516485.196    84011576.53347
       123.230  
  20712348.276   108844123.63948      2155.698    20712348.808    84813606.03347
      1679.761  
  21179500.084   111299024.02448      2139.602    21179500.398    86726514.04547
      1667.219  
  21935801.352   115273413.69848     -2677.519    21935801.618    89823441.39546
     -2086.382  
  22425197.196   117845205.56348     -2930.147    22425197.900    91827435.32846
     -2283.237  
  23832700.227   125241685.88247      -228.195    23832703.059    97590934.03945
      -177.816  
  23496750.463   123476258.23647      3186.530    23496750.956    96215269.18245
      2483.007  
 20  9 26  5 27 40.0000000  0  7G13G15G18G 5G29G30G20
  20516336.935   107814077.31248       154.991    20516336.489    84010967.57447
       120.769  
  20710298.625   108833352.49448      2152.645    20710298.901    84805212.94648
      1677.382  
  21177465.281   111288331.62548      2137.300    21177465.646    86718182.32847
      1665.426  
  21938349.776   115286805.79048     -2678.858    21938349.961    89833876.80846
     -2087.425  
  22427986.360   117859862.21548     -2932.191    22427987.037    91838856.09646
     -2284.828  
  23832919.094   125242835.15947      -231.511    23832921.590    97591829.60445
      -180.402  
  23493719.090   123460328.20047      3185.965    23493719.642    96202856.24044
      2482.570  
 20  9 26  5 27 45.0000000  0  7G13G15G18G 5G29G30G20
  20516191.362   107813312.72648       151.163    20516190.925    84010371.79647
       117.784  
  20708251.634   108822595.20449      2150.035    20708251.903    84796830.64448
      1675.348  
  21175432.560   111277649.41548      2135.355    21175432.842    86709858.49347
      1663.905  
  21940899.348   115300203.66348     -2680.102    21940899.509    89844316.68846
     -2088.394  
  22430777.389   117874529.17148     -2934.375    22430777.856    91850284.90947
     -2286.526  
  23833140.610   125243999.51647      -234.284    23833143.072    97592736.88345
      -182.562  
  23490688.068   123444400.63647      3185.562    23490688.746    96190445.10145
      2482.249  
 20  9 26  5 27 50.0000000  0  7G13G15G18G 5G29G30G20
  20516049.214   107812565.54748       147.745    20516048.805    84009789.58647
       115.124  
  20706207.312   108811852.40748      2147.008    20706207.634    84788459.63948
      1672.987  
  21173401.724   111266977.86248      2133.140    21173402.238    86701543.00547
      1662.184  
  21943450.061   115313607.71948     -2681.550    21943450.292    89854761.40747
     -2089.522  
  22433570.342   117889206.96048     -2936.668    22433571.088    91861722.13347
     -2288.316  
  23833365.174   125245179.51547      -237.664    23833367.742    97593656.36646
      -185.194  
  23487657.830   123428476.00447      3184.062    23487658.347    96178036.31145
      2481.089  
 20  9 26  5 27 55.0000000  0  7G13G15G18G 5G29G30G20
  20515910.307   107811835.67548       144.319    20515909.840    84009220.86247
       112.453  
  20704165.651   108801123.93548      2144.390    20704166.023    84780099.80547
      1670.949  
  21171373.010   111256316.90048      2131.215    21171373.340    86693235.78847
      1660.684  
  21946001.892   115327017.92948     -2682.734    21946002.035    89865210.92747
     -2090.444  
  22436365.585   117903895.46448     -2938.706    22436366.053    91873167.73547
     -2289.906  
  23833592.581   125246374.98347      -240.613    23833595.109    97594587.92946
      -187.491  
  23484627.991   123412554.18647      3184.008    23484628.471    96165629.72745
      2481.043  
 20  9 26  5 28  0.0000000  0  7G13G15G18G 5G29G30G20
  20515774.826   107811123.65849       139.969    20515774.561    84008666.00948
       109.059  
  20702127.035   108790410.40848      2140.558    20702127.358    84771751.59348
      1667.964  
  21169346.564   111245667.10048      2128.222    21169346.881    86684937.24847
      1658.359  
  21948555.104   115340434.83948     -2684.691    21948555.257    89875665.66347
     -2091.968  
  22439162.916   117918595.19648     -2941.840    22439163.487    91884622.04047
     -2292.352  
  23833823.224   125247586.48947      -244.577    23833825.643    97595531.95845
      -190.582  
  23481598.731   123396635.78447      3182.742    23481599.162    96153225.80445
      2480.059  
 20  9 26  5 28  5.0000000  0  8G13G 2G15G18G 5G29G30G20
  20515643.319   107810432.20648       136.858    20515642.946    84008127.25647
       106.645  
  24709561.782   129849630.13755     -3347.270    24709561.033   101181508.61154
     -2608.273  
  20700091.666   108779714.47248      2138.313    20700092.103    84763417.09548
      1666.214  
  21167322.592   111235031.18548      2126.680    21167322.867    86676649.49848
      1657.147  
  21951110.209   115353861.12749     -2685.398    21951110.191    89886127.69148
     -2092.522  
  22441962.724   117933308.87948     -2943.305    22441963.389    91896087.26346
     -2293.487  
  23834057.284   125248816.76147      -247.163    23834059.847    97596490.63945
      -192.593  
  23478570.767   123380723.53847      3182.980    23478571.124    96140826.68444
      2480.245  
 20  9 26  5 28 10.0000000  0  7G13G15G18G 5G29G30G20
  20515514.103   107809753.85949       134.039    20515513.773    84007598.69047
       104.445  
  20698058.196   108769028.63948      2135.770    20698058.545    84755090.48247
      1664.234  
  21165299.745   111224401.64648      2124.851    21165300.063    86668366.73547
      1655.726  
  21953665.497   115367289.29148     -2686.179    21953665.613    89896591.18747
     -2093.128  
  22444764.033   117948029.01748     -2944.898    22444764.486    91907557.47747
     -2294.729  
  23834293.620   125250058.34047      -249.949    23834296.196    97597458.07546
      -194.772  
  23475542.430   123364809.95647      3182.406    23475542.872    96128426.43745
      2479.792  
 20  9 26  5 28 15.0000000  0  8G13G 2G15G18G 5G29G30G20
  20515388.708   107809094.59348       129.358    20515388.238    84007084.95747
       100.797  
  24715931.829   129883092.77854     -3349.590    24715932.922   101207616.74454
     -2610.074  
  20696027.954   108758359.01848      2131.750    20696028.164    84746776.50647
      1661.101  
  21163279.383   111213784.54148      2121.604    21163279.715    86660093.65547
      1653.194  
  21956222.303   115380725.48848     -2688.581    21956222.285    89907060.98946
     -2094.987  
  22447567.463   117962761.57848     -2948.499    22447568.034    91919037.38046
     -2297.534  
  23834533.216   125251317.17947      -254.043    23834535.558    97598438.94046
      -197.960  
  23472515.062   123348900.97147      3180.608    23472515.404    96116029.83545
      2478.395  
 20  9 26  5 28 20.0000000  0  8G13G 2G15G18G 5G29G30G20
  20515266.542   107808452.82548       126.762    20515266.139    84006584.88646
        98.773  
  24719117.795   129899836.48346     -3348.901    24719119.172   101220663.75044
     -2609.542  
  20694000.199   108747703.87748      2129.988    20694000.475    84738473.80147
      1659.726  
  21161261.130   111203178.20648      2120.577    21161261.307    86651828.98746
      1652.394  
  21958780.254   115394167.98847     -2688.699    21958780.362    89917535.66645
     -2095.093  
  22450372.971   117977504.96647     -2949.383    22450373.537    91930525.72846
     -2298.223  
  23834775.657   125252591.65247      -256.030    23834778.327    97599432.03945
      -199.507  
  23469488.237   123332994.96047      3181.397    23469488.633    96103635.55945
      2479.011  
 20  9 26  5 28 25.0000000  0  8G13G 2G15G18G 5G29G30G20
  20515147.612   107807827.47048       123.597    20515147.198    84006097.59346
        96.309  
  24722304.963   129916582.94745     -3349.434    24722305.453   101233712.94344
     -2609.952  
  20691975.289   108737062.24748      2127.022    20691975.454    84730181.61947
      1657.417  
  21159244.583   111192581.71048      2118.085    21159244.850    86643571.96447
      1650.452  
  21961339.378   115407615.71547     -2690.077    21961339.402    89928014.47545
     -2096.159  
  22453180.560   117992258.03747     -2951.421    22453180.960    91942021.62346
     -2299.812  
  23835020.959   125253880.72246      -259.218    23835023.479    97600436.58543
      -201.984  
  23466461.972   123317091.07847      3180.429    23466462.132    96091242.91544
      2478.253  
 20  9 26  5 28 30.0000000  0  8G13G 2G15G18G 5G29G30G20
  20515031.731   107807218.41548       119.937    20515031.430    84005623.01347
        93.453  
  24725492.078   129933332.06645     -3350.547    24725493.809   101246764.19643
     -2610.820  
  20689952.645   108726433.99548      2123.863    20689952.875    84721899.87147
      1654.956  
  21157229.947   111181994.82248      2115.961    21157230.352    86635322.43247
      1648.797  
  21963899.372   115421068.51146     -2691.351    21963899.399    89938497.14345
     -2097.160  
  22455989.658   118007020.73147     -2953.851    22455990.396    91953525.01346
     -2301.706  
  23835269.082   125255184.33446      -262.538    23835271.510    97601452.38544
      -204.578  
  23463435.947   123301189.02047      3180.011    23463436.173    96078851.68445
      2477.930  
 20  9 26  5 28 35.0000000  0  8G13G 2G15G18G 5G29G30G20
  20514919.481   107806628.66348       115.906    20514919.081    84005163.46346
        90.313  
  24728679.813   129950086.78744     -3351.707    24728681.189   101259819.85843
     -2611.714  
  20687933.464   108715822.09348      2120.902    20687933.476    84713630.86147
      1652.648  
  21155217.771   111171420.57848      2113.784    21155218.050    86627082.76647
      1647.101  
  21966460.878   115434529.37646     -2693.047    21966461.004    89948986.11145
     -2098.479  
  22458801.444   118021796.01547     -2956.484    22458801.965    91965038.23246
     -2303.758  
  23835520.473   125256505.43346      -265.801    23835522.668    97602481.77344
      -207.124  
  23460410.673   123285291.84947      3178.991    23460411.159    96066464.28845
      2477.133  
 20  9 26  5 28 40.0000000  0  8G13G 2G15G18G 5G29G30G20
  20514810.463   107806055.76848       113.249    20514810.200    84004717.04846
        88.241  
  24731868.944   129966844.63244     -3351.698    24731870.059   101272877.84344
     -2611.719  
  20685916.718   108705224.14748      2118.503    20685916.786    84705372.72947
      1650.777  
  21153207.505   111160856.58948      2112.155    21153207.942    86618851.08547
      1645.831  
  21969023.354   115447995.87546     -2693.637    21969023.462    89959479.50945
     -2098.941  
  22461614.933   118036581.40647     -2957.621    22461615.560    91976559.30746
     -2304.645  
  23835774.744   125257841.60546      -268.492    23835776.901    97603522.94144
      -209.219  
  23457386.144   123269397.15547      3178.867    23457386.367    96054078.83445
      2477.038  
 20  9 26  5 28 45.0000000  0  7G13G15G18G 5G29G30G20
  20514704.672   107805499.93048       109.183    20514704.230    84004283.93146
        85.074  
  20683902.620   108694640.36548      2115.102    20683902.741    84697125.61547
      1648.128  
  21151199.350   111150303.03748      2109.551    21151199.570    86610627.54346
      1643.801  
  21971587.185   115461468.17746     -2695.394    21971587.201    89969977.40845
     -2100.313  
  22464430.531   118051377.15847     -2960.523    22464431.049    91988088.45246
     -2306.905  
  23836032.001   125259193.00246      -271.828    23836034.013    97604575.99145
      -211.816  
  23454361.985   123253505.12247      3177.758    23454362.279    96041695.44645
      2476.172  
 20  9 26  5 28 50.0000000  0  7G13G15G18G 5G29G30G20
  20514601.508   107804957.17348       106.862    20514601.191    84003861.00546
        83.266  
  20681890.469   108684066.81448      2113.109    20681890.654    84688886.48447
      1646.573  
  21149192.317   111139756.00948      2108.167    21149192.643    86602409.07747
      1642.726  
  21974151.189   115474942.39046     -2695.117    21974151.087    89980476.83945
     -2100.090  
  22467247.287   118066179.21847     -2961.565    22467247.806    91999622.50646
     -2307.718  
  23836291.192   125260555.74946      -274.425    23836293.269    97605637.91344
      -213.836  
  23451337.480   123237611.77447      3178.152    23451337.987    96029311.00945
      2476.479  
 20  9 26  5 28 55.0000000  0  7G13G15G18G 5G29G30G20
  20514502.001   107804434.54148       102.445    20514501.518    84003453.76846
        79.823  
  20679881.732   108673510.48748      2109.323    20679881.764    84680660.79247
      1643.625  
  21147187.755   111129222.49448      2105.218    21147188.177    86594201.15247
      1640.426  
  21976716.908   115488425.48846     -2697.448    21976716.954    89990983.13745
     -2101.909  
  22470066.520   118080994.67047     -2964.461    22470067.257    92011167.03046
     -2309.972  
  23836554.025   125261936.81646      -278.371    23836556.405    97606714.03643
      -216.914  
  23448314.275   123221724.16347      3176.784    23448314.667    96016931.08245
      2475.414  
 20  9 26  5 29  0.0000000  0  7G13G15G18G 5G29G30G20
  20514406.103   107803930.65448        98.938    20514405.755    84003061.13546
        77.090  
  20677876.030   108662970.04848      2106.637    20677876.039    84672447.46647
      1641.530  
  21145185.701   111118701.12948      2103.175    21145185.915    86586002.69547
      1638.835  
  21979284.175   115501916.13246     -2698.813    21979284.082    90001495.31845
     -2102.972  
  22472888.219   118095822.07747     -2966.684    22472888.649    92022720.84946
     -2311.702  
  23836820.040   125263334.76746      -281.019    23836822.250    97607803.34541
      -218.980  
  23445291.663   123205840.91547      3176.323    23445292.084    96004554.54645
      2475.055  
 20  9 26  5 29  5.0000000  0  7G13G15G18G 5G29G30G20
  20514313.433   107803443.42148        95.793    20514312.946    84002681.47346
        74.640  
  20675872.835   108652443.37548      2104.007    20675872.773    84664244.86147
      1639.483  
  21143185.335   111108189.85648      2101.281    21143185.827    86577812.10447
      1637.359  
  21981852.400   115515412.18446     -2699.746    21981852.247    90012011.71145
     -2103.702  
  22475711.609   118110659.34347     -2968.444    22475712.235    92034282.33446
     -2313.078  
  23837088.884   125264747.61645      -283.843    23837091.043    97608904.28941
      -221.180  
  23442269.622   123189959.95247      3176.047    23442270.038    95992179.77345
      2474.839  
 20  9 26  5 29 10.0000000  0  7G13G15G18G 5G29G30G20
  20514224.188   107802974.31148        92.073    20514223.515    84002315.92347
        71.741  
  20673872.461   108641931.99348      2100.891    20673872.694    84656054.18547
      1637.054  
  21141187.450   111097690.17648      2098.948    21141187.705    86569630.53647
      1635.542  
  21984421.930   115528915.12446     -2701.152    21984421.814    90022533.47045
     -2104.796  
  22478537.108   118125507.94047     -2970.851    22478537.728    92045852.66246
     -2314.953  
  23837360.786   125266176.78545      -287.718    23837362.818    97610017.97344
      -224.191  
  23439248.326   123174082.78047      3175.062    23439248.693    95979807.96645
      2474.069  
 20  9 26  5 29 15.0000000  0  7G13G15G18G 5G29G30G20
  20514137.035   107802516.00648        88.913    20514136.336    84001958.81347
        69.281  
  20671873.812   108631428.58348      2098.277    20671873.815    84647869.70447
      1635.020  
  21139190.117   111087194.71948      2097.250    21139190.521    86561452.27546
      1634.218  
  21986991.257   115542417.59246     -2701.781    21986991.138    90033054.85946
     -2105.289  
  22481363.555   118140360.51947     -2972.371    22481364.261    92057426.09246
     -2316.137  
  23837634.405   125267614.97245      -290.073    23837636.479    97611138.63442
      -226.034  
  23436226.464   123158202.00647      3174.929    23436226.826    95967433.33145
      2473.969  
 20  9 26  5 29 20.0000000  0  7G13G15G18G 5G29G30G20
  20514054.633   107802083.79248        84.413    20514054.227    84001622.03147
        65.773  
  20669879.541   108620948.46548      2094.210    20669879.592    84639703.38147
      1631.847  
  21137196.612   111076718.86948      2093.769    21137197.032    86553289.27047
      1631.504  
  21989563.446   115555934.97546     -2704.265    21989563.348    90043587.91244
     -2107.222  
  22484193.626   118155232.42447     -2975.793    22484194.148    92069014.60046
     -2318.805  
  23837912.798   125269077.50045      -294.507    23837914.958    97612278.20643
      -229.491  
  23433206.665   123142333.01147      3173.215    23433206.901    95955067.89845
      2472.632  
 20  9 26  5 29 25.0000000  0  7G13G15G18G 5G29G30G20
  20513975.871   107801669.30349        81.582    20513975.372    84001299.03747
        63.565  
  20667888.101   108610483.25049      2092.163    20667888.064    84631548.68748
      1630.254  
  21135205.366   111066254.30148      2092.301    21135205.754    86545135.07048
      1630.359  
  21992136.980   115569458.85948     -2704.851    21992136.833    90054125.96347
     -2107.683  
  22487025.769   118170115.28148     -2976.940    22487026.317    92080611.60947
     -2319.699  
  23838194.253   125270556.11947      -296.625    23838196.339    97613430.38346
      -231.141  
  23430187.456   123126467.46147      3172.979    23430188.001    95942705.19645
      2472.461  
 20  9 26  5 29 30.0000000  0  7G13G15G18G 5G29G30G20
  20513900.122   107801271.21049        77.944    20513899.427    84000988.80748
        60.734  
  20665899.147   108600031.44449      2089.073    20665899.213    84623404.42648
      1627.847  
  21133215.837   111055799.38448      2089.991    21133216.171    86536988.40447
      1628.563  
  21994711.474   115582987.82448     -2706.352    21994711.548    90064668.02147
     -2108.848  
  22489859.607   118185007.54448     -2979.394    22489860.145    92092215.94047
     -2321.612  
  23838478.361   125272049.02147      -299.883    23838480.405    97614593.71046
      -233.680  
  23427168.650   123110603.74947      3172.562    23427169.068    95930343.88845
      2472.128  
 20  9 26  5 29 35.0000000  0  7G13G15G18G 5G29G30G20
  20513827.424   107800889.92749        74.395    20513826.911    84000691.70948
        57.965  
  20663912.836   108589593.74849      2086.195    20663913.050    84615271.17248
      1625.605  
  21131228.212   111045354.84248      2087.937    21131228.555    86528849.79647
      1626.960  
  21997287.109   115596522.37848     -2707.499    21997287.009    90075214.41647
     -2109.741  
  22492695.355   118199909.78248     -2981.523    22492696.158    92103828.06747
     -2323.270  
  23838765.321   125273557.07247      -303.206    23838767.395    97615768.79446
      -236.269  
  23424150.371   123094742.58147      3172.055    23424150.724    95917984.52345
      2471.726  
 20  9 26  5 29 40.0000000  0  7G13G15G18G 5G29G30G20
  20513758.144   107800525.82749        71.073    20513757.565    84000407.99748
        55.379  
  20661929.395   108579170.47749      2083.194    20661929.569    84607149.14748
      1623.265  
  21129242.874   111034921.07048      2085.680    21129243.105    86520719.58447
      1625.203  
  21999863.693   115610062.85548     -2708.542    21999863.690    90085765.43247
     -2110.554  
  22495533.226   118214822.39248     -2983.504    22495533.887    92115448.27947
     -2324.813  
  23839055.159   125275080.55647      -306.047    23839057.373    97616955.92346
      -238.479  
  23421132.685   123078884.31847      3171.402    23421132.927    95905627.43244
      2471.219  
 20  9 26  5 29 45.0000000  0  7G13G15G18G 5G29G30G20
  20513692.085   107800178.56149        67.741    20513691.614    84000137.40848
        52.780  
  20659948.614   108568761.27749      2080.395    20659948.778    84599038.07748
      1621.082  
  21127259.254   111024497.63948      2083.691    21127259.623    86512597.43247
      1623.651  
  22002441.428   115623608.91148     -2709.792    22002441.334    90096320.79747
     -2111.530  
  22498372.765   118229744.96048     -2985.477    22498373.571    92127076.24747
     -2326.348  
  23839348.055   125276619.07747      -308.921    23839350.252    97618154.77746
      -240.722  
  23418115.367   123063028.51447      3171.285    23418115.735    95893272.28545
      2471.128  
 20  9 26  5 29 50.0000000  0  7G13G15G18G 5G29G30G20
  20513629.095   107799847.73149        64.351    20513628.601    83999879.63347
        50.141  
  20657970.324   108558365.70049      2077.679    20657970.438    84590937.63648
      1618.969  
  21125277.742   111014084.19048      2081.496    21125278.102    86504483.05947
      1621.941  
  22005020.295   115637160.13748     -2710.805    22005020.216    90106880.20047
     -2112.320  
  22501214.392   118244677.09048     -2987.398    22501214.964    92138711.68347
     -2327.848  
  23839643.586   125278172.25747      -312.184    23839646.022    97619365.06046
      -243.262  
  23415098.449   123047174.88047      3170.167    23415098.770    95880918.81945
      2470.258  
 20  9 26  5 29 55.0000000  0  7G13G15G18G 5G29G30G20
  20513569.727   107799535.25148        60.625    20513569.259    83999636.13747
        47.238  
  20655995.092   108547985.69148      2074.406    20655995.265    84582849.32247
      1616.418  
  21123298.309   111003682.57948      2079.144    21123298.551    86496377.90847
      1620.108  
  22007600.294   115650718.43647     -2712.398    22007600.300    90117445.11845
     -2113.558  
  22504057.937   118259620.64348     -2989.718    22504058.571    92150356.00046
     -2329.651  
  23839942.130   125279741.99246      -315.445    23839944.784    97620588.22244
      -245.804  
  23412082.469   123031325.23547      3169.511    23412082.744    95868568.44545
      2469.745  
 20  9 26  5 30  0.0000000  0  7G13G15G18G 5G29G30G20
  20513513.430   107799239.91048        57.559    20513513.058    83999406.03247
        44.847  
  20654022.710   108537620.06448      2071.749    20654022.769    84574772.21747
      1614.347  
  21121320.976   110993291.68748      2077.281    21121321.422    86488281.14747
      1618.659  
  22010181.474   115664282.59547     -2713.293    22010181.306    90128014.62545
     -2114.253  
  22506903.602   118274574.37448     -2991.457    22506904.346    92162008.22346
     -2331.012  
  23840243.932   125281327.10046      -318.397    23840246.533    97621823.39745
      -248.105  
  23409066.888   123015478.40647      3169.417    23409067.275    95856220.29144
      2469.676  
 20  9 26  5 30  5.0000000  0  7G13G15G18G 5G29G30G20
  20513460.521   107798961.24548        54.104    20513459.786    83999188.89447
        42.155  
  20652052.796   108527268.34948      2068.854    20652052.684    84566705.95347
      1612.093  
  21119345.740   110982911.06048      2074.941    21119346.015    86480192.34047
      1616.835  
  22012763.762   115677852.14447     -2714.414    22012763.554    90138588.28045
     -2115.133  
  22509750.995   118289537.89948     -2993.679    22509751.867    92173668.12646
     -2332.741  
  23840548.456   125282927.09946      -321.559    23840551.021    97623070.13445
      -250.566  
  23406051.670   122999633.98847      3168.655    23406052.024    95843873.99645
      2469.078  
 20  9 26  5 30 10.0000000  0  7G13G15G18G 5G29G30G20
  20513410.889   107798700.61648        50.206    20513410.175    83998985.80946
        39.121  
  20650085.716   108516931.90048      2065.781    20650085.792    84558651.57947
      1609.694  
  21117372.601   110972542.02448      2072.695    21117372.770    86472112.57546
      1615.085  
  22015347.188   115691428.45247     -2716.066    22015347.006    90149167.21345
     -2116.418  
  22512600.648   118304512.48748     -2995.991    22512601.274    92185336.62746
     -2334.543  
  23840855.994   125284543.35046      -324.905    23840858.460    97624329.57444
      -253.175  
  23403037.402   122983793.30647      3167.883    23403037.752    95831530.62245
      2468.477  
 20  9 26  5 30 15.0000000  0  7G13G15G18G 5G29G30G20
  20513364.672   107798457.08748        46.784    20513363.995    83998796.05247
        36.453  
  20648121.515   108506609.82648      2062.730    20648121.585    84550608.41647
      1607.320  
  21115401.382   110962183.69748      2070.437    21115401.760    86464041.15246
      1613.324  
  22017931.740   115705010.55147     -2717.059    22017931.473    90159750.67245
     -2117.191  
  22515452.223   118319497.24148     -2998.093    22515452.875    92197013.04946
     -2336.179  
  23841166.316   125286174.94746      -328.026    23841168.925    97625600.96943
      -255.609  
  23400023.550   122967955.47147      3167.051    23400024.056    95819189.44644
      2467.827  
 20  9 26  5 30 20.0000000  0  7G13G15G18G 5G29G30G20
  20513321.483   107798230.65949        43.605    20513320.797    83998619.57047
        33.973  
  20646160.136   108496302.11648      2060.179    20646160.094    84542576.43848
      1605.332  
  21113432.405   110951836.11848      2068.550    21113432.676    86455978.08447
      1611.854  
  22020517.444   115718598.42648     -2718.039    22020517.205    90170338.56147
     -2117.961  
  22518305.665   118334492.14848     -2999.762    22518306.254    92208697.41047
     -2337.480  
  23841479.713   125287821.95347      -330.964    23841482.544    97626884.31346
      -257.898  
  23397010.212   122952120.33647      3166.617    23397010.699    95806850.40845
      2467.496  
 20  9 26  5 30 25.0000000  0  7G13G15G18G 5G29G30G20
  20513281.703   107798021.58149        39.984    20513281.010    83998456.64848
        31.151  
  20644201.419   108486009.02149      2057.034    20644201.302    84534555.85848
      1602.883  
  21111465.346   110941499.43548      2066.132    21111465.578    86447923.51847
      1609.968  
  22023104.289   115732192.41448     -2719.586    22023104.165    90180931.29347
     -2119.160  
  22521161.041   118349497.47248     -3002.085    22521161.569    92220389.85547
     -2339.288  
  23841796.169   125289484.41047      -334.008    23841798.775    97628179.72746
      -260.270  
  23393997.441   122936288.24147      3165.987    23393997.884    95794513.71645
      2467.000  
 20  9 26  5 30 30.0000000  0  7G13G15G18G 5G29G30G20
  20513245.173   107797829.96049        36.871    20513244.639    83998307.34148
        28.726  
  20642245.385   108475730.68149      2054.421    20642245.416    84526546.77148
      1600.843  
  21109500.351   110931173.85148      2064.308    21109500.693    86439877.61248
      1608.550  
  22025692.280   115745792.55748     -2720.386    22025692.109    90191528.80447
     -2119.784  
  22524018.465   118364513.24148     -3004.058    22524019.108    92232090.43647
     -2340.827  
  23842115.450   125291162.61747      -337.188    23842118.149    97629487.41645
      -262.746  
  23390985.263   122920459.35847      3165.738    23390985.815    95782179.51745
      2466.804  
 20  9 26  5 30 35.0000000  0  7G13G15G18G 5G29G30G20
  20513212.054   107797655.48249        33.089    20513211.437    83998171.38447
        25.780  
  20640292.202   108465466.85249      2051.055    20640292.219    84518548.97448
      1598.223  
  21107537.646   110920859.11048      2061.813    21107537.979    86431840.15747
      1606.604  
  22028281.394   115759398.56648     -2721.933    22028281.265    90202130.90047
     -2120.992  
  22526877.815   118379539.19548     -3006.250    22526878.346    92243798.97447
     -2342.534  
  23842437.796   125292856.27747      -340.766    23842440.535    97630807.15646
      -265.535  
  23387973.647   122904633.46147      3164.652    23387974.159    95769847.66145
      2465.960  
 20  9 26  5 30 40.0000000  0  7G13G15G18G 5G29G30G20
  20513182.161   107797498.67348        29.512    20513181.646    83998049.23847
        22.996  
  20638341.871   108455217.91748      2048.229    20638341.934    84510562.81947
      1596.023  
  21105576.866   110910555.57748      2059.589    21105577.223    86423811.43947
      1604.870  
  22030871.668   115773010.89647     -2723.312    22030871.636    90212737.94645
     -2122.059  
  22529739.056   118394575.77448     -3008.386    22529739.763    92255515.78046
     -2344.199  
  23842763.037   125294565.67847      -343.496    23842765.844    97632139.14844
      -267.663  
  23384962.643   122888810.83947      3164.202    23384963.211    95757518.36544
      2465.612  
 20  9 26  5 30 45.0000000  0  7G13G15G18G 5G29G30G20
  20513155.738   107797359.06748        26.195    20513155.010    83997940.45047
        20.410  
  20636394.398   108444983.57048      2045.395    20636394.610    84502588.00747
      1593.812  
  21103618.172   110900262.98048      2057.382    21103618.659    86415791.25947
      1603.151  
  22033463.293   115786629.16247     -2724.172    22033463.199    90223349.58646
     -2122.734  
  22532602.417   118409622.55948     -3010.343    22532603.126    92267240.55246
     -2345.727  
  23843091.276   125296290.58747      -346.293    23843094.037    97633483.20345
      -269.847  
  23381952.389   122872991.28547      3163.551    23381952.857    95745191.46944
      2465.104  
 20  9 26  5 30 50.0000000  0  7G13G15G18G 5G29G30G20
  20513132.342   107797236.65248        22.672    20513131.784    83997845.06047
        17.664  
  20634449.608   108434763.72048      2042.262    20634449.710    84494624.49947
      1591.371  
  21101661.755   110889981.21748      2055.069    21101662.028    86407779.49647
      1601.351  
  22036055.884   115800253.32247     -2725.598    22036055.716    90233965.82245
     -2123.843  
  22535467.677   118424679.47348     -3012.570    22535468.442    92278973.20146
     -2347.460  
  23843422.344   125298030.92047      -349.917    23843425.191    97634839.34545
      -272.664  
  23378942.507   122857174.65647      3162.875    23378942.904    95732866.84044
      2464.574  
 20  9 26  5 30 55.0000000  0  7G13G15G18G 5G29G30G20
  20513112.201   107797130.93848        19.468    20513111.498    83997762.68047
        15.167  
  20632507.471   108424557.84548      2039.750    20632507.473    84486671.86448
      1589.414  
  21099707.068   110879709.80248      2053.210    21099707.380    86399775.78947
      1599.902  
  22038649.413   115813882.75147     -2726.422    22038649.446    90244586.15245
     -2124.487  
  22538334.808   118439746.00948     -3014.233    22538335.463    92290713.35846
     -2348.757  
  23843756.514   125299786.15647      -352.609    23843759.334    97636207.07744
      -274.765  
  23375933.196   122841360.46347      3162.375    23375933.685    95720544.09045
      2464.184  
 20  9 26  5 31  0.0000000  0  7G13G15G18G 5G29G30G20
  20513095.457   107797042.97648        15.808    20513094.883    83997694.14447
        12.316  
  20630568.349   108414367.06648      2036.691    20630568.432    84478731.00247
      1587.027  
  21097754.674   110869449.83648      2050.879    21097755.157    86391781.01347
      1598.086  
  22041244.277   115827518.66847     -2727.805    22041244.150    90255211.53145
     -2125.565  
  22541203.827   118454823.21048     -3016.348    22541204.444    92302461.82846
     -2350.401  
  23844093.526   125301557.38347      -355.772    23844096.312    97637587.25545
      -277.230  
  23372924.489   122825549.81947      3161.742    23372924.935    95708224.10644
      2463.691  
 20  9 26  5 31  5.0000000  0  7G13G15G18G 5G29G30G20
  20513082.145   107796972.61548        12.363    20513081.458    83997639.32847
         9.628  
  20628631.919   108404191.24748      2033.757    20628631.851    84470801.80748
      1584.741  
  21095804.535   110859201.19748      2048.609    21095804.837    86383795.05947
      1596.315  
  22043840.291   115841160.84447     -2728.976    22043840.106    90265841.78645
     -2126.477  
  22544074.790   118469910.97248     -3018.621    22544075.622    92314218.50946
     -2352.176  
  23844433.609   125303344.53047      -359.043    23844436.225    97638979.79945
      -279.781  
  23369916.535   122809742.60147      3161.191    23369916.716    95695906.79744
      2463.261  
 20  9 26  5 31 10.0000000  0  7G13G15G18G 5G29G30G20
  20513072.071   107796919.20849         9.136    20513071.215    83997597.66747
         7.112  
  20626698.142   108394029.74249      2030.913    20626698.194    84462883.74448
      1582.526  
  21093856.299   110848963.26848      2046.660    21093856.541    86375817.42448
      1594.792  
  22046437.396   115854808.68948     -2729.992    22046437.331    90276476.39747
     -2127.277  
  22546947.828   118485008.67048     -3020.516    22546948.529    92325982.92447
     -2353.655  
  23844776.508   125305146.88147      -361.960    23844779.359    97640384.24846
      -282.051  
  23366909.098   122793938.19547      3160.805    23366909.212    95683591.66345
      2462.961  
 20  9 26  5 31 15.0000000  0  7G13G15G18G 5G29G30G20
  20513065.226   107796883.17349         5.363    20513064.390    83997569.59548
         4.176  
  20624767.225   108383882.95349      2027.875    20624767.457    84454977.16648
      1580.159  
  21091910.163   110838736.41148      2044.281    21091910.466    86367848.44948
      1592.941  
  22049035.650   115868462.57548     -2731.340    22049035.539    90287115.80947
     -2128.320  
  22549822.769   118500116.58848     -3022.257    22549823.604    92337755.31647
     -2355.007  
  23845122.446   125306964.79947      -365.167    23845125.177    97641800.81546
      -284.550  
  23363902.055   122778136.85747      3159.754    23363902.248    95671278.96146
      2462.148  
 20  9 26  5 31 20.0000000  0  7G13G15G18G 5G29G30G20
  20513061.581   107796864.86749         2.105    20513060.969    83997555.33448
         1.637  
  20622839.353   108373751.26549      2025.015    20622839.417    84447082.35348
      1577.930  
  21089966.302   110828521.01248      2042.065    21089966.550    86359888.40648
      1591.218  
  22051635.024   115882122.78748     -2732.378    22051635.189    90297760.13147
     -2129.128  
  22552699.798   118515235.19648     -3024.863    22552700.679    92349536.04947
     -2357.039  
  23845471.425   125308798.69747      -368.367    23845474.158    97643229.80746
      -287.042  
  23360895.974   122762339.10647      3159.402    23360896.221    95658969.03245
      2461.867  
 20  9 26  5 31 25.0000000  0  7G13G15G18G 5G29G30G20
  20513061.368   107796863.21449        -1.559    20513060.746    83997554.04748
        -1.219  
  20620913.947   108363633.62249      2021.991    20620914.046    84439198.47048
      1575.573  
  21088024.327   110818316.02148      2039.879    21088024.604    86351936.46348
      1589.511  
  22054235.549   115895788.35548     -2733.809    22054235.568    90308408.62147
     -2130.242  
  22555578.561   118530363.32348     -3026.729    22555579.432    92361324.18747
     -2358.495  
  23845823.260   125310647.51147      -371.218    23845826.147    97644670.45346
      -289.265  
  23357890.094   122746543.88247      3158.472    23357890.480    95646661.08945
      2461.148  
 20  9 26  5 31 30.0000000  0  7G13G15G18G 5G29G30G20
  20513064.391   107796879.19649        -4.934    20513063.688    83997566.50248
        -3.847  
  20618991.592   108353531.01949      2019.035    20618991.605    84431326.33148
      1573.270  
  21086084.455   110808122.42548      2037.569    21086084.866    86343993.40447
      1587.714  
  22056837.216   115909460.20748     -2734.847    22056837.408    90319062.00447
     -2131.054  
  22558459.223   118545501.96048     -3028.750    22558460.115    92373120.51047
     -2360.065  
  23846178.128   125312512.19847      -374.261    23846180.971    97646123.46045
      -291.636  
  23354885.150   122730752.04447      3158.104    23354885.219    95634355.73445
      2460.858  
 20  9 26  5 31 35.0000000  0  7G13G15G18G 5G29G30G20
  20513070.672   107796912.32349        -8.272    20513070.046    83997592.31848
        -6.449  
  20617071.713   108343442.95449      2016.265    20617071.867    84423465.51248
      1571.113  
  21084146.687   110797939.75848      2035.379    21084147.078    86336058.86048
      1586.007  
  22059439.849   115923137.88748     -2736.133    22059440.001    90329719.93647
     -2132.055  
  22561341.998   118560650.60748     -3030.855    22561342.794    92384924.65747
     -2361.707  
  23846535.862   125314392.28947      -377.511    23846538.732    97647588.46446
      -294.167  
