     2.11           OBSERVATION DATA    M                   RINEX VERSION / TYPE
LEICA GEO OFFICE 8.4                    6-10-20 09:54       PGM / RUN BY / DATE
                                                            OBSERVER / AGENCY
KAM1                                                        MARKER NAME
KAM1                                                        MARKER NUMBER
468117              LEICA GX1220GG      5.60                REC # / TYPE / VERS
                    LEIAX1202GG                             ANT # / TYPE
 -1174572.0693  3824834.4734  4951588.9789                  APPROX POSITION XYZ
        1.4440        0.0000        0.0000                  ANTENNA: DELTA H/E/N
L1PhaOff:   0.0644  L2PhaOff:   0.0640                      COMMENT
     1     1                                                WAVELENGTH FACT L1/2
     6    C1    L1    D1    P2    L2    D2                  # / TYPES OF OBSERV
  2020     9    26     7    13   45.0000000     GPS         TIME OF FIRST OBS
  2020     9    26     8    52   25.0000000     GPS         TIME OF LAST OBS
    18                                                      LEAP SECONDS
    21                                                      # OF SATELLITES
          C1    L1    D1    P2    L2    D2                  COMMENT
   G 1     0     0     0     0     0     0                  PRN / # OF OBS
   G 2     0     0     0     0     0     0                  PRN / # OF OBS
   G 3     0     0     0     0     0     0                  PRN / # OF OBS
   G 4     0     0     0     0     0     0                  PRN / # OF OBS
   G 5     0     0     0     0     0     0                  PRN / # OF OBS
   G 6     0     0     0     0     0     0                  PRN / # OF OBS
   G 7     0     0     0     0     0     0                  PRN / # OF OBS
   G 8   401   401   401   220   220   220                  PRN / # OF OBS
   G 9     0     0     0     0     0     0                  PRN / # OF OBS
   G10  1185  1185  1185  1185  1185  1185                  PRN / # OF OBS
   G11    44    44    44    14    14    14                  PRN / # OF OBS
   G12     0     0     0     0     0     0                  PRN / # OF OBS
   G13   318   318   318   165   165   165                  PRN / # OF OBS
   G14     0     0     0     0     0     0                  PRN / # OF OBS
   G15  1171  1171  1171  1153  1153  1153                  PRN / # OF OBS
   G16     0     0     0     0     0     0                  PRN / # OF OBS
   G17     0     0     0     0     0     0                  PRN / # OF OBS
   G18  1185  1185  1185  1185  1185  1185                  PRN / # OF OBS
   G19     0     0     0     0     0     0                  PRN / # OF OBS
   G20  1185  1185  1185  1185  1185  1185                  PRN / # OF OBS
   G21   782   782   782   762   762   762                  PRN / # OF OBS
   G22     0     0     0     0     0     0                  PRN / # OF OBS
   G23     0     0     0     0     0     0                  PRN / # OF OBS
   G24  1182  1182  1182  1182  1182  1182                  PRN / # OF OBS
   G25     0     0     0     0     0     0                  PRN / # OF OBS
   G26     0     0     0     0     0     0                  PRN / # OF OBS
   G27   665   665   665   663   663   663                  PRN / # OF OBS
   G28     0     0     0     0     0     0                  PRN / # OF OBS
   G29     0     0     0     0     0     0                  PRN / # OF OBS
   G30     0     0     0     0     0     0                  PRN / # OF OBS
   G31     0     0     0     0     0     0                  PRN / # OF OBS
   G32   688   688   688   684   684   684                  PRN / # OF OBS
   R 1  1185  1185  1185  1185  1185  1185                  PRN / # OF OBS
   R 2   688   688   688   687   687   687                  PRN / # OF OBS
   R 3     0     0     0     0     0     0                  PRN / # OF OBS
   R 4     0     0     0     0     0     0                  PRN / # OF OBS
   R 5     0     0     0     0     0     0                  PRN / # OF OBS
   R 6     0     0     0     0     0     0                  PRN / # OF OBS
   R 7    86    86    86    50    50    50                  PRN / # OF OBS
   R 8  1152  1152  1152  1154  1154  1154                  PRN / # OF OBS
   R 9     0     0     0     0     0     0                  PRN / # OF OBS
   R10  1160  1160  1160     0     0     0                  PRN / # OF OBS
   R11   664   664   664   663   663   663                  PRN / # OF OBS
   R12     0     0     0     0     0     0                  PRN / # OF OBS
   R13     0     0     0     0     0     0                  PRN / # OF OBS
   R14     0     0     0     0     0     0                  PRN / # OF OBS
   R15     0     0     0     0     0     0                  PRN / # OF OBS
   R16     0     0     0     0     0     0                  PRN / # OF OBS
   R17  1143  1143  1143  1146  1146  1146                  PRN / # OF OBS
   R18    81    81    81    45    45    45                  PRN / # OF OBS
   R19     0     0     0     0     0     0                  PRN / # OF OBS
   R20     0     0     0     0     0     0                  PRN / # OF OBS
   R21     0     0     0     0     0     0                  PRN / # OF OBS
   R22     0     0     0     0     0     0                  PRN / # OF OBS
   R23   642   642   642   404   404   404                  PRN / # OF OBS
   R24  1126  1126  1126  1125  1125  1125                  PRN / # OF OBS
                                                            END OF HEADER
 20 09 26 07 13 45.0000000  0 12G15G20G18G24G27G10G13R10R 8R 1R24R23
  20485708.481   107653123.60748     -1689.191    20485706.612    83885544.69247
     -1316.258  
  20442285.233   107424933.92749      1568.354    20442283.211    83707727.37246
      1222.089  
  20711146.269   108837808.52248     -1572.121    20711144.772    84808675.48847
     -1225.035  
  21836096.201   114749464.53346      2817.499    21836099.485    89415183.01544
      2195.449  
  23844840.540   125305477.65646      -380.741    23844839.040    97640640.04042
      -296.694  
  23060187.280   121182104.06749      2949.730    23060188.487    94427620.72646
      2298.491  
  22611163.749   118822485.70745     -3134.676    22611151.543    92588885.50251
     -2442.605  
  22159123.937   118120608.03406      3341.538           0.000           0.0000 
         0.000  
  19567210.111   104781520.47308     -1013.128    19567212.445    81496744.57206
      -787.991  
  20112781.529   107514344.15808      1917.355    20112787.592    83622294.36406
      1491.277  
  20293838.933   108520281.35109        72.843    20293843.720    84404679.96107
        56.655  
  20641881.223   110420145.64305     -3093.292    20641888.115    85882362.06605
     -2405.894  
 20 09 26 07 13 50.0000000  0 12G15G20G18G24G27G10G13R10R 8R 1R24R23
  20487317.273   107661577.80248     -1692.469    20487315.362    83892132.37747
     -1318.812  
  20440794.533   107417100.18449      1565.438    20440792.516    83701623.16347
      1219.816  
  20712644.062   108845679.44148     -1576.008    20712642.489    84814808.67347
     -1228.062  
  21833416.924   114735384.83446      2814.391    21833419.759    89404211.89244
      2193.039  
  23845204.625   125307391.43546      -384.840    23845203.474    97642131.24541
      -299.890  
  23057381.369   121167359.06049      2948.309    23057382.540    94416131.12146
      2297.383  
  22614147.064   118838163.59944     -3136.601    22614138.368    92601116.08454
     -2444.104  
  22155991.512   118103909.66406      3337.781           0.000           0.0000 
         0.000  
  19568157.609   104786594.28308     -1016.102    19568159.839    81500690.87206
      -790.300  
  20110989.623   107504765.20608      1914.516    20110995.660    83614844.07406
      1489.065  
  20293773.436   108519931.01209        67.382    20293778.144    84404407.47207
        52.406  
  20644774.465   110435622.31906     -3097.409    20644781.198    85894399.46005
     -2409.104  
 20 09 26 07 13 55.0000000  0 12G15G20G18G24G27G10G13R10R 8R 1R24R23
  20488926.872   107670036.11048     -1692.566    20488924.907    83898723.26047
     -1318.886  
  20439304.256   107409268.75549      1565.550    20439302.275    83695520.75146
      1219.906  
  20714143.214   108853557.53948     -1576.944    20714141.587    84820947.44447
     -1228.793  
  21830738.280   114721308.96546      2814.254    21830740.924    89393243.66445
      2192.925  
  23845570.415   125309313.64346      -385.695    23845568.775    97643629.09041
      -300.550  
  23054574.642   121152609.67749      2949.711    23054575.714    94404638.10946
      2298.477  
  22617129.721   118853839.75404     -3135.676           0.000           0.0000 
         0.000  
  22152859.851   118087216.11706      3337.977           0.000           0.0000 
         0.000  
  19569105.729   104791671.14208     -1016.227    19569107.861    81504639.53807
      -790.401  
  20109198.079   107495188.37808      1914.645    20109204.129    83607395.42306
      1489.163  
  20293710.841   108519596.10309        64.895    20293715.497    84404146.97807
        50.469  
  20647669.703   110451108.01506     -3098.563    20647675.976    85906443.90205
     -2409.991  
 20 09 26 07 14  0.0000000  0 12G15G20G18G24G27G10G13R10R 8R 1R24R23
  20490539.632   107678511.19348     -1696.952    20490537.616    83905327.21847
     -1322.305  
  20437816.827   107401452.32849      1561.464    20437814.851    83689430.03146
      1216.727  
  20715646.109   108861455.49648     -1581.797    20715644.493    84827101.69047
     -1232.573  
  21828062.757   114707249.62546      2810.050    21828065.228    89382288.35544
      2189.647  
  23845940.355   125311257.00546      -390.726    23845938.175    97645143.37541
      -304.472  
  23051769.497   121137868.56949      2947.215    23051770.437    94393151.52946
      2296.530  
  22620114.817   118869526.97845     -3138.762    22620115.876    92625593.00954
     -2445.789  
  22149731.455   118070540.41306      3333.132           0.000           0.0000 
         0.000  
  19570056.827   104796764.00808     -1020.496    19570058.938    81508600.64706
      -793.722  
  20107409.287   107485626.38208      1910.598    20107415.384    83599958.32206
      1486.019  
  20293653.539   108519289.52409        58.226    20293658.164    84403908.52507
        45.284  
  20650568.804   110466615.59406     -3103.925    20650574.848    85918505.34705
     -2414.167  
 20 09 26 07 14  5.0000000  0 12G15G20G18G24G27G10G13R10R 8R 1R24R23
  20492155.405   107687002.04348     -1699.285    20492153.371    83911943.46547
     -1324.120  
  20436332.086   107393649.92949      1559.433    20436330.121    83683350.24546
      1215.144  
  20717152.619   108869372.35448     -1584.839    20717151.005    84833270.66747
     -1234.945  
  21825390.294   114693205.95246      2807.749    21825392.891    89371345.20844
      2187.854  
  23846314.035   125313220.54847      -394.382    23846311.464    97646673.33943
      -307.331  
  23048965.760   121123134.80349      2946.438    23048966.574    94381670.68046
      2295.926  
  22623101.858   118885224.14045     -3139.464    22623105.166    92637833.62351
     -2446.336  
  22146606.220   118053881.34106      3330.535           0.000           0.0000 
         0.000  
  19571010.698   104801871.85208     -1022.765    19571012.833    81512573.42806
      -795.483  
  20105623.141   107476078.47408      1908.519    20105629.330    83592532.18706
      1484.401  
  20293601.355   108519010.19309        53.613    20293605.914    84403691.27107
        41.695  
  20653471.655   110482144.01206     -3107.214    20653477.577    85930582.99505
     -2416.727  
 20 09 26 07 14 10.0000000  0 12G15G20G18G24G27G10G13R10R 8R 1R24R23
  20493773.683   107695505.96748     -1701.890    20493771.575    83918569.89947
     -1326.152  
  20434849.527   107385858.84349      1557.473    20434847.496    83677279.27146
      1213.613  
  20718662.173   108877305.36348     -1587.809    20718660.576    84839452.23147
     -1237.258  
  21822720.186   114679175.06846      2805.351    21822722.671    89360412.07444
      2185.987  
  23846691.056   125315201.49347      -397.664    23846688.696    97648217.04141
      -309.851  
  23046162.919   121108405.65049      2945.598    23046163.619    94370193.42446
      2295.269  
  22626090.119   118900928.68305     -3141.051           0.000           0.0000 
         0.000  
  22143483.670   118037236.48306      3328.063           0.000           0.0000 
         0.000  
  19571966.764   104806991.63408     -1024.711    19571968.968    81516555.48007
      -796.995  
  20103839.161   107466541.82408      1906.621    20103845.437    83585114.79306
      1482.925  
  20293553.785   108518755.41009        48.839    20293558.288    84403493.09607
        37.984  
  20656377.865   110497690.56006     -3111.011    20656383.704    85942674.75305
     -2419.675  
 20 09 26 07 14 15.0000000  0 12G15G20G18G24G27G10G13R10R 8R 1R24R23
  20495393.758   107704019.29848     -1704.050    20495391.584    83925203.65847
     -1327.835  
  20433368.431   107378075.47449      1555.597    20433366.325    83671214.31046
      1212.148  
  20720174.121   108885250.89148     -1590.839    20720172.520    84845643.54547
     -1239.620  
  21820051.927   114665153.58247      2803.090    21820054.175    89349486.27844
      2184.229  
  23847070.768   125317196.27047      -400.683    23847068.768    97649771.30943
      -312.230  
  23043360.245   121093677.46449      2945.202    23043360.848    94358716.92146
      2294.965  
  22629079.221   118916636.86305     -3142.250           0.000           0.0000 
         0.000  
  22140363.123   118020602.11806      3324.898           0.000           0.0000 
         0.000  
  19572924.455   104812120.12308     -1026.789    19572926.775    81520544.30307
      -798.613  
  20102056.505   107457012.66308      1904.762    20102062.947    83577703.22506
      1481.479  
  20293510.120   108518521.47409        44.289    20293514.528    84403311.15307
        34.444  
  20659286.976   110513251.43506     -3113.816    20659292.362    85954777.63105
     -2421.858  
 20 09 26 07 14 20.0000000  0 13G15G20G18G24G27G10G13R10R 8R 1R24R23
                                R17
  20497016.353   107712545.87548     -1706.418    20497014.122    83931847.74247
     -1329.680  
  20431889.532   107370303.65149      1553.496    20431887.332    83665158.33146
      1210.511  
  20721689.159   108893212.71948     -1593.641    20721687.620    84851847.56247
     -1241.801  
  21817386.158   114651145.40346      2800.956    21817388.343    89338570.82944
      2182.565  
  23847453.819   125319208.68347      -404.206    23847451.837    97651339.41542
      -314.969  
  23040558.469   121078954.09449      2944.426    23040559.040    94347244.17146
      2294.358  
  22632069.817   118932352.45905     -3143.534           0.000           0.0000 
         0.000  
  22137245.374   118003981.92106      3322.816           0.000           0.0000 
         0.000  
  19573884.399   104817260.60908     -1029.145    19573886.837    81524542.45907
      -800.445  
  20100276.105   107447495.06008      1902.656    20100282.583    83570300.65806
      1479.844  
  20293471.060   108518312.23109        39.648    20293475.361    84403148.41107
        30.835  
  20662199.494   110528830.60106     -3117.590    20662204.508    85966894.77505
     -2424.792  
  22771392.947   121854322.57515      3551.562           0.000           0.0000 
         0.000  
 20 09 26 07 14 25.0000000  0 13G15G20G18G24G27G10G13R10R 8R 1R24R23
                                R17
  20498641.048   107721083.63848     -1709.042    20498638.806    83938500.55147
     -1331.723  
  20430412.466   107362541.33349      1551.145    20430410.155    83659109.78946
      1208.684  
  20723206.916   108901188.86448     -1597.183    20723205.435    84858062.73347
     -1244.563  
  21814722.577   114637148.31646      2797.765    21814724.706    89327663.99445
      2180.073  
  23847839.813   125321236.66147      -407.387    23847837.995    97652919.51041
      -317.473  
  23037757.208   121064233.52449      2943.511    23037757.727    94335773.60546
      2293.644  
  22635061.260   118948073.53404     -3145.273           0.000           0.0000 
         0.000  
  22134129.916   117987374.14806      3320.051           0.000           0.0000 
         0.000  
  19574846.304   104822411.69208     -1031.742    19574848.868    81528548.84707
      -802.469  
  20098497.410   107437986.76208      1900.409    20098503.897    83562905.31506
      1478.093  
  20293436.255   108518125.73909        34.624    20293440.438    84403003.34808
        26.926  
  20665114.859   110544425.83306     -3120.929    20665119.763    85979024.38205
     -2427.397  
  22768075.282   121836571.54905      3547.992    22768084.072    94761807.90914
      2759.547  
 20 09 26 07 14 30.0000000  0 13G15G20G18G24G27G10G13R10R 8R 1R24R23
                                R17
  20500268.325   107729634.81848     -1711.284    20500266.108    83945163.80047
     -1333.473  
  20428937.624   107354790.76649      1549.082    20428935.193    83653070.37746
      1207.073  
  20724727.772   108909181.51648     -1600.077    20724726.416    84864290.76947
     -1246.815  
  21812061.523   114623164.44446      2795.499    21812063.665    89316767.50745
      2178.315  
  23848229.198   125323282.45347      -410.921    23848227.676    97654513.78141
      -320.190  
  23034956.902   121049517.97749      2942.828    23034957.418    94324306.96546
      2293.113  
  22638054.225   118963802.29845     -3146.336    22638057.751    92699039.36651
     -2451.691  
  22131017.019   117970780.81106      3317.616           0.000           0.0000 
         0.000  
  19575810.516   104827575.09908     -1033.831    19575813.223    81532564.85207
      -804.090  
  20096720.882   107428490.13708      1898.313    20096727.377    83555519.04306
      1476.464  
  20293406.093   108517964.10209        30.078    20293410.182    84402877.63507
        23.390  
  20668033.772   110560039.55007     -3124.367    20668038.566    85991168.34705
     -2430.070  
  22764762.122   121818834.87905      3546.047    22764768.614    94748012.63204
      2758.022  
 20 09 26 07 14 35.0000000  0 13G15G20G18G24G27G10G13R10R 8R 1R24R23
                                R17
  20501897.619   107738196.78448     -1713.925    20501895.433    83951835.45747
     -1335.530  
  20427464.542   107347049.29449      1547.065    20427461.931    83647038.05247
      1205.503  
  20726251.276   108917188.02548     -1603.030    20726250.005    84870529.61347
     -1249.117  
  21809402.478   114609191.35146      2793.206    21809404.434    89305879.39845
      2176.527  
  23848621.491   125325343.37346      -414.233    23848619.126    97656119.76542
      -322.776  
  23032157.071   121034804.79249      2942.003    23032157.560    94312842.14046
      2292.469  
  22641048.234   118979535.88905     -3147.563           0.000           0.0000 
         0.000  
  22127906.313   117954199.44005      3314.831           0.000           0.0000 
         0.000  
  19576776.574   104832748.38608     -1036.078    19576779.372    81536588.51507
      -805.844  
  20094946.029   107419002.40708      1896.276    20094952.491    83548139.72006
      1474.883  
  20293380.098   108517824.72309        25.449    20293384.110    84402769.22907
        19.788  
  20670955.531   110575668.80306     -3127.598    20670960.263    86003324.47505
     -2432.570  
  22761449.266   121801109.86604      3543.550    22761456.881    94734226.51704
      2756.090  
 20 09 26 07 14 40.0000000  0 13G15G20G18G24G27G10G13R10R 8R 1R24R23
                                R17
  20503529.174   107746770.69948     -1716.386    20503527.023    83958516.42247
     -1337.449  
  20425993.417   107339318.16849      1544.905    20425990.629    83641013.78847
      1203.820  
  20727777.651   108925209.61648     -1606.151    20727776.501    84876780.20247
     -1251.547  
  21806745.791   114595230.17747      2790.929    21806747.474    89295000.56244
      2174.750  
  23849016.889   125327420.73746      -417.605    23849014.188    97657738.41743
      -325.398  
  23029357.943   121020095.21749      2941.308    23029358.366    94301380.15846
      2291.930  
  22644043.307   118995275.75904     -3148.570           0.000           0.0000 
         0.000  
  22124798.115   117937631.18005      3312.183           0.000           0.0000 
         0.000  
  19577744.697   104837932.57808     -1038.386    19577747.588    81540620.66507
      -807.636  
  20093173.100   107409524.89808      1894.254    20093179.519    83540768.31906
      1473.305  
  20293358.506   108517708.81909        20.586    20293362.450    84402679.08007
        16.011  
  20673880.543   110591315.14607     -3131.276    20673885.166    86015493.85305
     -2435.437  
  22758139.495   121783397.92304      3540.117    22758146.856    94720450.60204
      2753.433  
 20 09 26 07 14 45.0000000  0 13G15G20G18G24G27G10G13R10R 8R 1R24R23
                                R17
  20505163.432   107755358.90748     -1718.819    20505161.342    83965208.52847
     -1339.343  
  20424524.689   107331599.70249      1542.441    20424521.764    83634999.40346
      1201.901  
  20729307.347   108933248.63048     -1609.445    20729306.313    84883044.37047
     -1254.113  
  21804091.847   114581283.35746      2787.773    21804093.341    89284132.92344
      2172.289  
  23849415.778   125329516.75546      -421.418    23849412.821    97659371.69142
      -328.382  
  23026559.957   121005391.60649      2940.254    23026560.345    94289922.79446
      2291.101  
  22647040.076   119011024.16805     -3151.108           0.000           0.0000 
         0.000  
  22121692.929   117921078.50905      3308.862           0.000           0.0000 
         0.000  
  19578715.273   104843130.25008     -1040.577    19578718.248    81544663.30607
      -809.340  
  20091402.546   107400059.96008      1891.733    20091408.890    83533406.69806
      1471.343  
  20293341.736   108517618.79909        15.417    20293345.647    84402609.06807
        11.992  
  20676809.107   110606980.77206     -3134.926    20676813.731    86027678.21205
     -2438.281  
  22754832.752   121765701.40904      3537.641    22754839.864    94706686.65404
      2751.500  
 20 09 26 07 14 50.0000000  0 13G15G20G18G24G27G10G13R10R 8R 1R24R23
                                R17
  20506799.937   107763958.73448     -1721.066    20506797.857    83971909.68747
     -1341.093  
  20423057.839   107323891.22749      1540.813    20423054.739    83628992.80846
      1200.632  
  20730839.855   108941302.35848     -1612.023    20730838.902    84889320.00247
     -1256.124  
  21801440.083   114567348.18546      2785.875    21801441.415    89273274.35645
      2170.812  
  23849817.729   125331628.77346      -423.953    23849814.900    97661017.44941
      -330.343  
  23023762.580   120990691.25748      2939.730    23023762.985    94278467.97846
      2290.695  
  22650037.952   119026778.30204     -3150.937           0.000           0.0000 
         0.000  
  22118589.991   117904538.66605      3306.844           0.000           0.0000 
         0.000  
  19579687.845   104848338.55008     -1042.620    19579690.840    81548714.20907
      -810.926  
  20089633.837   107390604.91308      1890.097    20089640.120    83526052.77006
      1470.070  
  20293329.305   108517551.95209        11.171    20293333.184    84402557.07808
         8.687  
  20679740.821   110622662.90007     -3137.832    20679745.366    86039875.40905
     -2440.539  
  22751528.052   121748017.66305      3535.801    22751535.469    94692932.67405
      2750.070  
 20 09 26 07 14 55.0000000  0 12G15G20G18G24G27G10G13R10R 8R 1R24R23
  20508438.463   107772569.24448     -1723.199    20508436.362    83978619.18847
     -1342.753  
  20421592.719   107316191.84749      1538.952    20421589.459    83622993.29246
      1199.183  
  20732374.997   108949369.95848     -1614.948    20732374.137    84895606.44147
     -1258.401  
  21798790.389   114553423.76246      2783.698    21798791.634    89262424.16545
      2169.112  
  23850222.559   125333755.97946      -426.973    23850219.796    97662674.99241
      -332.727  
  23020965.634   120975993.33549      2939.355    23020966.056    94267015.05146
      2290.402  
  22653036.789   119042537.29405     -3151.949           0.000           0.0000 
         0.000  
  22115489.375   117888010.61005      3304.391           0.000           0.0000 
         0.000  
  19580662.247   104853556.61408     -1044.515    19580665.251    81552772.69107
      -812.405  
  20087866.824   107381158.87608      1888.237    20087873.068    83518705.85806
      1468.629  
  20293321.034   108517507.31809         6.726    20293324.873    84402522.35808
         5.226  
  20682675.462   110638360.65607     -3141.046    20682679.954    86052084.76705
     -2443.039  
 20 09 26 07 15  0.0000000  0 12G15G20G18G24G27G10G13R10R 8R 1R24R23
  20510079.374   107781192.16748     -1725.604    20510077.218    83985338.34447
     -1344.633  
  20420129.626   107308503.26949      1536.793    20420126.239    83617002.18546
      1197.495  
  20733913.130   108957453.02648     -1618.038    20733912.300    84901904.92947
     -1260.813  
  21796143.129   114539511.84447      2780.991    21796144.251    89251583.73044
      2167.012  
  23850630.591   125335899.95546      -430.016    23850627.366    97664345.64443
      -335.077  
  23018169.475   120961299.45149      2938.563    23018169.923    94255565.29346
      2289.789  
  22656037.018   119058303.04545     -3153.703    22656047.900    92772730.20451
     -2457.430  
  22112391.269   117871496.27105      3301.702           0.000           0.0000 
         0.000  
  19581638.782   104858786.19408     -1046.991    19581641.832    81556840.14807
      -814.328  
  20086101.761   107371723.38408      1886.183    20086107.972    83511367.14506
      1467.031  
  20293317.228   108517486.62109         1.926    20293321.033    84402506.25808
         1.492  
  20685613.137   110654075.61207     -3144.319    20685617.799    86064307.51905
     -2445.582  
 20 09 26 07 15  5.0000000  0 12G15G20G18G24G27G10G13R10R 8R 1R24R23
  20511722.362   107789825.97048     -1727.519    20511720.143    83992066.00047
     -1346.116  
  20418668.309   107300824.03149      1535.168    20418664.821    83611018.35946
      1196.229  
  20735453.936   108965550.11248     -1620.449    20735453.164    84908214.35547
     -1262.687  
  21793497.916   114525610.72047      2779.245    21793498.913    89240751.69945
      2165.648  
  23851041.505   125338059.26046      -433.206    23851038.148    97666028.19544
      -337.559  
  23015373.802   120946608.18449      2938.301    23015374.367    94244117.55147
      2289.585  
  22659038.075   119074073.76845     -3154.199    22659042.869    92785019.10141
     -2457.816  
  22109295.431   117854994.24805      3299.504           0.000           0.0000 
         0.000  
  19582617.158   104864025.79508     -1048.613    19582620.280    81560915.38007
      -815.594  
  20084338.416   107362297.07508      1884.698    20084344.610    83504035.57806
      1465.879  
  20293317.598   108517488.34909        -2.336    20293321.401    84402507.60508
        -1.819  
  20688553.716   110669806.44906     -3147.238    20688558.650    86076542.59205
     -2447.854  
 20 09 26 07 15 10.0000000  0 13G15G20G18G24G27G10G13R10R 8R 1R24R23
                                R17
  20513367.531   107798471.35948     -1730.746    20513365.273    83998802.65947
     -1348.636  
  20417208.878   107293154.79049      1532.550    20417205.346    83605042.33246
      1194.195  
  20736997.589   108973661.90448     -1624.203    20736996.810    84914535.23147
     -1265.612  
  21790854.920   114511721.33647      2776.148    21790855.869    89229928.84645
      2163.238  
  23851455.421   125340234.52647      -437.315    23851451.697    97667723.23643
      -340.765  
  23012578.741   120931920.19549      2936.702    23012579.468    94232672.37747
      2288.339  
  22662040.375   119089850.36904     -3155.773           0.000           0.0000 
         0.000  
  22106202.034   117838504.98005      3296.152           0.000           0.0000 
         0.000  
  19583597.608   104869276.09208     -1051.496    19583600.680    81564998.95907
      -817.831  
  20082576.947   107352880.66908      1881.965    20082583.122    83496711.70706
      1463.749  
  20293322.319   108517513.09409        -7.668    20293326.046    84402526.85808
        -5.964  
  20691497.447   110685553.67407     -3151.570    20691502.497    86088790.44105
     -2451.226  
  22738331.842   121677405.82614      3524.895    22738340.340    94638018.18914
      2741.586  
 20 09 26 07 15 15.0000000  0 13G15G20G18G24G27G10G13R10R 8R 1R24R23
                                R17
  20515015.430   107807131.10048     -1733.391    20515013.182    84005550.50847
     -1350.694  
  20415751.888   107285498.38249      1529.827    20415748.321    83599076.31046
      1192.073  
  20738544.578   108981791.19848     -1627.858    20738543.769    84920869.74147
     -1268.464  
  21788214.720   114497846.37047      2773.479    21788215.528    89219117.18644
      2161.151  
  23851872.925   125342428.64846      -440.655    23851869.490    97669432.83844
      -343.386  
  23009784.845   120917238.29649      2935.565    23009785.745    94221231.95247
      2287.453  
  22665044.066   119105635.49304     -3157.461           0.000           0.0000 
         0.000  
  22103111.425   117822031.54305      3293.124           0.000           0.0000 
         0.000  
  19584580.546   104874539.83408     -1054.422    19584583.601    81569092.98007
      -820.108  
  20080817.805   107343476.92008      1879.328    20080824.004    83489397.69306
      1461.698  
  20293331.873   108517563.93209       -13.086    20293335.539    84402566.40208
       -10.184  
  20694444.783   110701320.21406     -3155.245    20694450.007    86101053.28205
     -2454.090  
  22735039.717   121659787.65804      3521.507    22735048.028    94624315.15404
      2738.948  
 20 09 26 07 15 20.0000000  0 13G15G20G18G24G27G10G13R10R 8R 1R24R23
                                R17
  20516665.500   107815802.24348     -1735.140    20516663.263    84012307.25147
     -1352.059  
  20414296.781   107277851.87149      1528.440    20414293.244    83593117.98146
      1190.987  
  20740094.333   108989935.03048     -1630.008    20740093.488    84927215.57847
     -1270.140  
  21785576.752   114483983.03647      2771.586    21785577.485    89208314.58745
      2159.672  
  23852293.485   125344638.61546      -443.574    23852289.590    97671154.98441
      -345.629  
  23006991.556   120902559.56049      2935.604    23006992.604    94209793.97747
      2287.484  
  22668048.971   119121426.31405     -3158.883           0.000           0.0000 
         0.000  
  22100023.323   117805570.94305      3290.651           0.000           0.0000 
         0.000  
  19585565.466   104879814.03308     -1055.727    19585568.481    81573195.12907
      -821.124  
  20079060.478   107334082.90908      1877.961    20079066.696    83482091.23206
      1460.633  
  20293345.725   108517637.69509       -16.913    20293349.339    84402623.76907
       -13.159  
  20697395.148   110717103.08207     -3157.964    20697400.568    86113328.84605
     -2456.195  
  22731750.061   121642182.23305      3520.136    22731757.881    94610622.03905
      2737.879  
 20 09 26 07 15 25.0000000  0 13G15G20G18G24G27G10G13R10R 8R 1R24R23
                                R17
  20518318.526   107824488.98448     -1739.352    20518316.317    84019076.13947
     -1355.344  
  20412844.348   107270219.44049      1524.559    20412840.872    83587170.63746
      1187.965  
  20741647.673   108998097.60248     -1634.979    20741646.789    84933576.02747
     -1274.015  
  21782941.789   114470135.43047      2767.397    21782942.509    89197524.23945
      2156.414  
  23852717.916   125346868.67246      -448.417    23852714.007    97672892.65143
      -349.425  
  23004199.707   120887888.23149      2932.883    23004200.844    94198361.78147
      2285.363  
  22671055.784   119137226.91205     -3161.715           0.000           0.0000 
         0.000  
  22096938.574   117789127.46305      3285.934           0.000           0.0000 
         0.000  
  19586553.194   104885103.11808     -1059.906    19586556.155    81577308.84907
      -824.374  
  20077305.744   107324702.88108      1874.211    20077312.001    83474795.66906
      1457.719  
  20293364.675   108517738.77709       -23.495    20293368.249    84402702.38908
       -18.276  
  20700349.395   110732906.43906     -3163.487    20700354.935    86125620.36905
     -2460.491  
  22728463.501   121624593.71604      3515.715    22728470.863    94596942.13005
      2734.449  
 20 09 26 07 15 30.0000000  0 13G15G20G18G24G27G10G13R10R 8R 1R24R23
                                R17
  20519973.813   107833187.54848     -1740.074    20519971.671    84025854.25447
     -1355.902  
  20411393.903   107262597.36049      1524.214    20411390.462    83581231.35646
      1187.698  
  20743203.834   109006275.16148     -1636.226    20743202.928    84939948.15347
     -1274.979  
  21780309.123   114456299.83347      2766.805    21780309.819    89186743.25445
      2155.949  
  23853145.354   125349114.93346      -449.695    23853141.267    97674642.95841
      -350.421  
  23001408.546   120873220.48749      2933.996    23001409.767    94186932.38047
      2286.229  
  22674063.606   119153033.53105     -3161.354           0.000           0.0000 
         0.000  
  22093856.274   117772697.19305      3285.418           0.000           0.0000 
         0.000  
  19587542.981   104890403.29108     -1060.246    19587545.910    81581431.20507
      -824.641  
  20075552.911   107315333.08008      1873.711    20075559.224    83467508.04506
      1457.308  
  20293388.009   108517863.37009       -26.280    20293391.548    84402799.29108
       -20.445  
  20703306.738   110748726.35606     -3165.168    20703312.355    86137924.72105
     -2461.801  
  22725179.423   121607018.36004      3514.901    22725186.288    94583272.42305
      2733.812  
 20 09 26 07 15 35.0000000  0 13G15G20G18G24G27G10G13R10R 8R 1R24R23
                                R17
  20521628.558   107841883.41648     -1739.323    20521626.490    84032630.24447
     -1355.319  
  20409942.686   107254971.10049      1525.277    20409939.271    83575288.81546
      1188.523  
  20744760.095   109014453.11948     -1635.973    20744759.149    84946320.58747
     -1274.788  
  21777676.041   114442461.79747      2767.500    21777676.569    89175960.37645
      2156.491  
  23853573.127   125351362.99246      -450.304    23853569.167    97676394.73244
      -350.882  
  22998615.336   120858541.81649      2936.433    22998616.617    94175494.46147
      2288.125  
  22677069.906   119168831.48904     -3158.816           0.000           0.0000 
         0.000  
  22090773.675   117756265.39505      3285.984           0.000           0.0000 
         0.000  
  19588532.006   104895699.28508     -1059.241    19588534.898    81585550.30307
      -823.859  
  20073799.243   107305958.62408      1875.026    20073805.567    83460216.80006
      1458.351  
  20293412.949   108517996.48209       -27.835    20293416.434    84402902.82508
       -21.651  
  20706264.320   110764548.26706     -3165.331    20706270.196    86150230.63905
     -2461.929  
  22721894.953   121589441.31006      3515.292    22721901.473    94569601.36905
      2734.113  
 20 09 26 07 15 40.0000000  0 13G15G20G18G24G27G10G13R10R 8R 1R24R23
                                R17
  20523285.866   107850592.81648     -1744.448    20523283.880    84039416.78947
     -1359.316  
  20408493.767   107247356.91849      1520.464    20408490.380    83569355.69147
      1184.772  
  20746319.548   109022647.78648     -1641.703    20746318.564    84952706.03747
     -1279.253  
  21775045.514   114428637.57047      2762.444    21775046.047    89165188.29845
      2152.559  
  23854004.118   125353628.99146      -455.878    23854000.230    97678160.48943
      -355.233  
  22995823.143   120843868.52849      2932.940    22995824.467    94164060.72947
      2285.409  
  22680077.526   119184637.26503     -3163.293           0.000           0.0000 
         0.000  
  22087694.073   117739848.79205      3280.813           0.000           0.0000 
         0.000  
  19589523.444   104901008.23308     -1064.124    19589526.320    81589679.48007
      -827.656  
  20072047.839   107296596.08308      1870.164    20072054.170    83452934.82006
      1454.565  
  20293442.606   108518154.88409       -35.375    20293446.034    84403026.02808
       -27.515  
  20709225.480   110780388.63106     -3170.683    20709231.498    86162550.92405
     -2466.085  
  22718613.223   121571879.23205      3509.477    22718619.445    94555942.01205
      2729.598  
 20 09 26 07 15 45.0000000  0 12G15G20G18G24G27G10R10R 8R 1R24R23R17
  20524947.357   107859324.38248     -1747.578    20524945.540    84046220.60547
     -1361.749  
  20407048.797   107239763.48849      1517.488    20407045.459    83563438.73246
      1182.457  
  20747883.805   109030867.79148     -1645.612    20747882.804    84959111.24547
     -1282.297  
  21772419.269   114414835.80747      2759.086    21772419.738    89154433.65644
      2149.934  
  23854440.281   125355921.69946      -460.285    23854436.934    97679946.93543
      -358.676  
  22993033.620   120829209.23449      2931.340    22993034.961    94152637.91647
      2284.160  
  22084618.764   117723456.03905      3277.187           0.000           0.0000 
         0.000  
  19590518.913   104906338.67308     -1067.316    19590521.742    81593825.37807
      -830.136  
  20070300.293   107287254.32408      1867.144    20070306.625    83445669.01506
      1452.222  
  20293478.592   108518347.25709       -41.020    20293481.987    84403175.65508
       -31.901  
  20712191.586   110796256.04906     -3175.163    20712197.893    86174892.27105
     -2469.569  
  22715336.004   121554340.92405      3506.038    22715341.746    94542301.11105
      2726.918  
 20 09 26 07 15 50.0000000  0 12G15G20G18G24G27G10R10R 8R 1R24R23R17
  20526611.553   107868070.32348     -1750.413    20526609.898    84053035.62447
     -1363.965  
  20405606.278   107232183.00149      1515.023    20405602.987    83557531.86146
      1180.534  
  20749451.385   109039105.29548     -1648.891    20749450.387    84965530.08047
     -1284.855  
  21769795.846   114401048.75147      2756.004    21769796.218    89143690.50345
      2147.534  
  23854880.026   125358233.22745      -463.371    23854876.940    97681748.12442
      -361.069  
  22990245.295   120814556.14249      2930.348    22990246.630    94141219.92047
      2283.386  
  22081546.529   117707079.29605      3274.281           0.000           0.0000 
         0.000  
  19591516.913   104911682.57808     -1069.879    19591519.678    81597981.74607
      -832.133  
  20068555.166   107277925.30808      1864.714    20068561.440    83438413.11606
      1450.332  
  20293519.456   108518565.68109       -46.069    20293522.832    84403345.53608
       -35.836  
  20715161.398   110812142.75806     -3178.688    20715167.871    86187248.59105
     -2472.315  
  22712061.745   121536818.42206      3502.710    22712067.020    94528672.51805
      2724.336  
 20 09 26 07 15 55.0000000  0 12G15G20G18G24G27G10R10R 8R 1R24R23R17
  20528277.669   107876826.38448     -1752.234    20528276.180    84059858.51847
     -1365.383  
  20404165.414   107224611.23649      1513.426    20404162.165    83551631.78246
      1179.289  
  20751021.462   109047356.07348     -1651.608    20751020.444    84971959.26247
     -1286.969  
  21767174.327   114387271.98547      2754.305    21767174.714    89132955.37945
      2146.214  
  23855322.593   125360559.37146      -466.965    23855319.133    97683560.67641
      -363.875  
  22987457.336   120799905.04049      2929.914    22987458.668    94129803.49247
      2283.050  
  22078476.518   117690714.18805      3271.909           0.000           0.0000 
         0.000  
  19592516.552   104917035.75208     -1071.382    19592519.329    81602145.32007
      -833.301  
  20066811.571   107268604.79308      1863.117    20066817.815    83431163.82606
      1449.090  
  20293564.409   108518805.84409       -50.289    20293567.765    84403532.32508
       -39.116  
  20718133.968   110828044.35006     -3181.882    20718140.600    86199616.51205
     -2474.797  
  22708789.727   121519307.50506      3500.550    22708794.380    94515052.95105
      2722.656  
 20 09 26 07 16  0.0000000  0 12G15G20G18G24G27G10R10R 8R 1R24R23R17
  20529945.788   107885593.03548     -1754.585    20529944.425    84066689.67047
     -1367.214  
  20402726.284   107217048.56149      1511.426    20402723.022    83545738.79447
      1177.734  
  20752594.132   109055620.51148     -1654.598    20752593.083    84978399.08147
     -1289.300  
  21764554.852   114373505.98447      2751.866    21764555.180    89122228.60944
      2144.308  
  23855767.933   125362900.46146      -469.812    23855765.214    97685384.86543
      -366.089  
  22984669.812   120785256.28149      2929.324    22984671.141    94118388.87847
      2282.590  
  22075408.620   117674361.32005      3268.995           0.000           0.0000 
         0.000  
  19593517.994   104922398.40008     -1073.862    19593520.760    81606316.27407
      -835.226  
  20065069.631   107259293.19008      1861.129    20065075.871    83423921.46606
      1447.538  
  20293613.471   108519068.10909       -54.921    20293616.842    84403736.31608
       -42.718  
  20721109.410   110843961.27006     -3184.992    20721116.175    86211996.33805
     -2477.218  
  22705519.845   121501808.45406      3498.574    22705524.068    94501442.57605
      2721.113  
 20 09 26 07 16  5.0000000  0 12G15G20G18G24G27G10R10R 8R 1R24R23R17
  20531616.353   107894372.22448     -1756.726    20531615.033    84073530.59547
     -1368.879  
  20401289.248   107209497.00849      1509.534    20401286.056    83539854.46947
      1176.258  
  20754169.763   109063900.60048     -1657.038    20754168.655    84984851.09947
     -1291.198  
  21761937.819   114359752.91747      2749.844    21761938.110    89111511.92645
      2142.730  
  23856216.544   125365258.58645      -472.843    23856213.797    97687222.42343
      -368.453  
  22981883.119   120770611.92349      2928.715    22981884.428    94106977.69547
      2282.117  
  22072343.362   117658022.48605      3266.862           0.000           0.0000 
         0.000  
  19594521.684   104927772.98708     -1075.573    19594524.443    81610496.51607
      -836.559  
  20063329.741   107249992.57508      1859.551    20063335.924    83416687.65606
      1446.312  
  20293667.072   108519354.64509       -59.289    20293670.463    84403959.17808
       -46.112  
  20724088.027   110859895.58106     -3188.015    20724095.020    86224389.67605
     -2479.569  
  22702252.628   121484323.51206      3495.629    22702256.365    94487843.21505
      2718.827  
 20 09 26 07 16 10.0000000  0 12G15G20G18G24G27G10R10R 8R 1R24R23R17
  20533288.724   107903161.21848     -1759.065    20533287.440    84080379.16647
     -1370.703  
  20399853.809   107201953.94249      1507.530    20399850.682    83533976.76146
      1174.698  
  20755747.902   109072193.74849     -1660.226    20755746.706    84991313.29847
     -1293.688  
  21759322.681   114346010.11747      2747.340    21759322.933    89100803.27345
      2140.784  
  23856667.867   125367631.05245      -476.394    23856664.180    97689071.04141
      -371.227  
  22979096.739   120755969.33549      2928.164    22979098.038    94095567.89247
      2281.687  
  22069280.255   117641695.12205      3264.370           0.000           0.0000 
         0.000  
  19595526.943   104933156.38508     -1077.957    19595529.723    81614683.59907
      -838.414  
  20061591.428   107240700.23308      1857.128    20061597.510    83409460.28306
      1444.433  
  20293724.667   108519662.59709       -64.073    20293728.082    84404198.69908
       -49.836  
  20727069.410   110875844.40706     -3191.272    20727076.542    86236794.33605
     -2482.101  
  22698987.489   121466849.90206      3493.230    22698990.800    94474252.62805
      2716.957  
 20 09 26 07 16 15.0000000  0 13G15G20G18G24G27G10G13R10R 8R 1R24R23
                                R17
  20534965.685   107911974.23948     -1764.757    20534964.433    84087246.45447
     -1375.136  
  20398422.674   107194433.56349      1502.069    20398419.616    83528116.72346
      1170.440  
  20757331.237   109080514.10049     -1666.449    20757329.977    84997796.68347
     -1298.534  
  21756712.176   114332291.72547      2741.637    21756712.379    89090113.61844
      2136.339  
  23857124.722   125370032.02805      -482.526           0.000           0.0000 
         0.000  
  22976313.378   120741342.70949      2924.026    22976314.685    94084170.52747
      2278.461  
  22701179.476   119295502.32314     -3175.577           0.000           0.0000 
         0.000  
  22066222.157   117625393.83405      3257.753           0.000           0.0000 
         0.000  
  19596536.620   104938563.28708     -1083.227    19596539.385    81618888.96307
      -842.512  
  20059857.350   107231430.49408      1851.875    20059863.264    83402250.48905
      1440.344  
  20293789.016   108520006.54609       -72.062    20293792.440    84404466.21608
       -56.051  
  20730056.313   110891822.38506     -3198.375    20730063.494    86249221.62405
     -2487.633  
  22695727.279   121449402.17406      3487.128    22695730.171    94460682.17705
      2712.210  
 20 09 26 07 16 20.0000000  0 13G15G20G18G24G27G10G13R10R 8R 1R24R23
                                R17
  20536646.500   107920807.35748     -1767.452    20536645.221    84094129.40347
     -1377.233  
  20396995.101   107186931.99149      1499.636    20396992.147    83522271.35047
      1168.547  
  20758918.987   109088857.75549     -1669.789    20758917.684    85004298.23647
     -1301.137  
  21754105.557   114318593.88347      2738.660    21754105.732    89079439.99145
      2134.019  
  23857586.187   125372457.63605      -485.902           0.000           0.0000 
         0.000  
  22973532.325   120726728.14249      2922.933    22973533.604    94072782.56047
      2277.608  
  22704201.866   119311385.30904     -3177.456           0.000           0.0000 
         0.000  
  22063168.284   117609114.62605      3254.878           0.000           0.0000 
         0.000  
  19597549.924   104943989.45108     -1085.922    19597552.616    81623109.31306
      -844.605  
  20058126.788   107222179.49408      1849.598    20058132.524    83395055.27206
      1438.573  
  20293859.331   108520382.42609       -77.097    20293862.770    84404758.56708
       -59.968  
  20733047.764   110907825.22807     -3201.660    20733055.066    86261668.28605
     -2490.179  
  22692470.983   121431976.20106      3484.125    22692473.510    94447128.64805
      2709.875  
 20 09 26 07 16 25.0000000  0 13G15G20G18G24G27G10G13R10R 8R 1R24R23
                                R17
  20538322.540   107929615.35148     -1758.269    20538321.227    84100992.77647
     -1370.086  
  20395562.528   107179403.98949      1508.995    20395559.678    83516405.37747
      1175.836  
  20760502.538   109097179.46349     -1661.453    20760501.176    85010782.68147
     -1294.644  
  21751494.213   114304871.33547      2747.484    21751494.402    89068747.09445
      2140.898  
  23858043.764   125374862.68845      -478.305    23858038.782    97694692.12351
      -372.711  
  22970744.963   120712080.39349      2933.491    22970746.207    94061368.72947
      2285.840  
  22707218.479   119327237.37744     -3167.034    22707226.621    92982306.26251
     -2467.820  
  22060109.807   117592811.47505      3264.191           0.000           0.0000 
         0.000  
  19598558.307   104949389.20408     -1076.726    19598560.892    81627309.12407
      -837.452  
  20056391.093   107212901.21108      1859.133    20056396.693    83387838.82406
      1445.987  
  20293927.023   108520744.31209       -70.316    20293930.466    84405040.03108
       -54.694  
  20736035.391   110923807.11306     -3193.554    20736042.694    86274098.63505
     -2483.878  
  22689210.120   121414526.10106      3493.171    22689212.474    94433556.37905
      2716.913  
 20 09 26 07 16 30.0000000  0 12G15G20G18G24G27G10R10R 8R 1R24R23R17
  20539999.718   107938429.10648     -1767.573    20539998.303    84107860.62147
     -1377.335  
  20394130.816   107171880.41349      1500.124    20394128.050    83510542.85146
      1168.930  
  20762087.800   109105510.07249     -1671.176    20762086.384    85017274.06447
     -1302.218  
  21748884.037   114291155.04847      2738.558    21748884.441    89058059.08145
      2133.941  
  23858503.197   125377277.96345      -488.340    23858502.740    97696574.10641
      -380.523  
  22967957.161   120697430.33449      2926.160    22967958.372    94049953.10347
      2280.125  
  22057052.762   117576515.76305      3254.305           0.000           0.0000 
         0.000  
  19599567.548   104954793.48508     -1085.563    19599570.042    81631512.44806
      -844.331  
  20054656.222   107203627.11108      1850.144    20054661.630    83380625.63605
      1438.999  
  20293997.938   108521123.46409       -81.819    20294001.370    84405334.93008
       -63.641  
  20739024.884   110939799.38306     -3203.625    20739032.286    86286537.06005
     -2491.711  
  22685950.580   121397083.33306      3483.714    22685952.813    94419989.76905
      2709.555  
 20 09 26 07 16 35.0000000  0 12G15G20G18G24G27G10R10R 8R 1R24R23R17
  20541689.616   107947309.64048     -1778.030    20541688.082    84114780.51446
     -1385.483  
  20392711.538   107164422.37149      1489.801    20392708.878    83504731.39246
      1160.878  
  20763686.393   109113910.64349     -1682.479    20763684.936    85023819.96047
     -1311.026  
  21746286.597   114277506.06647      2727.801    21746287.135    89047423.51745
      2125.554  
  23858976.181   125379764.48346      -499.844    23858976.480    97698511.74343
      -389.488  
  22965180.506   120682839.03649      2917.206    22965181.715    94038583.25347
      2273.145  
  22054008.676   117560289.51105      3243.574           0.000           0.0000 
         0.000  
  19600589.298   104960264.91008     -1096.167    19600591.733    81635768.00107
      -852.574  
  20052933.729   107194419.24208      1839.612    20052938.979    83373463.95305
      1430.805  
  20294083.677   108521582.16609       -94.902    20294087.147    84405691.68708
       -73.815  
  20742027.891   110955864.09906     -3215.379    20742035.431    86299031.84105
     -2500.852  
  22682703.932   121379709.96005      3472.430    22682706.118    94406477.12305
      2700.772  
 20 09 26 07 16 40.0000000  0 12G15G20G18G24G27G10R10R 8R 1R24R23R17
  20543379.224   107956188.65348     -1774.347    20543377.596    84121699.23146
     -1382.609  
  20391291.756   107156961.51949      1493.921    20391289.172    83498917.74646
      1164.093  
  20765285.271   109122312.86549     -1679.242    20765283.820    85030367.15447
     -1308.500  
  21743689.049   114263855.95347      2731.683    21743689.602    89036787.05245
      2128.582  
  23859449.758   125382254.02046      -496.629    23859451.623    97700451.53043
      -387.000  
  22962402.052   120668238.19549      2922.621    22962403.263    94027205.98747
      2277.366  
  22050964.535   117544063.27705      3246.875           0.000           0.0000 
         0.000  
  19601610.597   104965733.73508     -1092.159    19601612.909    81640021.53906
      -849.457  
  20051210.600   107185208.06708      1843.941    20051215.720    83366299.71605
      1434.176  
  20294171.298   108522050.75009       -93.230    20294174.724    84406056.15008
       -72.511  
  20745031.450   110971931.71206     -3212.476    20745039.072    86311528.87305
     -2498.597  
  22679457.289   121362336.48606      3476.031    22679459.421    94392964.47105
      2703.586  
 20 09 26 07 16 45.0000000  0 13G15G20G18G24G27G10G13R10R 8R 1R24R23
                                R17
  20545067.574   107965060.96348     -1775.316    20545065.798    84128612.72747
     -1383.363  
  20389870.481   107149492.70449      1493.184    20389868.003    83493097.89146
      1163.519  
  20766883.482   109130711.55249     -1680.738    20766882.045    85036911.58447
     -1309.671  
  21741090.345   114250199.73147      2730.503    21741090.848    89026145.84045
      2127.659  
  23859923.065   125384741.39246      -498.617    23859925.724    97702389.77143
      -388.523  
  22959620.784   120653622.66049      2923.102    22959622.019    94015817.25647
      2277.742  
  22719318.135   119390821.99515     -3178.964           0.000           0.0000 
         0.000  
  22047919.552   117527831.98905      3244.976           0.000           0.0000 
         0.000  
  19602630.389   104971194.64008     -1092.836    19602632.633    81644268.90607
      -849.988  
  20049485.843   107175988.31908      1843.386    20049490.915    83359128.79805
      1433.741  
  20294259.791   108522524.14509       -96.602    20294263.184    84406424.35007
       -75.133  
  20748034.731   110987997.11406     -3214.516    20748042.282    86324024.17605
     -2500.183  
  22676209.673   121344957.73905      3474.808    22676211.785    94379447.69305
      2702.633  
 20 09 26 07 16 50.0000000  0 13G15G20G18G24G27G10G13R10R 8R 1R24R23
                                R17
  20546758.041   107973944.30348     -1777.992    20546756.172    84135534.80747
     -1385.452  
  20388451.066   107142033.68749      1490.569    20388448.723    83487285.67646
      1161.484  
  20768484.408   109139124.47649     -1684.223    20768482.993    85043467.10747
     -1312.386  
  21738493.823   114236555.00847      2727.711    21738494.339    89015513.60045
      2125.487  
  23860399.360   125387244.33946      -502.582    23860400.787    97704340.13843
      -391.620  
  22956840.099   120639010.15249      2921.984    22956841.352    94004430.88847
      2276.870  
  22722344.075   119406720.26205     -3180.156           0.000           0.0000 
         0.000  
  22044877.024   117511613.63605      3242.577           0.000           0.0000 
         0.000  
  19603652.122   104976665.78708     -1095.386    19603654.337    81648524.23407
      -851.972  
  20047762.904   107166778.19008      1840.851    20047767.917    83351965.36205
      1431.769  
  20294352.597   108523020.36209      -101.734    20294355.934    84406810.29507
       -79.124  
  20751040.829   111004078.20906     -3218.430    20751048.443    86336531.69705
     -2503.226  
  22672964.432   121327591.70505      3471.690    22672966.495    94365940.77205
      2700.202  
 20 09 26 07 16 55.0000000  0 13G15G20G18G24G27G10G13R10R 8R 1R24R23
                                R17
  20548451.105   107982841.32148     -1780.316    20548449.165    84142467.55347
     -1387.258  
  20387034.014   107134587.09349      1488.405    20387031.781    83481483.12946
      1159.797  
  20770088.543   109147554.25849     -1687.253    20770087.142    85050035.76847
     -1314.746  
  21735900.009   114222924.51948      2724.862    21735900.489    89004892.43745
      2123.265  
  23860879.109   125389765.43546      -505.499    23860880.831    97706304.61743
      -393.898  
  22954060.525   120624403.36449      2921.172    22954061.736    93993048.98547
      2276.237  
  22725371.924   119422626.40306     -3181.808           0.000           0.0000 
         0.000  
  22041837.472   117495411.01806      3239.312           0.000           0.0000 
         0.000  
  19604676.280   104982149.91808     -1097.754    19604678.504    81652789.66407
      -853.812  
  20046042.211   107157580.22508      1838.780    20046047.210    83344811.39006
      1430.159  
  20294450.133   108523541.96309      -106.371    20294453.408    84407215.98408
       -82.737  
  20754050.473   111020177.71206     -3221.312    20754058.020    86349053.52005
     -2505.469  
  22669722.040   121310241.20305      3468.910    22669724.122    94352445.96105
      2698.046  
 20 09 26 07 17  0.0000000  0 13G15G20G18G24G27G10G13R10R 8R 1R24R23
                                R17
  20550145.517   107991745.41848     -1780.976    20550143.543    84149405.80947
     -1387.772  
  20385618.057   107127146.37849      1488.148    20385615.924    83475685.17946
      1159.597  
  20771694.638   109155994.31749     -1688.395    20771693.255    85056612.43847
     -1315.637  
  21733307.669   114209301.74448      2724.480    21733308.159    88994277.28145
      2122.968  
  23861361.120   125392298.16846      -506.800    23861363.370    97708278.19244
      -394.917  
  22951280.745   120609795.70649      2922.137    22951281.991    93981666.39347
      2276.987  
  22728399.347   119438533.74206     -3181.031           0.000           0.0000 
         0.000  
  22038799.494   117479217.44805      3238.499           0.000           0.0000 
         0.000  
  19605701.598   104987640.20408     -1097.843    19605703.858    81657059.88707
      -853.883  
  20044322.581   107148387.97008      1838.543    20044327.623    83337661.85906
      1429.972  
  20294551.225   108524082.35709      -109.366    20294554.419    84407636.29008
       -85.065  
  20757062.313   111036288.90207     -3222.867    20757069.785    86361584.44805
     -2506.679  
  22666481.303   121292899.48605      3468.675    22666483.454    94338957.99305
      2697.862  
 20 09 26 07 17  5.0000000  0 13G15G20G18G24G27G10G13R10R 8R 1R24R23
                                R17
  20551842.223   108000661.54548     -1785.534    20551840.217    84156353.43547
     -1391.328  
  20384204.205   107119716.47349      1483.534    20384202.068    83469895.64747
      1156.000  
  20773303.606   109164449.59049     -1693.766    20773302.249    85063200.96547
     -1319.816  
  21730717.739   114195691.57148      2719.586    21730718.219    88983671.97045
      2119.155  
  23861846.247   125394847.46946      -512.327    23861847.643    97710264.64644
      -399.218  
  22948501.771   120595192.10349      2919.145    22948503.027    93970286.96747
      2274.655  
  22731428.030   119454447.23606     -3184.362           0.000           0.0000 
         0.000  
  22035764.322   117463037.90306      3233.074           0.000           0.0000 
         0.000  
  19606728.997   104993141.72008     -1102.800    19606731.286    81661338.83507
      -857.738  
  20042604.939   107139206.25408      1834.073    20042610.046    83330520.52606
      1426.503  
  20294656.740   108524646.53309      -116.410    20294659.900    84408075.09207
       -90.547  
  20760077.268   111052416.75306     -3228.476    20760084.643    86374128.33905
     -2511.038  
  22663243.149   121275571.68905      3463.112    22663245.412    94325480.80406
      2693.527  
 20 09 26 07 17 10.0000000  0 13G15G20G18G24G27G10G13R10R 8R 1R24R23
                                R17
  20553542.120   108009594.43748     -1787.413    20553540.164    84163314.12347
     -1392.793  
  20382793.276   107112302.14749      1482.164    20382791.193    83464118.25447
      1154.933  
  20774916.361   109172924.83549     -1696.124    20774915.102    85069805.04847
     -1321.660  
