     2.11           OBSERVATION DATA    M                   RINEX VERSION / TYPE
LEICA GEO OFFICE 8.4                    1-10-20 22:39       PGM / RUN BY / DATE
                                                            OBSERVER / AGENCY
KUCH                                                        MARKER NAME
KUCH                                                        MARKER NUMBER
468588              LEICA GX1220GG      5.60                REC # / TYPE / VERS
                    LEIAX1202GG                             ANT # / TYPE
 -1265372.8433  3799786.9380  4948587.6037                  APPROX POSITION XYZ
        1.6800        0.0000        0.0000                  ANTENNA: DELTA H/E/N
L1PhaOff:   0.0644  L2PhaOff:   0.0640                      COMMENT
     1     1                                                WAVELENGTH FACT L1/2
     6    C1    L1    D1    P2    L2    D2                  # / TYPES OF OBSERV
  2020    10     1     7    25   10.0000000     GPS         TIME OF FIRST OBS
  2020    10     1     9     0   55.0000000     GPS         TIME OF LAST OBS
    18                                                      LEAP SECONDS
    21                                                      # OF SATELLITES
          C1    L1    D1    P2    L2    D2                  COMMENT
   G 1     0     0     0     0     0     0                  PRN / # OF OBS
   G 2     0     0     0     0     0     0                  PRN / # OF OBS
   G 3     0     0     0     0     0     0                  PRN / # OF OBS
   G 4     0     0     0     0     0     0                  PRN / # OF OBS
   G 5     0     0     0     0     0     0                  PRN / # OF OBS
   G 6     0     0     0     0     0     0                  PRN / # OF OBS
   G 7     0     0     0     0     0     0                  PRN / # OF OBS
   G 8   128   128   128   128   128   128                  PRN / # OF OBS
   G 9     0     0     0     0     0     0                  PRN / # OF OBS
   G10  1150  1150  1150  1150  1150  1150                  PRN / # OF OBS
   G11   135   135   135    81    81    81                  PRN / # OF OBS
   G12   262   262   262   260   260   260                  PRN / # OF OBS
   G13   111   111   111    92    92    92                  PRN / # OF OBS
   G14     0     0     0     0     0     0                  PRN / # OF OBS
   G15  1134  1134  1134  1132  1132  1132                  PRN / # OF OBS
   G16     0     0     0     0     0     0                  PRN / # OF OBS
   G17     0     0     0     0     0     0                  PRN / # OF OBS
   G18   798   798   798   773   773   773                  PRN / # OF OBS
   G19     0     0     0     0     0     0                  PRN / # OF OBS
   G20  1150  1150  1150  1150  1150  1150                  PRN / # OF OBS
   G21  1130  1130  1130  1129  1129  1129                  PRN / # OF OBS
   G22     0     0     0     0     0     0                  PRN / # OF OBS
   G23     0     0     0     0     0     0                  PRN / # OF OBS
   G24  1150  1150  1150  1150  1150  1150                  PRN / # OF OBS
   G25     0     0     0     0     0     0                  PRN / # OF OBS
   G26     0     0     0     0     0     0                  PRN / # OF OBS
   G27   223   223   223   223   223   223                  PRN / # OF OBS
   G28     0     0     0     0     0     0                  PRN / # OF OBS
   G29     0     0     0     0     0     0                  PRN / # OF OBS
   G30     0     0     0     0     0     0                  PRN / # OF OBS
   G31     0     0     0     0     0     0                  PRN / # OF OBS
   G32  1025  1025  1025  1024  1024  1024                  PRN / # OF OBS
   R 1     0     0     0     0     0     0                  PRN / # OF OBS
   R 2     0     0     0     0     0     0                  PRN / # OF OBS
   R 3     0     0     0     0     0     0                  PRN / # OF OBS
   R 4     0     0     0     0     0     0                  PRN / # OF OBS
   R 5  1150  1150  1150  1150  1150  1150                  PRN / # OF OBS
   R 6  1150  1150  1150     0     0     0                  PRN / # OF OBS
   R 7   882   882   882   832   832   832                  PRN / # OF OBS
   R 8     0     0     0     0     0     0                  PRN / # OF OBS
   R 9     0     0     0     0     0     0                  PRN / # OF OBS
   R10     0     0     0     0     0     0                  PRN / # OF OBS
   R11     0     0     0     0     0     0                  PRN / # OF OBS
   R12     0     0     0     0     0     0                  PRN / # OF OBS
   R13     0     0     0     0     0     0                  PRN / # OF OBS
   R14   346   346   346   341   341   341                  PRN / # OF OBS
   R15  1150  1150  1150  1150  1150  1150                  PRN / # OF OBS
   R16   814   814   814   804   804   804                  PRN / # OF OBS
   R17     0     0     0     0     0     0                  PRN / # OF OBS
   R18     0     0     0     0     0     0                  PRN / # OF OBS
   R19     0     0     0     0     0     0                  PRN / # OF OBS
   R20     0     0     0     0     0     0                  PRN / # OF OBS
   R21   976   976   976   977   977   977                  PRN / # OF OBS
   R22  1138  1138  1138  1089  1089  1089                  PRN / # OF OBS
   R23   287   287   287   283   283   283                  PRN / # OF OBS
   R24     0     0     0     0     0     0                  PRN / # OF OBS
                                                            END OF HEADER
 20 10 01 07 25 10.0000000  0 14G15G18G20G 8G24G27G10G13R14R15R 6R22
                                R 5R21
  21184161.691   111323520.18549     -2433.289    21184160.999    86745600.36849
     -1896.073  
  21490762.888   112934715.15948     -2615.065    21490763.278    88001075.50947
     -2037.719  
  20045377.987   105339178.14849       736.598    20045377.385    82082480.64748
       573.969  
  24671255.550   129648320.09355       220.073    24671260.823   101024687.90558
       171.500  
  20955267.502   110120696.22849      1735.063    20955269.701    85808356.85849
      1351.996  
  24291200.400   127651136.64745     -1578.726    24291202.933    99468402.62646
     -1230.180  
  22115099.512   116215639.94949      2621.727    22115101.619    90557643.01949
      2042.901  
  23743637.326   124773658.55055     -3455.270    23743633.602    97226209.62754
     -2692.418  
  21995720.617   117249578.67206     -1689.395    21995724.032    91194132.73704
     -1313.983  
  21161421.039   113080217.99908  -2097152.000    21161430.572    87951320.28507
  -2097152.000  
  20188882.668   107731765.11507      2065.938           0.000           0.0000 
         0.000  
  21895857.548   116881585.80816      2297.836           0.000           0.0000 
         0.000  
  20026218.512   107051613.75109     -1813.930    20026222.310    83262384.47808
     -1410.839  
  20674281.704   110632266.57608     -1613.246    20674285.096    86047328.32408
     -1254.750  
 20 10 01 07 25 15.0000000  0 14G15G18G20G 8G24G27G10G13R14R15R 6R22
                                R 5R21
  21186483.476   111335721.21549     -2445.167    21186482.852    86755107.65549
     -1905.328  
  21493258.129   112947827.80349     -2627.820    21493258.503    88011293.16347
     -2047.655  
  20044684.004   105335531.39849       723.921    20044683.470    82079639.02348
       564.089  
  24671053.863   129647256.00245       206.577    24671058.273   101023858.68347
       160.964  
  20953624.191   110112060.44649      1721.440    20953626.337    85801627.68349
      1341.382  
  24292710.030   127659068.86845     -1591.917    24292712.808    99474583.53147
     -1240.460  
  22112611.317   116202564.27249      2610.272    22112613.386    90547454.18349
      2033.980  
  23746931.417   124790968.43046     -3466.241    23746928.558    97239697.89143
     -2700.984  
  21997312.725   117258065.53306     -1703.593    21997317.038    91200733.64405
     -1325.015  
  21159387.570   113069351.75608  -2097152.000    21159397.105    87942868.77307
  -2097152.000  
  20186953.545   107721470.76108      2053.754           0.000           0.0000 
         0.000  
  21893713.563   116870139.20006      2283.012           0.000           0.0000 
         0.000  
  20027921.839   107060718.95209     -1826.272    20027925.702    83269466.30408
     -1420.434  
  20675796.879   110640374.42608     -1627.910    20675800.396    86053634.41708
     -1266.156  
 20 10 01 07 25 20.0000000  0 14G15G18G20G 8G24G27G10G13R14R15R 6R22
                                R 5R21
  21188805.733   111347924.56849     -2438.593    21188805.126    86764616.75749
     -1900.206  
  21495754.479   112960946.11649     -2622.383    21495754.872    88021515.22048
     -2043.417  
  20043991.244   105331890.85549       729.558    20043990.758    82076802.23448
       568.484  
  24670853.693   129646201.00745       212.104    24670858.218   101023036.64847
       165.132  
  20951982.671   110103434.10349      1726.913    20951984.816    85794905.86449
      1345.648  
  24294221.121   127667008.32846     -1586.070    24294223.278    99480770.12447
     -1235.902  
  22110122.987   116189488.10649      2617.707    22110125.128    90537264.96449
      2039.769  
  23750224.412   124808274.61046     -3458.230    23750222.135    97253183.19641
     -2694.718  
  21998907.162   117266566.34306     -1699.348    21998912.469    91207345.35304
     -1321.723  
  21157356.477   113058498.20808  -2097152.000    21157366.009    87934427.11408
  -2097152.000  
  20185024.842   107711178.86007      2060.468           0.000           0.0000 
         0.000  
  21891572.033   116858705.62806      2287.804    21891576.047    90890117.32113
      1779.402  
  20029625.697   107069826.98409     -1819.391    20029629.631    83276550.33308
     -1415.085  
  20677314.939   110648497.84308     -1623.910    20677318.611    86059952.64108
     -1263.043  
 20 10 01 07 25 25.0000000  0 14G15G18G20G 8G24G27G10G13R14R15R 6R22
                                R 5R21
  21191128.578   111360130.98649     -2442.995    21191128.013    86774128.21749
     -1903.641  
  21498252.055   112974070.84248     -2627.211    21498252.408    88031742.30445
     -2047.175  
  20043299.806   105328257.23148       724.527    20043299.368    82073970.85748
       564.565  
  24670655.691   129645155.81544       206.598    24670659.397   101022222.22847
       160.988  
  20950343.128   110094818.34048      1720.641    20950345.309    85788192.26349
      1340.754  
  24295733.371   127674955.50445     -1591.714    24295736.912    99486962.79747
     -1240.289  
  22107634.724   116176412.22649      2613.437    22107636.870    90527075.93349
      2036.438  
  23753517.680   124825577.81946     -3461.641    23753517.653    97266666.22741
     -2697.378  
  22000505.071   117275081.97205     -1706.108    22000510.478    91213968.56306
     -1326.987  
  21155327.900   113047658.11008  -2097152.000    21155337.436    87925995.94007
  -2097152.000  
  20183096.820   107700890.40908      2055.703           0.000           0.0000 
         0.000  
  21889432.878   116847285.85906      2281.319    21889436.794    90881235.31604
      1774.358  
  20031330.232   107078938.63709     -1824.351    20031334.225    83283637.15508
     -1418.944  
  20678835.996   110656637.42108     -1630.960    20678839.784    86066283.42508
     -1268.526  
 20 10 01 07 25 30.0000000  0 13G15G18G20G 8G24G27G10G13R15R 6R22R 5
                                R21
  21193454.222   111372352.01349     -2445.433    21193453.647    86783651.14249
     -1905.527  
  21500752.962   112987213.50848     -2630.065    21500753.363    88041983.29946
     -2049.409  
  20042611.855   105324642.11649       721.648    20042611.465    82071153.88748
       562.319  
  24670460.827   129644132.10745       203.218    24670464.173   101021424.44247
       158.331  
  20948707.715   110086224.15949      1716.921    20948709.890    85781495.49749
      1337.854  
  24297249.662   127682922.07446     -1594.785    24297253.415    99493170.43347
     -1242.698  
  22105148.667   116163348.15949      2611.733    22105150.899    90516896.17449
      2035.113  
  23756811.734   124842889.50344     -3462.921    23756812.565    97280155.90441
     -2698.354  
  21153304.073   113036843.39108  -2097152.000    21153313.606    87917584.48307
  -2097152.000  
  20181171.572   107690616.79707      2053.640           0.000           0.0000 
         0.000  
  21887298.261   116835891.72206      2276.792    21887302.825    90872373.18903
      1770.844  
  20033037.593   107088065.64709     -1826.558    20033041.627    83290735.93308
     -1420.659  
  20680362.346   110664805.13208     -1636.089    20680366.136    86072636.07908
     -1272.523  
 20 10 01 07 25 35.0000000  0 14G15G18G20G 8G24G27G10G13R14R15R 6R22
                                R 5R21
  21195781.887   111384583.69549     -2447.296    21195781.312    86793182.32249
     -1906.983  
  21503256.587   113000370.21248     -2632.651    21503256.985    88052235.27446
     -2051.425  
  20041926.692   105321041.59349       718.788    20041926.362    82068348.28348
       560.093  
  24670269.614   129643125.87046       199.675    24670272.592   101020640.39047
       155.625  
  20947075.710   110077647.91249      1713.729    20947077.825    85774812.71249
      1335.374  
  24298768.331   127690904.01345     -1597.223    24298772.855    99499390.12948
     -1244.590  
  22102664.086   116150292.00249      2610.406    22102666.387    90506722.54149
      2034.077  
  23760106.721   124860205.71306     -3463.729           0.000           0.0000 
         0.000  
  22003713.576   117292173.45315     -1715.378    22003720.798    91227276.65015
     -1334.198  
  21151284.217   113026049.89107  -2097152.000    21151293.758    87909189.57107
  -2097152.000  
  20179248.384   107680354.23107      2051.887           0.000           0.0000 
         0.000  
  21885167.939   116824519.13806      2272.609    21885172.668    90863527.85603
      1767.589  
  20034747.131   107097203.98608     -1828.675    20034751.135    83297843.50107
     -1422.308  
  20681893.117   110672996.65808     -1640.663    20681896.904    86079007.23807
     -1276.073  
 20 10 01 07 25 40.0000000  0 14G15G18G20G 8G24G27G10G13R14R15R 6R22
                                R 5R21
  21198110.782   111396821.83749     -2447.906    21198110.174    86802718.53149
     -1907.464  
  21505762.069   113013536.66849     -2634.019    21505762.480    88062494.85747
     -2052.483  
  20041243.533   105317451.44449       717.226    20041243.191    82065550.75048
       558.875  
  24670081.191   129642132.79845       197.711    24670083.658   101019866.57747
       154.050  
  20945446.305   110069085.36549      1711.417    20945448.429    85768140.61049
      1333.574  
  24300289.124   127698897.18146     -1599.608    24300293.787    99505618.62347
     -1246.437  
  22100180.224   116137239.53049      2610.223    22100182.620    90496551.80549
      2033.944  
  23763401.733   124877522.58506     -3463.507           0.000           0.0000 
         0.000  
  22005323.793   117300756.18706     -1718.074    22005330.772    91233952.05905
     -1336.293  
  21149267.523   113015273.29208  -2097152.000    21149277.059    87900807.75007
  -2097152.000  
  20177326.393   107670098.55807      2050.746           0.000           0.0000 
         0.000  
  21883040.964   116813164.01306      2269.430    21883045.436    90854696.10703
      1765.109  
  20036457.970   107106349.33909     -1829.426    20036461.994    83304956.59108
     -1422.883  
  20683427.587   110681208.01308     -1644.145    20683431.324    86085393.84508
     -1278.781  
 20 10 01 07 25 45.0000000  0 14G15G18G20G 8G24G27G10G13R14R15R 6R22
                                R 5R21
  21200441.046   111409067.24249     -2451.144    21200440.296    86812260.39849
     -1909.988  
  21508269.556   113026713.75749     -2637.785    21508269.975    88072762.72247
     -2055.418  
  20040562.508   105313872.47749       713.434    20040562.135    82062761.93948
       555.918  
  24669895.275   129641153.79945       193.237    24669897.540   101019103.73848
       150.559  
  20943819.683   110060537.37749      1706.910    20943821.793    85761479.83849
      1330.059  
  24301812.646   127706902.37545     -1602.862    24301816.981    99511856.38147
     -1248.992  
  22097697.235   116124191.58549      2607.788    22097699.650    90486384.58349
      2032.042  
  23766697.137   124894840.36105     -3465.132           0.000           0.0000 
         0.000  
  22006937.931   117309357.76406     -1723.535    22006944.457    91240642.20005
     -1340.530  
  21147254.194   113004514.67008  -2097152.000    21147263.723    87892439.90408
  -2097152.000  
  20175405.881   107659850.40007      2047.565           0.000           0.0000 
         0.000  
  21880917.349   116801827.01106      2264.460    21880921.467    90845878.40303
      1761.241  
  20038170.257   107115502.58509     -1832.707    20038174.368    83312075.79108
     -1425.437  
  20684965.910   110689439.86108     -1649.772    20684969.598    86091796.39707
     -1283.155  
 20 10 01 07 25 50.0000000  0 14G15G18G20G 8G24G27G10G13R14R15R 6R22
                                R 5R21
  21202774.516   111421329.58449     -2453.612    21202773.692    86821815.48449
     -1911.906  
  21510780.948   113039911.12149     -2640.895    21510781.317    88083046.37447
     -2057.843  
  20039885.435   105310314.40549       710.348    20039885.065    82059989.42148
       553.520  
  24669713.551   129640198.64945       189.313    24669715.895   101018359.46247
       147.515  
  20942197.679   110052013.71749      1702.870    20942199.756    85754838.02549
      1326.910  
  24303339.995   127714929.39745     -1606.929    24303344.159    99518111.10747
     -1252.164  
  22095216.990   116111157.87449      2605.890    22095219.401    90476228.44049
      2030.559  
  23769995.284   124912169.18106     -3466.148           0.000           0.0000 
         0.000  
  22008557.134   117317988.09305     -1728.144    22008563.687    91247354.70405
     -1344.112  
  21145246.040   112993783.70708  -2097152.000    21145255.575    87884093.62208
  -2097152.000  
  20173488.708   107649619.71707      2044.738           0.000           0.0000 
         0.000  
  21878798.898   116790518.04706      2259.805    21878802.585    90837082.57203
      1757.625  
  20039885.876   107124673.51909     -1835.233    20039890.033    83319208.73808
     -1427.410  
  20686509.867   110697702.16408     -1654.804    20686513.604    86098222.59307
     -1287.078  
 20 10 01 07 25 55.0000000  0 14G15G18G20G 8G24G27G10G13R14R15R 6R22
                                R 5R21
  21205108.986   111433597.17949     -2453.620    21205108.122    86831374.64749
     -1911.913  
  21513293.916   113053117.07349     -2641.831    21513294.311    88093336.72847
     -2058.574  
  20039210.157   105306765.54349       709.117    20039209.707    82057224.06948
       552.558  
  24669534.285   129639255.47345       187.836    24669536.112   101017624.46947
       146.366  
  20940578.062   110043502.60449      1701.426    20940580.143    85748205.98149
      1325.780  
  24304869.449   127722966.26546     -1607.840    24304873.223    99524373.67845
     -1252.855  
  22092737.223   116098126.67349      2606.339    22092739.589    90466074.27849
      2030.914  
  23773293.000   124929497.20046     -3465.559    23773290.077    97347651.34151
     -2700.433  
  22010179.624   117326635.46806     -1730.824    22010186.162    91254080.41305
     -1346.199  
  21143240.836   112983068.50508  -2097152.000    21143250.371    87875759.57507
  -2097152.000  
  20171572.551   107639394.64108      2044.648           0.000           0.0000 
         0.000  
  21876683.389   116779225.25206      2257.148    21876687.211    90828299.30203
      1755.563  
  20041602.557   107133850.35509     -1835.543    20041606.798    83326346.25608
     -1427.647  
  20688057.304   110705982.90608     -1657.504    20688061.038    86104663.17808
     -1289.172  
 20 10 01 07 26  0.0000000  0 14G15G18G20G 8G24G27G10G13R14R15R 6R22
                                R 5R21
  21207444.408   111445869.90749     -2455.413    21207443.544    86840937.80949
     -1913.313  
  21515808.500   113066331.45749     -2644.081    21515808.907    88103633.64047
     -2060.327  
  20038536.607   105303225.76749       706.512    20038536.075    82054465.81248
       550.526  
  24669357.322   129638324.31045       184.809    24669358.748   101016898.88047
       144.004  
  20938960.796   110035003.81349      1698.234    20938962.888    85741583.55949
      1323.301  
  24306400.505   127731013.14345     -1611.434    24306403.737    99530643.94247
     -1255.676  
  22090257.894   116085097.93048      2605.015    22090260.256    90455922.00749
      2029.875  
  23776590.592   124946824.26047     -3465.660    23776585.821    97361152.92442
     -2700.512  
  22011805.311   117335299.54606     -1735.113    22011811.686    91260819.13805
     -1349.530  
  21141238.596   112972369.14308  -2097152.000    21141248.137    87867437.87408
  -2097152.000  
  20169657.429   107629175.05907      2043.136           0.000           0.0000 
         0.000  
  21874570.841   116767948.58106      2253.202    21874574.817    90819528.56103
      1752.491  
  20043320.280   107143032.78808     -1837.332    20043324.557    83333488.16108
     -1429.035  
  20689608.135   110714281.93708     -1662.031    20689611.945    86111117.96808
     -1292.695  
 20 10 01 07 26  5.0000000  0 14G15G18G20G 8G24G27G10G13R14R15R 6R22
                                R 5R21
  21209781.404   111458150.99849     -2457.241    21209780.581    86850507.48949
     -1914.733  
  21518325.326   113079557.53148     -2646.593    21518325.677    88113939.67347
     -2062.285  
  20037865.388   105299698.32949       704.073    20037864.762    82051717.15048
       548.629  
  24669183.212   129637408.35444       180.797    24669183.904   101016185.17547
       140.835  
  20937346.510   110026520.74849      1695.007    20937348.634    85734973.36549
      1320.781  
  24307933.842   127739072.91644     -1612.862    24307937.189    99536924.26548
     -1256.777  
  22087779.669   116072074.80349      2603.832    22087782.051    90445774.11349
      2028.960  
  23779888.449   124964153.55246     -3465.711    23779888.116    97374656.27142
     -2700.550  
  22013434.502   117343983.80106     -1739.538    22013440.999    91267573.53705
     -1352.983  
  21139239.911   112961688.77608  -2097152.000    21139249.456    87859130.93807
  -2097152.000  
  20167743.942   107618964.29207      2041.227           0.000           0.0000 
         0.000  
  21872461.932   116756691.26707      2249.233    21872466.013    90810772.88403
      1749.405  
  20045039.730   107152224.29509     -1839.202    20045044.017    83340637.10608
     -1430.496  
  20691162.988   110722602.58008     -1666.563    20691166.850    86117589.58508
     -1296.214  
 20 10 01 07 26 10.0000000  0 14G15G18G20G 8G24G27G10G13R14R15R 6R22
                                R 5R21
  21212120.475   111470443.02249     -2459.582    21212119.729    86860085.69149
     -1916.562  
  21520844.824   113092797.83449     -2649.406    21520845.175    88124256.78347
     -2064.476  
  20037197.011   105296185.86149       700.980    20037196.311    82048980.17348
       546.218  
  24669012.517   129636510.16044       177.742    24669013.129   101015485.25247
       138.487  
  20935735.747   110018056.06849      1691.042    20935737.833    85728377.52949
      1317.691  
  24309470.476   127747148.48144     -1616.633    24309473.457    99543216.90048
     -1259.719  
  22085303.059   116059059.97349      2602.167    22085305.419    90435632.68549
      2027.663  
  23783187.097   124981487.74945     -3467.448    23783183.306    97388163.40041
     -2701.934  
  22015068.130   117352690.80004     -1743.734    22015074.381    91274345.62405
     -1356.249  
  21137245.280   112951030.06908  -2097152.000    21137254.825    87850840.83908
  -2097152.000  
  20165832.596   107608764.82807      2038.668           0.000           0.0000 
         0.000  
  21870357.232   116745456.08006      2244.965    21870361.355    90802034.41903
      1746.077  
  20046761.362   107161427.43309     -1841.734    20046765.626    83347795.11008
     -1432.460  
  20692722.412   110730947.40708     -1671.413    20692726.287    86124080.00207
     -1299.988  
 20 10 01 07 26 15.0000000  0 15G15G18G20G 8G21G24G27G10G13R14R15R 6
                                R22R 5R21
  21214461.436   111482744.91649     -2461.363    21214460.743    86869671.56649
     -1917.948  
  21523366.876   113106051.33647     -2652.148    21523367.154    88134584.21045
     -2066.604  
  20036531.262   105292687.23249       698.277    20036530.529    82046253.96948
       544.113  
  24668844.464   129635628.65844       174.265    24668845.320   101014798.41445
       135.800  
  24866755.773   130675682.35955      2714.308    24866753.181   101825220.58551
      2115.047  
  20934128.237   110009608.48549      1687.684    20934130.303    85721794.96549
      1315.069  
  24311010.043   127755238.61444     -1619.387    24311012.561    99549520.86548
     -1261.867  
  22082827.771   116046052.37148      2600.871    22082830.229    90425496.88449
      2026.648  
  23786486.578   124998825.79746     -3467.734    23786483.346    97401673.60443
     -2702.125  
  22016705.224   117361419.15205     -1747.063    22016711.876    91281134.35405
     -1358.828  
  21135254.505   112940391.97008  -2097152.000    21135264.048    87842566.75107
  -2097152.000  
  20163923.235   107598575.76808      2036.722           0.000           0.0000 
         0.000  
  21868256.332   116734241.74006      2240.656    21868260.292    90793312.16302
      1742.734  
  20048484.962   107170641.03609     -1843.667    20048489.201    83354961.25708
     -1433.964  
  20694286.152   110739315.38808     -1675.745    20694290.053    86130588.43808
     -1303.359  
 20 10 01 07 26 20.0000000  0 14G15G18G20G21G24G27G10G13R14R15R 6R22
                                R 5R21
  21216804.278   111495056.66749     -2464.293    21216803.629    86879265.13449
     -1920.229  
  21525891.407   113119318.15148     -2655.866    21525891.688    88144921.97345
     -2069.508  
  20035868.182   105289202.59448       694.456    20035867.403    82043538.64048
       541.133  
  24864174.260   130662114.19445      2711.531    24864169.023   101814647.98643
      2113.344  
  20932524.066   110001178.38349      1683.132    20932526.101    85715226.08749
      1311.535  
  24312552.065   127763343.37045     -1623.508    24312554.766    99555836.21947
     -1265.082  
  22080353.900   116033052.02749      2598.359    22080356.345    90415366.74549
      2024.773  
  23789786.839   125016167.75147     -3469.667    23789783.418    97415186.81743
     -2703.645  
  22018346.675   117370169.29206     -1753.379    22018352.867    91287940.04805
     -1363.738  
  21133267.613   112929774.62208  -2097152.000    21133277.154    87834308.80607
  -2097152.000  
  20162015.799   107588397.16807      2033.410           0.000           0.0000 
         0.000  
  21866159.680   116723048.54406      2235.597    21866163.440    90784606.32403
      1738.789  
  20050210.558   107179865.24109     -1846.984    20050214.704    83362135.60308
     -1436.551  
  20695854.201   110747706.55308     -1681.308    20695858.130    86137114.90707
     -1307.683  
 20 10 01 07 26 25.0000000  0 14G15G18G20G21G24G27G10G13R14R15R 6R22
                                R 5R21
  21219150.360   111507385.41149     -2465.694    21219149.771    86888871.94649
     -1921.324  
  21528419.837   113132605.04748     -2657.671    21528420.098    88155275.39046
     -2070.917  
  20035209.097   105285738.92649       692.207    20035208.239    82040839.69248
       539.378  
  24861595.109   130648560.57444      2711.313    24861588.369   101804086.57643
      2112.690  
  20930924.501   109992772.57849      1680.378    20930926.531    85708676.11449
      1309.387  
  24314098.334   127771469.75745     -1626.195    24314101.437    99562168.42447
     -1267.176  
  22077882.762   116020066.01549      2597.367    22077885.253    90405247.78349
      2023.921  
  23793089.123   125033520.49846     -3470.383    23793085.753    97428708.48341
     -2704.187  
  22019993.282   117378948.19704     -1757.046    22019999.501    91294768.07504
     -1366.598  
  21131285.926   112919185.08808  -2097152.000    21131295.466    87826072.49807
  -2097152.000  
  20160111.631   107578236.13507      2032.073           0.000           0.0000 
         0.000  
  21864068.083   116711883.58206      2231.827    21864071.792    90775922.43903
      1735.863  
  20051939.497   107189107.22209     -1848.563    20051943.556    83369323.84908
     -1437.766  
  20697427.934   110756128.19908     -1685.734    20697431.810    86143665.04207
     -1311.132  
 20 10 01 07 26 30.0000000  0 14G15G18G20G21G24G27G10G13R14R15R 6R22
                                R 5R21
  21221496.839   111519716.30249     -2466.434    21221496.296    86898480.41849
     -1921.901  
  21530949.349   113145897.59348     -2659.117    21530949.598    88165633.20747
     -2072.043  
  20034551.162   105282281.45149       690.766    20034550.273    82038145.55848
       538.258  
  24859015.329   130635006.73846      2710.520    24859013.510   101793525.24144
      2112.105  
  20929326.744   109984376.43449      1678.082    20929328.803    85702133.65349
      1307.594  
  24315645.978   127779603.17944     -1626.710    24315649.095    99568506.23247
     -1267.558  
  22075411.541   116007079.59849      2597.168    22075414.056    90395128.49049
      2023.761  
  23796390.579   125050869.39446     -3469.604    23796387.957    97442226.92443
     -2703.609  
  22021642.419   117387740.89705     -1759.965    22021648.952    91301606.81206
     -1368.866  
  21129306.656   112908608.47308  -2097152.000    21129316.196    87817846.23907
  -2097152.000  
  20158207.969   107568077.70207      2031.089           0.000           0.0000 
         0.000  
  21861979.065   116700731.72706      2228.840    21861982.741    90767248.83403
      1733.551  
  20053668.911   107198351.96009     -1849.280    20053672.906    83376514.19108
     -1438.332  
  20699004.525   110764565.10408     -1689.098    20699008.471    86150227.05107
     -1313.750  
 20 10 01 07 26 35.0000000  0 14G15G18G20G21G24G27G10G13R14R15R 6R22
                                R 5R21
  21223844.167   111532051.62849     -2468.035    21223843.670    86908092.36249
     -1923.145  
  21533480.328   113159197.88648     -2661.370    21533480.628    88175997.07146
     -2073.800  
  20033894.859   105278832.52449       688.628    20033893.911    82035458.08548
       536.593  
  24856436.499   130621455.36446      2709.168    24856431.336   101782965.66941
      2111.026  
  20927731.260   109975992.08049      1675.121    20927733.341    85695600.37949
      1305.285  
  24317195.585   127787745.66846     -1629.953    24317198.586    99574850.98047
     -1270.097  
  22072940.680   115994095.04549      2596.273    22072943.204    90385010.67149
      2023.070  
  23799691.640   125068216.68046     -3469.757    23799690.166    97455744.32343
     -2703.707  
  22023294.757   117396549.66405     -1763.477    22023301.557    91308458.09406
     -1371.597  
  21127330.264   112898047.23208  -2097152.000    21127339.819    87809632.00406
  -2097152.000  
  20156305.165   107557923.88008      2029.762           0.000           0.0000 
         0.000  
  21859892.935   116689595.60706      2225.245    21859896.548    90758587.34403
      1730.734  
  20055399.275   107207601.68808     -1850.991    20055403.130    83383708.38907
     -1439.668  
  20700584.497   110773019.57108     -1693.019    20700588.380    86156802.76907
     -1316.792  
 20 10 01 07 26 40.0000000  0 14G15G18G20G21G24G27G10G13R14R15R 6R22
                                R 5R21
  21226193.058   111544395.19749     -2469.530    21226192.613    86917710.73749
     -1924.309  
  21536013.479   113172509.71748     -2663.284    21536013.808    88186369.92746
     -2075.293  
  20033240.916   105275395.94149       686.187    20033239.919    82032780.22248
       534.687  
  24853858.855   130607909.87646      2708.406    24853854.087   101772410.64044
      2110.609  
  20926138.756   109967623.35049      1672.222    20926140.778    85689079.31949
      1303.030  
  24318747.641   127795901.21945     -1632.551    24318750.793    99581205.88548
     -1272.128  
  22070470.938   115981116.15249      2595.367    22070473.391    90374897.26049
      2022.363  
  23802993.205   125085566.17846     -3470.171    23802992.869    97469263.46543
     -2704.023  
  22024950.641   117405378.52104     -1767.964    22024957.729    91315325.01006
     -1375.086  
  21125357.429   112887505.00208  -2097152.000    21125366.978    87801432.46606
  -2097152.000  
  20154404.003   107547779.00807      2028.188           0.000           0.0000 
         0.000  
  21857810.437   116678478.93406      2221.229    21857814.181    90749941.05403
      1727.625  
  20057131.300   107216860.28908     -1852.495    20057135.095    83390909.54107
     -1440.832  
  20702168.392   110781495.62608     -1697.371    20702172.355    86163395.28507
     -1320.175  
 20 10 01 07 26 45.0000000  0 14G15G18G20G21G24G27G10G13R14R15R 6R22
                                R 5R21
  21228543.528   111556747.12648     -2471.531    21228543.119    86927335.60149
     -1925.870  
  21538548.893   113185833.24748     -2666.081    21538549.240    88196751.87946
     -2077.468  
  20032589.318   105271971.80249       683.301    20032588.278    82030112.07848
       532.441  
  24851281.854   130594370.64445      2707.190    24851278.112   101761860.63942
      2109.495  
  20924549.311   109959270.66749      1668.609    20924551.287    85682570.71449
      1300.210  
  24320302.188   127804069.79246     -1635.190    24320305.621    99587571.05248
     -1274.176  
  22068002.318   115968143.11849      2593.703    22068004.657    90364788.39549
      2021.063  
  23806295.262   125102918.10246     -3470.804    23806294.451    97482784.42241
     -2704.531  
  22026610.578   117414227.26206     -1771.862    22026617.595    91322207.39605
     -1378.109  
  21123388.191   112876981.98808  -2097152.000    21123397.738    87793247.89206
  -2097152.000  
  20152504.546   107537643.17308      2026.108           0.000           0.0000 
         0.000  
  21855731.595   116667381.77807      2216.972    21855735.417    90741309.94004
      1724.308  
  20058865.021   107226128.05408     -1854.586    20058868.838    83398117.77807
     -1442.461  
  20703756.307   110789993.25808     -1701.772    20703760.382    86170004.50807
     -1323.609  
 20 10 01 07 26 50.0000000  0 15G15G18G20G 8G21G24G27G10G13R14R15R 6
                                R22R 5R21
  21230895.998   111569109.52849     -2472.913    21230895.609    86936968.65749
     -1926.944  
  21541086.959   113199170.53148     -2668.300    21541087.274    88207144.57646
     -2079.199  
  20031940.486   105268562.22949       681.085    20031939.404    82027455.26548
       530.715  
  24667752.598   129629916.96054       153.394    24667757.693   101010341.82858
       119.527  
  24848706.776   130580839.61145      2705.698    24848703.461   101751316.96741
      2108.332  
  20922963.285   109950935.98548      1665.620    20922965.221    85676076.16449
      1297.886  
  24321859.730   127812253.63646     -1637.448    24321863.164    99593948.02248
     -1275.937  
  22065535.200   115955178.01549      2592.878    22065537.407    90354685.70149
      2020.421  
  23809598.074   125120274.36945     -3471.269    23809597.557    97496308.77743
     -2704.901  
  22028274.686   117423098.33205     -1775.604    22028281.548    91329107.10505
     -1381.026  
  21121422.978   112866480.48507  -2097152.000    21121432.522    87785080.04506
  -2097152.000  
  20150607.167   107527518.24208      2024.656           0.000           0.0000 
         0.000  
  21853656.848   116656306.41806      2213.492    21853660.645    90732695.77503
      1721.602  
  20060600.862   107235407.05608     -1856.168    20060604.684    83405334.78707
     -1443.688  
  20705348.680   110798514.64708     -1706.073    20705352.891    86176632.26007
     -1326.945  
 20 10 01 07 26 55.0000000  0 15G15G18G20G 8G21G24G27G10G13R14R15R 6
                                R22R 5R21
  21233249.723   111581478.47149     -2475.160    21233249.337    86946606.78049
     -1928.699  
  21543626.847   113212517.57749     -2671.136    21543627.163    88217544.87447
     -2081.405  
  20031293.655   105265163.29549       678.008    20031292.572    82024806.75548
       528.312  
  24667608.509   129629157.79644       149.608    24667612.885   101009750.29947
       116.577  
  24846132.678   130567312.72946      2704.593    24846128.740   101740776.60541
      2107.344  
  20921379.925   109942615.30649      1661.866    20921381.782    85669592.52649
      1294.960  
  24323419.279   127820448.65145     -1640.987    24323422.964    99600333.76947
     -1278.683  
  22063068.845   115942216.85749      2590.918    22063070.905    90344586.09849
      2018.897  
  23812900.948   125137631.12146     -3472.023    23812898.608    97509833.49741
     -2705.477  
  22029942.223   117431987.55605     -1780.164    22029948.981    91336020.95905
     -1384.570  
  21119460.998   112855996.25908  -2097152.000    21119470.541    87776925.64407
  -2097152.000  
  20148711.118   107517400.40507      2022.258           0.000           0.0000 
         0.000  
  21851585.384   116645248.71307      2208.991    21851589.177    90724095.32903
      1718.101  
  20062337.969   107244693.16809     -1858.723    20062341.863    83412557.33508
     -1445.671  
  20706944.761   110807055.69308     -1710.883    20706949.036    86183275.30108
     -1330.687  
 20 10 01 07 27  0.0000000  0 15G15G18G20G 8G21G24G27G10G13R14R15R 6
                                R22R 5R21
  21235605.684   111593859.12849     -2476.949    21235605.276    86956254.04849
     -1930.093  
  21546169.615   113225879.69449     -2673.602    21546169.869    88227956.92347
     -2083.323  
  20030649.847   105261780.21849       675.496    20030648.791    82022170.58048
       526.355  
  24667467.612   129628417.28144       147.269    24667472.271   101009173.25848
       114.750  
  24843560.544   130553795.63946      2702.948    24843556.523   101730243.86943
      2106.206  
  20919800.214   109934313.80749      1658.644    20919802.021    85663123.82549
      1292.449  
  24324982.018   127828660.15345     -1643.886    24324985.678    99606732.38347
     -1280.944  
  22060604.207   115929264.94349      2589.852    22060606.185    90334493.73549
      2018.066  
  23816204.818   125154993.60646     -3472.976    23816201.185    97523362.77842
     -2706.198  
  22031614.359   117440900.29306     -1784.551    22031621.128    91342953.13505
     -1387.983  
  21117503.273   112845534.77208  -2097152.000    21117512.822    87768788.95507
  -2097152.000  
  20146817.275   107507294.74807      2020.296           0.000           0.0000 
         0.000  
  21849518.275   116634214.18406      2204.750    21849521.992    90715512.91503
      1714.805  
  20064077.431   107253991.68509     -1860.534    20064081.397    83419789.52308
     -1447.081  
  20708545.560   110815621.82808     -1715.316    20708549.809    86189937.85207
     -1334.140  
 20 10 01 07 27  5.0000000  0 14G15G18G20G21G24G27G10G13R14R15R 6R22
                                R 5R21
  21237963.343   111606248.74349     -2478.789    21237962.909    86965908.28649
     -1931.526  
  21548714.712   113239254.11248     -2676.094    21548714.952    88238378.55046
     -2085.272  
  20030008.532   105258410.27149       672.722    20030007.511    82019544.64448
       524.195  
  24840989.607   130540285.39546      2701.285    24840985.329   101719716.31944
      2104.890  
  20918223.632   109926028.87649      1655.359    20918225.407    85656668.04149
      1289.890  
  24326547.316   127836885.28545     -1646.621    24326550.937    99613141.60647
     -1283.074  
  22058140.828   115916319.51849      2588.499    22058142.656    90324406.37049
      2017.008  
  23819509.333   125172358.98546     -3473.109    23819505.917    97536894.13843
     -2706.335  
  22033290.471   117449833.63106     -1788.733    22033297.098    91349901.29105
     -1391.238  
  21115549.299   112835093.32908  -2097152.000    21115558.850    87760667.84007
  -2097152.000  
  20144925.182   107497198.76507      2018.530           0.000           0.0000 
         0.000  
  21847454.900   116623199.90706      2200.770    21847458.753    90706946.25903
      1711.710  
  20065818.694   107263299.82909     -1862.597    20065822.723    83427029.18808
     -1448.688  
  20710150.469   110824210.11308     -1719.917    20710154.732    86196617.61507
     -1337.714  
 20 10 01 07 27 10.0000000  0 14G15G18G20G 8G24G27G10G13R14R15R 6R22
                                R 5R21
  21240322.664   111618647.02449     -2480.288    21240322.218    86975569.29349
     -1932.690  
  21551262.111   113252640.47549     -2678.304    21551262.309    88248809.45647
     -2086.996  
  20029369.703   105255053.13949       670.457    20029368.671    82016928.70048
       522.429  
  24667195.513   129626985.82854       140.461    24667197.893   101008056.23057
       109.441  
  20916650.162   109917760.29949      1652.253    20916651.905    85650225.00149
      1287.469  
  24328115.095   127845123.80145     -1648.155    24328118.564    99619561.21448
     -1284.285  
  22055678.571   115903380.26649      2587.531    22055680.370    90314323.84649
      2016.254  
  23822814.491   125189727.05146     -3473.879    23822811.234    97550427.73241
     -2706.922  
  22034970.382   117458787.38107     -1792.324    22034976.888    91356865.28205
     -1394.038  
  21113598.986   112824671.44608  -2097152.000    21113608.539    87752561.93807
  -2097152.000  
  20143034.881   107487111.88607      2016.632           0.000           0.0000 
         0.000  
  21845395.260   116612205.59706      2196.921    21845399.236    90698395.15003
      1708.718  
  20067561.732   107272617.39409     -1864.129    20067565.804    83434276.18408
     -1449.882  
  20711759.410   110832820.28808     -1724.043    20711763.691    86203314.42907
     -1340.921  
 20 10 01 07 27 15.0000000  0 15G15G18G20G 8G21G24G27G10G13R14R15R 6
                                R22R 5R21
  21242683.475   111631053.04749     -2481.765    21242683.042    86985236.31749
     -1933.844  
  21553811.599   113266037.87349     -2680.370    21553811.791    88259249.00547
     -2088.601  
  20028733.107   105251707.92949       668.038    20028732.104    82014322.03548
       520.547  
  24667063.531   129626291.41944       138.746    24667065.237   101007515.18048
       108.117  
  24835851.261   130513278.58254      2699.559    24835848.168   101698641.03752
      2103.562  
  20915079.590   109909506.85649      1649.312    20915081.273    85643793.74649
      1285.176  
  24329685.260   127853374.82345     -1651.219    24329688.906    99625990.59747
     -1286.663  
  22053217.284   115890446.33649      2586.254    22053219.189    90304245.47149
      2015.261  
  23826119.909   125207096.63845     -3473.859    23826115.490    97563962.54641
     -2706.898  
  22036653.739   117467760.65007     -1796.421    22036660.274    91363844.43505
     -1397.229  
  21111652.197   112814268.39608  -2097152.000    21111661.741    87744470.64107
  -2097152.000  
  20141146.148   107477033.52307      2015.124           0.000           0.0000 
         0.000  
  21843339.284   116601230.50206      2193.159    21843343.128    90689858.97403
      1705.792  
  20069306.394   107281943.39609     -1865.895    20069310.466    83441529.75408
     -1451.249  
  20713372.263   110841451.42908     -1728.273    20713376.610    86210027.53507
     -1344.215  
 20 10 01 07 27 20.0000000  0 14G15G18G20G21G24G27G10G13R14R15R 6R22
                                R 5R21
  21245045.921   111643467.84849     -2483.766    21245045.501    86994910.19149
     -1935.405  
  21556363.392   113279447.32249     -2683.191    21556363.562    88269697.92147
     -2090.801  
  20028098.993   105248375.67149       665.144    20028097.996    82011725.46748
       518.288  
  24833283.826   130499787.05846      2697.593    24833280.559   101688128.19943
      2102.051  
  20913512.100   109901269.70049      1645.804    20913513.671    85637375.17649
      1282.441  
  24331257.919   127861639.29945     -1653.746    24331261.646    99632430.54647
     -1288.620  
  22050757.225   115877518.69949      2585.034    22050759.203    90294171.98949
      2014.309  
  23829425.817   125224468.92745     -3474.890    23829421.028    97577499.29841
     -2707.715  
  22038341.053   117476754.17006     -1800.461    22038347.374    91370839.42005
     -1400.362  
  21109709.097   112803885.05908  -2097152.000    21109718.651    87736394.75307
  -2097152.000  
  20139259.179   107466964.35807      2012.961           0.000           0.0000 
         0.000  
  21841287.100   116590275.48906      2188.535    21841290.859    90681338.42703
      1702.194  
  20071052.827   107291278.89309     -1867.788    20071056.852    83448790.68107
     -1452.730  
  20714989.293   110850104.57708     -1732.788    20714993.573    86216757.75107
     -1347.730  
 20 10 01 07 27 25.0000000  0 14G15G18G20G21G24G27G10G13R14R15R 6R22
                                R 5R21
  21247410.079   111655891.73649     -2485.706    21247409.639    87004591.13149
     -1936.917  
  21558917.547   113292869.15349     -2685.667    21558917.719    88280156.48747
     -2092.730  
  20027467.416   105245056.71249       662.352    20027466.443    82009139.27048
       516.113  
  24830717.789   130486302.59646      2696.254    24830714.292   101677620.79944
      2101.008  
  20911947.784   109893049.19649      1642.414    20911949.285    85630969.58849
      1279.801  
  24332833.222   127869917.57145     -1657.273    24332837.136    99638881.16548
     -1291.379  
  22048298.459   115864597.73449      2583.476    22048300.455    90284103.70149
      2013.093  
  23832732.247   125241844.39546     -3475.093    23832727.635    97591038.64444
     -2707.866  
  22040032.241   117485768.65206     -1805.117    22040038.500    91377850.69005
     -1403.983  
  21107769.787   112793521.97408  -2097152.000    21107779.337    87728334.56107
  -2097152.000  
  20137374.099   107456905.08807      2010.863           0.000           0.0000 
         0.000  
  21839238.702   116579341.00206      2184.906    21839242.466    90672833.78103
      1699.362  
  20072801.072   107300624.29509     -1870.206    20072805.089    83456059.33008
     -1454.609  
  20716610.530   110858780.08208     -1737.430    20716614.757    86223505.38107
     -1351.339  
 20 10 01 07 27 30.0000000  0 13G15G18G20G21G24G10G13R14R15R 6R22R 5
                                R21
  21249771.538   111668301.44449     -2479.824    21249771.075    87014261.03449
     -1932.336  
  21561469.614   113306280.10549     -2680.511    21561469.822    88290606.57847
     -2088.715  
  20026833.944   105241727.79149       667.382    20026832.975    82006545.29348
       520.034  
  24828148.650   130472801.96146      2702.594    24828145.648   101667100.91042
      2105.930  
  20910382.236   109884822.21849      1646.695    20910383.698    85624558.96149
      1283.137  
  22045836.533   115851660.19549      2589.859    22045838.502    90274022.50749
      2018.069  
  23836034.955   125259199.64846     -3468.562    23836030.113    97604562.20943
     -2702.792  
  22041722.776   117494780.24806     -1801.430    22041728.703    91384859.70005
     -1401.121  
  21105829.829   112783155.42508  -2097152.000    21105839.378    87720271.68507
  -2097152.000  
  20135486.413   107446831.99807      2016.484           0.000           0.0000 
         0.000  
  21837189.777   116568403.42306      2188.594    21837193.436    90664326.80703
      1702.237  
  20074546.696   107309955.78109     -1864.320    20074550.728    83463317.15107
     -1450.026  
  20718231.509   110867454.14208     -1734.168    20718235.715    86230251.85307
     -1348.800  
 20 10 01 07 27 35.0000000  0 13G15G18G20G21G24G10G13R14R15R 6R22R 5
                                R21
  21252134.412   111680718.71149     -2487.804    21252133.965    87023936.82949
     -1938.551  
  21564023.738   113319701.93249     -2689.116    21564023.960    88301065.12947
     -2095.418  
  20026202.729   105238410.70549       658.581    20026201.733    82003960.55948
       513.176  
  24825580.608   130459306.84346      2694.598    24825578.018   101656585.17441
      2099.680  
  20908819.597   109876610.46449      1637.184    20908821.014    85618160.18749
      1275.722  
  22043375.581   115838727.87049      2582.234    22043377.521    90263945.36049
      2012.124  
  23839337.919   125276556.37346     -3475.464    23839332.470    97618080.90153
     -2708.156  
  22043416.952   117503811.03906     -1811.733    22043422.247    91391883.65204
     -1409.124  
  21103893.356   112772807.50308  -2097152.000    21103902.909    87712223.31707
  -2097152.000  
  20133600.235   107436766.90207      2008.526           0.000           0.0000 
         0.000  
  21835144.428   116557484.86706      2178.198    21835147.893    90655834.62202
      1694.156  
  20076293.964   107319295.55709     -1872.418    20076297.880    83470581.41508
     -1456.328  
  20719856.363   110876149.03208     -1744.895    20719860.610    86237014.58607
     -1357.140  
 20 10 01 07 27 40.0000000  0 14G15G18G20G21G24G27G10G13R14R15R 6R22
                                R 5R21
  21254503.873   111693170.81449     -2492.137    21254503.527    87033639.75849
     -1941.930  
  21566585.144   113333161.92849     -2693.901    21566585.340    88311553.42547
     -2099.147  
  20025578.950   105235132.72649       653.465    20025577.955    82001406.28948
       509.194  
  24823018.846   130445844.62746      2690.902    24823016.281   101646095.13743
      2096.801  
  20907265.011   109868441.15549      1631.319    20907266.465    85611794.50449
      1271.160  
  24337565.832   127894770.07055     -1665.718    24337570.102    99658279.80758
     -1297.957  
  22040920.857   115825828.02049      2578.500    22040922.793    90253893.53649
      2009.219  
  23842646.313   125293941.97646     -3478.612    23842640.713    97631628.16342
     -2710.616  
  22045119.810   117512888.72906     -1818.394    22045124.628    91398944.08704
     -1414.308  
  21101965.594   112762506.12708  -2097152.000    21101975.147    87704211.13507
  -2097152.000  
  20131720.758   107426737.83707      2003.968           0.000           0.0000 
         0.000  
  21833107.729   116546613.10806      2171.425    21833111.074    90647378.78103
      1688.883  
  20078047.900   107328671.37809     -1876.973    20078051.844    83477873.72208
     -1459.866  
  20721490.284   110884892.44208     -1751.664    20721494.557    86243814.98907
     -1362.410  
 20 10 01 07 27 45.0000000  0 14G15G18G20G21G24G27G10G13R14R15R 6R22
                                R 5R21
  21256875.397   111705633.53749     -2493.089    21256875.106    87043350.98049
     -1942.668  
  21569149.100   113346635.82848     -2695.555    21569149.343    88322052.55947
     -2100.438  
  20024958.056   105231869.65649       651.594    20024957.015    81998863.64448
       507.733  
  24820458.655   130432390.92446      2690.472    24820455.894   101635611.77742
      2096.296  
  20905713.941   109860290.25549      1628.917    20905715.423    85605443.15349
      1269.285  
  24339152.254   127903106.02745     -1668.055    24339156.536    99664775.36548
     -1299.777  
  22038467.661   115812936.41749      2578.129    22038469.611    90243848.13449
      2008.929  
  23845955.622   125311332.13846     -3477.965    23845949.970    97645178.92542
     -2710.112  
  22046826.936   117521988.82506     -1821.973    22046831.344    91406021.93304
     -1417.094  
  21100041.904   112752226.51208  -2097152.000    21100051.460    87696215.89208
  -2097152.000  
  20129843.468   107416720.16307      2003.003           0.000           0.0000 
         0.000  
  21831075.245   116535763.44607      2168.309    21831078.399    90638940.14603
      1686.457  
  20079804.022   107338058.51609     -1877.992    20079807.970    83485174.82708
     -1460.664  
  20723128.691   110893659.70508     -1755.265    20723133.018    86250633.96407
     -1365.210  
 20 10 01 07 27 50.0000000  0 14G15G18G20G21G24G27G10G13R14R15R 6R22
                                R 5R21
  21259247.443   111718099.00249     -2495.105    21259247.203    87053064.32149
     -1944.242  
  21571714.216   113360115.72949     -2698.199    21571714.473    88332556.36747
     -2102.496  
  20024338.455   105228613.56549       648.883    20024337.384    81996326.42348
       505.617  
  24817898.647   130418938.04946      2688.788    24817896.072   101625129.07743
      2095.172  
  20904164.886   109852149.82249      1625.335    20904166.349    85599099.95549
      1266.491  
  24340740.050   127911449.44845     -1671.354    24340744.320    99671276.70047
     -1302.359  
  22036014.526   115800045.20249      2576.503    22036016.537    90233803.04949
      2007.664  
  23849264.294   125328719.17246     -3478.789    23849259.206    97658727.16441
     -2710.750  
  22048536.891   117531103.25306     -1826.105    22048541.090    91413110.90105
     -1420.312  
  21098120.800   112741960.71508  -2097152.000    21098130.356    87688231.38208
  -2097152.000  
  20127966.767   107406705.76207      2000.801           0.000           0.0000 
         0.000  
  21829045.530   116524928.00007      2164.073    21829048.431    90630512.56403
      1683.164  
  20081560.733   107347448.98709     -1880.011    20081564.719    83492478.52708
     -1462.233  
  20724770.082   110902442.80208     -1759.855    20724774.452    86257465.25307
     -1368.780  
 20 10 01 07 27 55.0000000  0 10G15G18G20G21G24G10R15R 6R 5R21
  21261622.441   111730579.98547     -2496.729    21261622.248    87062789.79349
     -1945.499  
  21574282.934   113373614.49348     -2700.777    21574283.193    88343074.87947
     -2104.503  
  20023722.616   105225377.30749       646.277    20023721.513    81993804.65948
       503.589  
  24815341.184   130405498.71045      2686.984    24815338.071   101614656.96141
      2093.776  
  20902620.236   109844032.69449      1621.957    20902621.723    85592774.90949
      1263.859  
  22033563.901   115787167.20348      2575.175    22033566.016    90223768.26049
      2006.632  
  21096204.729   112731721.81207  -2097152.000    21096214.283    87680267.78206
  -2097152.000  
  20126093.184   107396707.68206      1998.687           0.000           0.0000 
         0.000  
  20083320.495   107356856.01807     -1882.039    20083324.478    83499795.08206
     -1463.816  
  20726416.850   110911254.74208     -1764.340    20726421.282    86264318.96607
     -1372.273  
 20 10 01 07 28  0.0000000  0 10G15G18G20G21G24G10R15R 6R 5R21
  21263998.742   111743067.99746     -2503.499    21263998.584    87072520.71149
     -1950.776  
  21576853.592   113387123.48748     -2707.866    21576853.899    88353601.36347
     -2110.031  
  20023108.948   105222152.33949       638.909    20023107.783    81991291.69448
       497.848  
  24812784.664   130392064.41844      2681.336    24812782.970   101604197.53054
      2089.352  
  20901078.351   109835930.15949      1613.854    20901079.871    85586461.21949
      1257.547  
  22031114.186   115774293.92648      2569.148    22031116.377    90213737.15149
      2001.929  
  21094292.062   112721501.09708  -2097152.000    21094301.614    87672318.33106
  -2097152.000  
  20124221.021   107386717.42807      1992.226           0.000           0.0000 
         0.000  
  20085081.761   107366270.61407     -1888.625    20085085.667    83507117.55206
     -1468.934  
  20728067.358   110920086.88408     -1773.613    20728071.844    86271188.36607
     -1379.484  
 20 10 01 07 28  5.0000000  0  9G15G18G20G24G10R15R 6R 5R21
  21266385.556   111755611.16848     -2506.980    21266385.518    87082294.52849
     -1953.507  
  21579435.393   113400690.91249     -2712.137    21579435.740    88364173.38347
     -2113.354  
  20022506.587   105218986.87849       634.242    20022505.377    81988825.09848
       494.211  
  20899548.412   109827890.43349      1608.738    20899549.999    85580196.52249
      1253.562  
  22028674.576   115761473.62948      2565.976    22028676.725    90203747.27549
      1999.452  
  21092391.962   112711347.53908  -2097152.000    21092401.514    87664421.11907
  -2097152.000  
  20122359.485   107376783.73006      1988.406           0.000           0.0000 
         0.000  
  20086853.529   107375741.92208     -1892.671    20086857.474    83514484.10707
     -1472.082  
  20729730.868   110928988.28508     -1779.738    20729735.235    86278111.78905
     -1384.226  
 20 10 01 07 28 10.0000000  0 11G15G18G20G21G24G10R15R 6R22R 5R21
  21268767.170   111768126.81849     -2501.187    21268767.201    87092047.02649
     -1948.977  
  21582012.638   113414234.17648     -2706.832    21582012.929    88374726.57347
     -2109.219  
  20021899.869   105215798.30349       639.401    20021898.631    81986340.51248
       498.233  
  24807686.457   130365288.13215      2684.249           0.000           0.0000 
         0.000  
  20898014.800   109819831.05749      1613.198    20898016.388    85573916.51849
      1257.042  
  22026229.223   115748623.33449      2572.359    22026231.390    90193734.03949
      2004.429  
  21090488.718   112701177.17808  -2097152.000    21090498.274    87656510.85607
  -2097152.000  
  20120492.763   107366822.66807      1994.504           0.000           0.0000 
         0.000  
  21820978.316   116481864.16416      2148.789    21820982.435    90597021.41513
      1671.281  
  20088620.232   107385185.99009     -1886.745    20088624.170    83521829.50308
     -1467.469  
  20731391.579   110937874.77408     -1776.535    20731395.851    86285023.44407
     -1381.754  
 20 10 01 07 28 15.0000000  0 14G15G18G20G21G24G27G10G13R14R15R 6R22
                                R 5R21
  21271146.796   111780631.65049     -2501.660    21271146.784    87101791.05049
     -1949.343  
  21584588.378   113427769.87748     -2708.223    21584588.642    88385273.87747
     -2110.308  
  20021291.885   105212603.16749       637.852    20021290.669    81983850.78948
       497.026  
  24805131.351   130351864.99046      2684.128    24805133.598   101572870.66151
      2091.526  
  20896480.549   109811768.51649      1611.012    20896482.170    85567633.99649
      1255.327  
  24348734.147   127953452.62155     -1682.194    24348732.003    99703991.46057
     -1310.815  
  22023781.423   115735760.06049      2572.176    22023783.539    90183710.71549
      2004.292  
  23865829.162   125415774.35616     -3479.535           0.000           0.0000 
         0.000  
  22057157.969   117577176.76616     -1844.449    22057164.198    91448858.56215
     -1434.569  
  21088585.491   112691006.91308  -2097152.000    21088595.047    87648600.64907
  -2097152.000  
  20118624.139   107356851.36107      1993.414           0.000           0.0000 
         0.000  
