     2.11           OBSERVATION DATA    M                   RINEX VERSION / TYPE
LEICA GEO OFFICE 8.4                    1-10-20 22:39       PGM / RUN BY / DATE
                                                            OBSERVER / AGENCY
KUCH                                                        MARKER NAME
KUCH                                                        MARKER NUMBER
468588              LEICA GX1220GG      5.60                REC # / TYPE / VERS
                    LEIAX1202GG                             ANT # / TYPE
 -1265372.8433  3799786.9380  4948587.6037                  APPROX POSITION XYZ
        1.7880        0.0000        0.0000                  ANTENNA: DELTA H/E/N
L1PhaOff:   0.0644  L2PhaOff:   0.0640                      COMMENT
     1     1                                                WAVELENGTH FACT L1/2
     6    C1    L1    D1    P2    L2    D2                  # / TYPES OF OBSERV
  2020    10     1     5    52    0.0000000     GPS         TIME OF FIRST OBS
  2020    10     1     7    22   25.0000000     GPS         TIME OF LAST OBS
    18                                                      LEAP SECONDS
    19                                                      # OF SATELLITES
          C1    L1    D1    P2    L2    D2                  COMMENT
   G 1     0     0     0     0     0     0                  PRN / # OF OBS
   G 2     0     0     0     0     0     0                  PRN / # OF OBS
   G 3     0     0     0     0     0     0                  PRN / # OF OBS
   G 4     0     0     0     0     0     0                  PRN / # OF OBS
   G 5   448   448   448   448   448   448                  PRN / # OF OBS
   G 6     0     0     0     0     0     0                  PRN / # OF OBS
   G 7     0     0     0     0     0     0                  PRN / # OF OBS
   G 8   119   119   119   118   118   118                  PRN / # OF OBS
   G 9     0     0     0     0     0     0                  PRN / # OF OBS
   G10   892   892   892   890   890   890                  PRN / # OF OBS
   G11     0     0     0     0     0     0                  PRN / # OF OBS
   G12     0     0     0     0     0     0                  PRN / # OF OBS
   G13  1086  1086  1086  1086  1086  1086                  PRN / # OF OBS
   G14     0     0     0     0     0     0                  PRN / # OF OBS
   G15  1086  1086  1086  1086  1086  1086                  PRN / # OF OBS
   G16     0     0     0     0     0     0                  PRN / # OF OBS
   G17     0     0     0     0     0     0                  PRN / # OF OBS
   G18  1086  1086  1086  1086  1086  1086                  PRN / # OF OBS
   G19     0     0     0     0     0     0                  PRN / # OF OBS
   G20  1086  1086  1086  1086  1086  1086                  PRN / # OF OBS
   G21     0     0     0     0     0     0                  PRN / # OF OBS
   G22     0     0     0     0     0     0                  PRN / # OF OBS
   G23     0     0     0     0     0     0                  PRN / # OF OBS
   G24  1079  1079  1079  1079  1079  1079                  PRN / # OF OBS
   G25     0     0     0     0     0     0                  PRN / # OF OBS
   G26     0     0     0     0     0     0                  PRN / # OF OBS
   G27  1063  1063  1063  1063  1063  1063                  PRN / # OF OBS
   G28     0     0     0     0     0     0                  PRN / # OF OBS
   G29   163   163   163   163   163   163                  PRN / # OF OBS
   G30    94    94    94    71    71    71                  PRN / # OF OBS
   G31     0     0     0     0     0     0                  PRN / # OF OBS
   G32     0     0     0     0     0     0                  PRN / # OF OBS
   R 1     0     0     0     0     0     0                  PRN / # OF OBS
   R 2     0     0     0     0     0     0                  PRN / # OF OBS
   R 3     0     0     0     0     0     0                  PRN / # OF OBS
   R 4   966   966   966   970   970   970                  PRN / # OF OBS
   R 5  1086  1086  1086  1086  1086  1086                  PRN / # OF OBS
   R 6  1011  1011  1011     0     0     0                  PRN / # OF OBS
   R 7     0     0     0     0     0     0                  PRN / # OF OBS
   R 8     0     0     0     0     0     0                  PRN / # OF OBS
   R 9     0     0     0     0     0     0                  PRN / # OF OBS
   R10     0     0     0     0     0     0                  PRN / # OF OBS
   R11     0     0     0     0     0     0                  PRN / # OF OBS
   R12     0     0     0     0     0     0                  PRN / # OF OBS
   R13     0     0     0     0     0     0                  PRN / # OF OBS
   R14  1080  1080  1080  1082  1082  1082                  PRN / # OF OBS
   R15   691   691   691   690   690   690                  PRN / # OF OBS
   R16     0     0     0     0     0     0                  PRN / # OF OBS
   R17     0     0     0     0     0     0                  PRN / # OF OBS
   R18     0     0     0     0     0     0                  PRN / # OF OBS
   R19     0     0     0     0     0     0                  PRN / # OF OBS
   R20   953   953   953   953   953   953                  PRN / # OF OBS
   R21  1086  1086  1086  1085  1085  1085                  PRN / # OF OBS
   R22   494   494   494   256   256   256                  PRN / # OF OBS
   R23     0     0     0     0     0     0                  PRN / # OF OBS
   R24     0     0     0     0     0     0                  PRN / # OF OBS
                                                            END OF HEADER
 20 10 01 05 52  0.0000000  0 15G15G18G20G29G 5G30G24G27G13R14R 4R 6
                                R 5R20R21
  20019217.743   105201699.76149       521.237    20019217.727    81975350.68749
       406.156  
  20468386.089   107562091.66349       800.995    20468385.880    83814617.12648
       624.147  
  22062644.806   115939979.07848      2774.804    22062644.151    90342842.89545
      2162.180  
  24176336.040   127047501.73347     -3654.788    24176338.161    98998064.61949
     -2847.890  
  23325570.911   122576706.46348     -3154.930    23325570.947    95514314.00246
     -2458.390  
  24330656.472   127858485.51346     -1883.987    24330661.752    99629979.55243
     -1468.047  
  24213110.071   127240755.57047      3838.586    24213113.354    99148639.51347
      2991.109  
  24486085.295   128675244.83747      1963.512    24486086.828   100266431.66348
      1530.012  
  20837497.676   109501786.17449     -1571.569    20837496.727    85326063.99748
     -1224.604  
  22746960.908   121254101.56206      2866.297    22746966.881    94308768.50004
      2229.331  
  20514845.530   109856066.42708     -2617.835    20514848.197    85443612.88807
     -2036.098  
  23247419.263   124052685.19215      3592.461           0.000           0.0000 
         0.000  
  19438519.008   103910023.03008       856.027    19438523.841    80818924.97208
       665.797  
  19793718.752   105845908.95805     -1275.777    19793725.189    82324618.94408
      -992.272  
  21664356.168   115930349.80507      3218.272    21664358.571    90168059.01207
      2503.101  
 20 10 01 05 52  5.0000000  0 15G15G18G20G29G 5G30G24G27G13R14R 4R 6
                                R 5R20R21
  20018721.622   105199092.63049       520.711    20018721.600    81973319.16149
       405.746  
  20467623.707   107558085.57049       800.636    20467623.532    83811495.50048
       623.871  
  22060003.491   115926098.75048      2776.477    22060002.916    90332027.04345
      2163.483  
  24179812.137   127065769.05747     -3652.652    24179814.335    99012298.87748
     -2846.226  
  23328571.388   122592474.48348     -3153.094    23328571.531    95526600.77146
     -2456.960  
  24332448.817   127867903.35245     -1883.906    24332453.837    99637318.15245
     -1467.977  
  24209456.492   127221556.66747      3840.414    24209460.162    99133679.36248
      2992.535  
  24484216.622   128665424.89446      1963.382    24484218.173   100258779.77148
      1529.910  
  20838992.700   109509642.48849     -1571.758    20838991.714    85332185.81447
     -1224.746  
  22744272.846   121239769.30506      2866.262    22744278.327    94297621.24204
      2229.319  
  20517288.918   109869150.71908     -2616.797    20517291.578    85453789.57807
     -2035.285  
  23244051.241   124034716.50105      3594.765           0.000           0.0000 
         0.000  
  19437717.922   103905741.17208       855.878    19437722.792    80815594.63308
       665.680  
  19794912.409   105852292.25605     -1277.956    19794918.822    82329583.72908
      -993.968  
  21661348.756   115914257.06808      3218.073    21661351.343    90155542.44607
      2502.945  
 20 10 01 05 52 10.0000000  0 15G15G18G20G29G 5G30G24G27G13R14R 4R 6
                                R 5R20R21
  20018227.504   105196496.01849       517.226    20018227.470    81971295.81549
       403.030  
  20466863.179   107554089.09449       797.198    20466863.044    83808381.36648
       621.190  
  22057362.159   115912218.39748      2774.887    22057361.726    90321211.18545
      2162.249  
  24183287.809   127084033.99847     -3653.581    24183290.048    99026531.28049
     -2846.952  
  23331571.560   122608240.74248     -3154.184    23331571.801    95538886.15346
     -2457.809  
  24334242.684   127877328.87645     -1886.695    24334247.067    99644662.72443
     -1470.160  
  24205802.354   127202354.07347      3839.504    24205806.364    99118716.29648
      2991.819  
  24482349.297   128655613.63046      1960.449    24482351.514   100251134.67748
      1527.624  
  20840489.411   109517507.59849     -1574.987    20840488.387    85338314.47147
     -1227.266  
  22741585.880   121225445.51506      2862.789    22741591.148    94286480.59204
      2226.620  
  20519732.726   109882237.60608     -2618.749    20519735.263    85463968.25307
     -2036.808  
  23240684.885   124016746.73305      3592.910           0.000           0.0000 
         0.000  
  19436918.411   103901467.57608       852.723    19436923.306    80812270.72908
       663.229  
  19796109.336   105858692.60605     -1283.152    19796115.682    82334561.78008
      -998.011  
  21658343.191   115898173.84108      3214.565    21658345.876    90143033.27407
      2500.219  
 20 10 01 05 52 15.0000000  0 15G15G18G20G29G 5G30G24G27G13R14R 4R 6
                                R 5R20R21
  20017736.745   105193917.00249       513.992    20017736.693    81969286.19649
       400.507  
  20466105.789   107550109.32649       794.206    20466105.725    83805280.24348
       618.858  
  22054722.185   115898345.08148      2773.992    22054721.836    90310400.80845
      2161.551  
  24186764.374   127102303.59247     -3654.522    24186766.660    99040767.32749
     -2847.679  
  23334572.755   122624012.31348     -3154.995    23334573.129    95551175.68546
     -2458.441  
  24336039.047   127886769.04645     -1889.043    24336043.522    99652018.62444
     -1471.991  
  24202148.843   127183154.95847      3839.374    24202153.121    99103755.94148
      2991.723  
  24480485.374   128645818.20946      1957.472    24480487.718   100243501.86548
      1525.305  
  20841989.099   109525388.54349     -1577.827    20841988.112    85344455.46747
     -1229.476  
  22738902.047   121211137.73506      2859.921    22738907.064    94275352.33704
      2224.387  
  20522178.377   109895334.36308     -2620.309    20522180.797    85474154.62807
     -2038.019  
  23237317.190   123998782.72305      3591.996           0.000           0.0000 
         0.000  
  19436121.765   103897209.36109       849.979    19436126.665    80808958.78008
       661.094  
  19797310.742   105865117.12605     -1287.394    19797317.092    82339558.62908
     -1001.313  
  21655340.767   115882107.32708      3211.312    21655343.533    90130537.10307
      2497.687  
 20 10 01 05 52 20.0000000  0 15G15G18G20G29G 5G30G24G27G13R14R 4R 6
                                R 5R20R21
  20017249.348   105191355.65249       510.421    20017249.298    81967290.33449
       397.727  
  20465351.584   107546146.32449       790.852    20465351.569    83802192.19148
       616.241  
  22052083.536   115884478.88548      2772.727    22052083.275    90299595.96945
      2160.566  
  24190241.892   127120577.85647     -3655.265    24190244.101    99055006.99448
     -2848.261  
  23337574.955   122639789.23148     -3155.887    23337575.536    95563469.38547
     -2459.137  
  24337838.380   127896224.07445     -1892.948    24337842.227    99659386.17645
     -1475.030  
  24198495.907   127163959.06146      3838.792    24198500.568    99088798.12548
      2991.266  
  24478624.284   128636038.61346      1953.953    24478627.021   100235881.40648
      1522.563  
  20843491.828   109533285.37949     -1581.069    20843490.860    85350608.84447
     -1232.008  
  22736221.302   121196845.82706      2856.620    22736225.702    94264236.45704
      2221.820  
  20524625.897   109908441.03508     -2622.343    20524628.201    85484348.69507
     -2039.605  
  23233951.673   123980824.64704      3590.328           0.000           0.0000 
         0.000  
  19435328.065   103892966.54908       846.797    19435332.928    80805658.80908
       658.617  
  19798516.747   105871566.08705     -1291.894    19798523.063    82344574.47708
     -1004.813  
  21652341.498   115866057.56908      3208.141    21652344.333    90118053.98106
      2495.222  
 20 10 01 05 52 25.0000000  0 15G15G18G20G29G 5G30G24G27G13R14R 4R 6
                                R 5R20R21
  20016765.009   105188810.37149       507.554    20016764.964    81965307.00449
       395.495  
  20464600.283   107542198.49149       788.125    20464600.289    83799115.95448
       614.120  
  22049445.907   115870618.18148      2771.905    22049445.774    90288795.43645
      2159.926  
  24193719.935   127138855.25247     -3655.676    24193722.195    99069249.11248
     -2848.586  
  23340577.888   122655570.00248     -3156.449    23340578.631    95575766.08447
     -2459.573  
  24339640.272   127905692.23345     -1894.827    24339643.575    99666763.96045
     -1476.487  
  24194843.332   127144765.14747      3838.679    24194848.406    99073841.82048
      2991.179  
  24476765.880   128626273.29046      1951.668    24476768.851   100228272.10548
      1520.784  
  20844997.260   109541196.53849     -1583.621    20844996.309    85356773.37848
     -1233.996  
  22733543.227   121182568.30706      2854.246    22733547.253    94253131.72104
      2219.969  
  20527074.964   109921555.99008     -2623.695    20527077.252    85494549.21907
     -2040.651  
  23230587.093   123962871.07105      3589.813           0.000           0.0000 
         0.000  
  19434536.918   103888737.56909       844.410    19434541.713    80802369.60508
       656.758  
  19799726.900   105878037.69305     -1296.690    19799733.280    82349607.95608
     -1008.538  
  21649345.147   115850023.04908      3205.397    21649347.955    90105582.70107
      2493.085  
 20 10 01 05 52 30.0000000  0 15G15G18G20G29G 5G30G24G27G13R14R 4R 6
                                R 5R20R21
  20016283.854   105186281.72749       504.409    20016283.764    81963336.63349
       393.043  
  20463851.981   107538266.42349       785.210    20463852.014    83796052.01648
       611.851  
  22046809.436   115856763.61648      2770.573    22046809.462    90277999.67645
      2158.891  
  24197198.643   127157136.29847     -3656.438    24197200.890    99083494.04048
     -2849.179  
  23343581.640   122671355.07548     -3157.124    23343582.466    95588066.13346
     -2460.101  
  24341444.836   127915174.12545     -1897.401    24341447.334    99674152.45444
     -1478.495  
  24191191.319   127125573.78447      3838.370    24191196.604    99058887.52048
      2990.933  
  24474910.385   128616522.81947      1949.211    24474913.665   100220674.33449
      1518.867  
  20846505.511   109549122.54549     -1586.363    20846504.599    85362949.47648
     -1236.132  
  22730867.813   121168305.81407      2851.211    22730871.437    94242038.68004
      2217.608  
  20529525.725   109934679.76508     -2625.448    20529527.985    85504756.59207
     -2042.019  
  23227223.161   123944922.54804      3590.050           0.000           0.0000 
         0.000  
  19433748.517   103884523.11509       841.957    19433753.223    80799091.70008
       654.851  
  19800941.500   105884532.64305     -1301.438    19800947.847    82354659.58708
     -1012.234  
  21646351.754   115834004.36208      3202.508    21646354.571    90093123.69207
      2490.832  
 20 10 01 05 52 35.0000000  0 15G15G18G20G29G 5G30G24G27G13R14R 4R 6
                                R 5R20R21
  20015805.369   105183767.05349       501.534    20015805.253    81961377.14849
       390.805  
  20463106.163   107534347.43249       782.582    20463106.248    83792998.25948
       609.801  
  22044173.628   115842912.44848      2769.813    22044173.784    90267206.58045
      2158.296  
  24200677.542   127175418.31347     -3656.573    24200679.869    99097739.75249
     -2849.284  
  23346585.702   122687141.80848     -3157.457    23346586.696    95600367.48347
     -2460.359  
  24343251.417   127924666.99346     -1899.648    24343253.756    99681549.48344
     -1480.249  
  24187539.186   127106382.10146      3838.141    24187544.666    99043932.97648
      2990.757  
  24473057.329   128606784.60347      1946.219    24473060.627   100213086.10749
      1516.534  
  20848016.066   109557060.68849     -1588.723    20848015.230    85369135.04148
     -1237.969  
  22728194.578   121154055.40307      2848.679    22728197.552    94230955.02104
      2215.636  
  20531977.583   109947809.60708     -2626.633    20531979.859    85514968.68607
     -2042.940  
  23223860.059   123926976.14305      3589.503           0.000           0.0000 
         0.000  
  19432962.269   103880320.29409       839.297    19432966.862    80795822.83708
       652.781  
  19802160.035   105891048.06905     -1305.085    19802166.218    82359727.13608
     -1015.070  
  21643360.774   115817998.77508      3199.909    21643363.660    90080674.91306
      2488.820  
 20 10 01 05 52 40.0000000  0 15G15G18G20G29G 5G30G24G27G13R14R 4R 6
                                R 5R20R21
  20015329.601   105181266.71649       498.410    20015329.477    81959428.83249
       388.370  
  20462362.884   107530441.88249       779.546    20462363.032    83789954.97948
       607.437  
  22041538.563   115829065.08748      2768.948    22041538.945    90256416.41845
      2157.617  
  24204156.760   127193701.63747     -3657.042    24204159.090    99111986.48548
     -2849.651  
  23349590.142   122702930.53048     -3158.104    23349591.157    95612670.37246
     -2460.866  
  24345060.223   127934171.29945     -1902.233    24345062.548    99688955.40344
     -1482.269  
  24183887.034   127087190.53747      3838.016    24183892.762    99028978.54148
      2990.659  
  24471206.444   128597058.88347      1943.565    24471209.858   100205507.61348
      1514.464  
  20849528.984   109565011.34649     -1591.593    20849528.246    85375330.36847
     -1240.202  
  22725523.631   121139817.69207      2846.008    22725526.516    94219881.23504
      2213.559  
  20534430.695   109960945.87608     -2628.351    20534432.922    85525185.79607
     -2044.272  
  23220497.054   123909032.40804      3588.456           0.000           0.0000 
         0.000  
  19432178.301   103876129.53409       836.691    19432182.774    80792563.35808
       650.761  
  19803382.366   105897584.36405     -1309.710    19803388.569    82364810.92308
     -1018.663  
  21640372.296   115802006.66708      3196.983    21640375.111    90068236.62407
      2486.543  
 20 10 01 05 52 45.0000000  0 15G15G18G20G29G 5G30G24G27G13R14R 4R 6
                                R 5R20R21
  20014857.218   105178784.07949       495.019    20014857.095    81957494.31849
       385.729  
  20461622.841   107526553.21349       776.202    20461623.027    83786924.84348
       604.827  
  22038904.850   115815224.92548      2767.601    22038905.380    90245631.87845
      2156.574  
  24207636.855   127211989.66147     -3657.843    24207639.130    99126236.88448
     -2850.272  
  23352595.597   122718724.67648     -3159.180    23352596.697    95624977.49647
     -2461.702  
  24346871.734   127943690.44845     -1904.949    24346873.934    99696372.91444
     -1484.382  
  24180235.666   127068002.59247      3837.562    24180241.452    99014026.87948
      2990.304  
  24469358.753   128587349.20147      1940.340    24469362.171   100197941.64448
      1511.948  
  20851044.915   109572977.89849     -1594.578    20851044.289    85381538.06248
     -1242.530  
  22722855.493   121125596.13606      2843.234    22722858.789    94208820.04504
      2211.401  
  20536885.622   109974092.11808     -2629.886    20536887.769    85535410.64507
     -2045.472  
  23217135.114   123891094.89205      3586.801           0.000           0.0000 
         0.000  
  19431397.264   103871954.29009       833.765    19431401.731    80789315.94708
       648.480  
  19804609.210   105904145.19305     -1314.379    19804615.490    82369913.78208
     -1022.297  
  21637387.032   115786031.51008      3193.683    21637389.725    90055811.49607
      2483.973  
 20 10 01 05 52 50.0000000  0 15G15G18G20G29G 5G30G24G27G13R14R 4R 6
                                R 5R20R21
  20014388.053   105176318.28649       491.480    20014387.925    81955572.92849
       382.972  
  20460885.869   107522680.52249       772.930    20460886.071    83783907.16148
       602.276  
  22036272.306   115801391.09648      2766.308    22036272.848    90234852.31645
      2155.570  
  24211117.724   127230281.46947     -3658.628    24211119.987    99140490.22648
     -2850.886  
  23355601.938   122734523.35748     -3160.050    23355603.114    95637288.14646
     -2462.383  
  24348685.862   127953223.47245     -1908.004    24348688.195    99703801.25945
     -1486.758  
  24176584.813   127048817.26147      3836.727    24176590.352    98999077.29947
      2989.656  
  24467513.950   128577654.57246      1937.714    24467517.483   100190387.39349
      1509.906  
  20852563.740   109580959.46949     -1597.734    20852563.162    85387757.46847
     -1244.991  
  22720190.111   121111389.71306      2840.000    22720193.790    94197770.60205
      2208.891  
  20539342.244   109987247.31408     -2631.875    20539344.314    85545642.47507
     -2047.015  
  23213774.445   123873162.34404      3586.949           0.000           0.0000 
         0.000  
  19430618.945   103867793.60109       830.749    19430623.396    80786079.85508
       646.141  
  19805840.667   105910729.50105     -1318.844    19805846.801    82375034.90008
     -1025.769  
  21634404.699   115770072.48008      3190.382    21634407.453    90043398.92507
      2481.409  
 20 10 01 05 52 55.0000000  0 15G15G18G20G29G 5G30G24G27G13R14R 4R 6
                                R 5R20R21
  20013921.805   105173867.85949       488.234    20013921.640    81953663.50349
       380.437  
  20460151.661   107518822.32949       769.921    20460151.857    83780900.77148
       599.934  
  22033640.742   115787562.13548      2765.027    22033641.248    90224076.45145
      2154.562  
  24214599.058   127248575.62448     -3659.358    24214601.288    99154745.41448
     -2851.449  
  23358608.871   122750325.08448     -3160.812    23358609.970    95649601.15447
     -2462.976  
  24350502.171   127962768.86545     -1909.331    24350504.632    99711239.23544
     -1487.792  
  24172934.152   127029633.25247      3836.398    24172939.663    98984128.71448
      2989.397  
  24465671.646   128567973.64046      1934.453    24465675.535   100182843.82948
      1507.371  
  20854085.152   109588954.60649     -1600.688    20854084.614    85393987.43647
     -1247.293  
  22717527.074   121097196.94806      2836.844    22717531.597    94186731.82505
      2206.434  
  20541800.276   110000410.02308     -2633.507    20541802.384    85555880.12507
     -2048.288  
  23210414.505   123855233.65304      3585.042           0.000           0.0000 
         0.000  
  19429843.027   103863646.03509       827.891    19429847.478    80782853.97308
       643.914  
  19807075.934   105917335.55905     -1324.055    19807082.175    82380172.94508
     -1029.820  
  21631425.108   115754128.05108      3187.265    21631427.894    90030997.73907
      2478.987  
 20 10 01 05 53  0.0000000  0 14G15G18G20G29G 5G24G27G13R14R 4R 6R 5
                                R20R21
  20013459.162   105171436.40349       484.362    20013458.949    81951768.86249
       377.426  
  20459420.913   107514982.28249       766.034    20459421.140    83777908.54648
       596.910  
  22031010.816   115773741.65448      2763.058    22031011.362    90213307.28645
      2153.034  
  24218081.394   127266875.73746     -3660.832    24218083.545    99169005.20549
     -2852.604  
  23361617.047   122766133.46448     -3162.309    23361618.116    95661919.38646
     -2464.141  
  24169284.427   127010454.03947      3835.477    24169290.001    98969183.86148
      2988.679  
  24463832.564   128558309.88646      1930.379    24463836.772   100175313.62048
      1504.190  
  20855609.803   109596966.89149     -1604.227    20855609.340    85400230.77847
     -1250.046  
  22714867.579   121083021.75006      2833.499    22714872.472    94175706.67305
      2203.831  
  20544260.395   110013583.84908     -2635.914    20544262.611    85566126.44507
     -2050.155  
  23207056.219   123837312.32004      3582.808           0.000           0.0000 
         0.000  
  19429070.279   103859515.22209       824.367    19429074.702    80779641.12208
       641.172  
  19808316.147   105923967.41005     -1329.355    19808322.385    82385331.04408
     -1033.944  
  21628448.912   115738202.01308      3183.203    21628451.681    90018610.79207
      2475.815  
 20 10 01 05 53  5.0000000  0 14G15G18G20G29G 5G24G27G13R14R 4R 6R 5
                                R20R21
  20012999.644   105169021.39749       481.565    20012999.400    81949887.05349
       375.246  
  20458693.139   107511157.83749       763.569    20458693.422    83774928.44548
       594.983  
  22028382.029   115759927.13048      2762.590    22028382.428    90202542.70945
      2152.664  
  24221564.279   127285179.11047     -3660.891    24221566.487    99183267.55248
     -2852.647  
  23364626.022   122781945.92648     -3162.617    23364626.907    95674240.75546
     -2464.383  
  24165635.107   126991277.23446      3835.616    24165640.586    98954240.93248
      2988.793  
  24461996.380   128548660.95247      1928.586    24462000.524   100167794.93148
      1502.784  
  20857137.263   109604993.80749     -1606.641    20857136.797    85406485.52147
     -1251.934  
  22712210.966   121068861.44606      2831.042    22712216.252    94164693.15905
      2201.930  
  20546722.152   110026766.28808     -2637.109    20546724.450    85576379.44807
     -2051.089  
  23203698.494   123819395.79104      3582.578           0.000           0.0000 
         0.000  
  19428300.186   103855398.66209       822.042    19428304.568    80776439.34708
       639.367  
  19809560.690   105930622.23205     -1333.184    19809566.788    82390507.01508
     -1036.792  
  21625475.649   115722291.61008      3180.921    21625478.417    90006236.02107
      2474.046  
 20 10 01 05 53 10.0000000  0 14G15G18G20G29G 5G24G27G13R14R 4R 6R 5
                                R20R21
  20012542.621   105166619.60049       478.910    20012542.352    81948015.51849
       373.172  
  20457967.710   107507345.74649       761.055    20457968.068    83771957.99248
       593.031  
  22025753.772   115746115.29448      2762.054    22025753.713    90191780.21644
      2152.245  
  24225047.259   127303482.66947     -3660.772    24225049.503    99197530.01549
     -2852.559  
  23367635.190   122797759.23848     -3162.780    23367635.768    95686562.85245
     -2464.500  
  24161985.618   126972099.57247      3835.554    24161991.109    98939297.27548
      2988.738  
  24460162.556   128539023.48446      1926.379    24460166.249   100160285.22348
      1501.069  
  20858666.888   109613032.00949     -1608.824    20858666.359    85412749.04247
     -1253.632  
  22709556.415   121054712.75506      2828.586    22709561.823    94153688.57004
      2200.003  
  20549184.870   110039953.97108     -2638.069    20549187.294    85586636.54407
     -2051.832  
  23200341.207   123801480.72704      3582.823           0.000           0.0000 
         0.000  
  19427532.160   103851293.09209       819.883    19427536.487    80773246.13708
       637.688  
  19810808.851   105937296.76905     -1337.070    19810814.890    82395698.31408
     -1039.949  
  21622504.767   115706393.72508      3178.344    21622507.462    89993871.05007
      2472.051  
 20 10 01 05 53 15.0000000  0 14G15G18G20G29G 5G24G27G13R14R 4R 6R 5
                                R20R21
  20012088.512   105164233.11649       475.593    20012088.233    81946155.91649
       370.589  
  20457245.050   107503548.13949       757.917    20457245.488    83768998.83348
       590.585  
  22023126.459   115732308.32948      2760.574    22023126.087    90181021.52845
      2151.094  
  24228530.634   127321788.36447     -3661.538    24228533.061    99211794.22949
     -2853.144  
  23370644.910   122813575.54948     -3163.820    23370645.184    95698887.25245
     -2465.315  
  24158336.414   126952923.12246      3835.030    24158341.936    98924354.61948
      2988.339  
  24458331.222   128529399.63746      1923.203    24458334.745   100152786.11448
      1498.602  
  20860199.108   109621083.66449     -1611.918    20860198.516    85419023.06247
     -1256.043  
  22706904.644   121040577.70106      2825.667    22706909.965    94142694.67505
      2197.746  
  20551648.993   110053149.08108     -2639.930    20551651.529    85596899.37307
     -2053.284  
  23196984.742   123783569.23804      3581.655           0.000           0.0000 
         0.000  
  19426766.570   103847200.51109       816.983    19426770.785    80770063.01008
       635.429  
  19812061.051   105943993.12705     -1341.504    19812067.041    82400906.60508
     -1043.390  
  21619536.544   115690510.41308      3174.944    21619539.233    89981517.36407
      2469.401  
 20 10 01 05 53 20.0000000  0 14G15G18G20G29G 5G24G27G13R14R 4R 6R 5
                                R20R21
  20011637.185   105161861.35049       472.938    20011636.900    81944307.78449
       368.519  
  20456525.043   107499764.44749       755.437    20456525.565    83766050.49648
       588.648  
  22020499.920   115718505.58248      2760.133    22020499.536    90170266.14945
      2150.754  
  24232014.389   127340095.74847     -3661.508    24232016.817    99226059.71948
     -2853.129  
  23373655.125   122829394.24348     -3164.046    23373655.089    95711213.49545
     -2465.495  
  24154687.415   126933747.38147      3835.097    24154692.941    98909412.46848
      2988.382  
  24456502.307   128519788.87146      1920.659    24456505.760   100145297.19648
      1496.613  
  20861733.782   109629148.18049     -1614.168    20861733.076    85425307.10947
     -1257.793  
  22704255.478   121026455.87507      2823.140    22704260.655    94131711.02905
      2195.777  
  20554114.308   110066350.88608     -2640.999    20554117.023    85607167.44007
     -2054.112  
  23193628.623   123765660.90904      3581.730           0.000           0.0000 
         0.000  
  19426003.303   103843120.35009       814.801    19426007.417    80766889.55508
       633.734  
  19813317.356   105950710.87405     -1345.440    19813323.165    82406131.51708
     -1046.456  
  21616570.995   115674641.19608      3172.484    21616573.700    89969174.61807
      2467.483  
 20 10 01 05 53 25.0000000  0 14G15G18G20G29G 5G24G27G13R14R 4R 6R 5
                                R20R21
  20011189.157   105159506.82049       469.180    20011188.850    81942473.09349
       365.594  
  20455808.171   107495997.16749       751.766    20455808.715    83763114.95848
       585.792  
  22017874.644   115704709.57348      2758.281    22017874.242    90159516.03845
      2149.309  
  24235498.954   127358407.19547     -3662.750    24235501.314    99240328.30748
     -2854.101  
  23376666.313   122845217.82948     -3165.258    23376666.040    95723543.55545
     -2466.437  
  24151039.006   126914574.83147      3834.159    24151044.564    98894472.81648
      2987.652  
  24454676.366   128510193.61347      1917.543    24454679.806   100137820.37648
      1494.184  
  20863271.371   109637228.01249     -1617.520    20863270.556    85431603.08247
     -1260.409  
  22701609.272   121012349.91807      2819.621    22701614.421    94120739.69905
      2193.063  
  20556581.432   110079562.03508     -2643.238    20556584.119    85617442.77707
     -2055.851  
  23190273.876   123747758.42504      3580.140           0.000           0.0000 
         0.000  
  19425242.852   103839055.20909       811.527    19425246.865    80763727.77608
       631.184  
  19814578.049   105957452.36605     -1350.069    19814583.810    82411374.88708
     -1050.059  
  21613608.583   115658788.63508      3168.843    21613611.332    89956844.85607
      2464.655  
 20 10 01 05 53 30.0000000  0 14G15G18G20G29G 5G24G27G13R14R 4R 6R 5
                                R20R21
  20010744.237   105157168.77849       465.737    20010743.890    81940651.24149
       362.909  
  20455094.237   107492245.60249       748.516    20455094.822    83760191.65548
       583.253  
  22015250.491   115690919.61648      2757.159    22015250.069    90148770.61346
      2148.434  
  24238984.121   127376722.02647     -3663.797    24238986.500    99254599.62349
     -2854.910  
  23379678.269   122861045.54948     -3166.219    23379677.843    95735876.82545
     -2467.188  
  24147391.045   126895404.66247      3833.714    24147396.621    98879535.04048
      2987.305  
  24452853.232   128500613.19947      1914.266    24452856.638   100130355.12149
      1491.636  
  20864811.741   109645322.55749     -1620.683    20864810.819    85437910.51647
     -1262.875  
  22698965.906   120998258.91207      2816.554    22698971.007    94109779.99705
      2190.644  
  20559050.127   110092781.84908     -2645.042    20559052.884    85627724.85008
     -2057.257  
  23186920.017   123729860.68904      3578.644           0.000           0.0000 
         0.000  
  19424485.095   103835004.41009       808.362    19424488.998    80760577.16108
       628.726  
  19815843.216   105964217.03106     -1355.362    19815848.854    82416636.30408
     -1054.171  
  21610649.104   115642951.92908      3165.530    21610651.896    89944527.45507
      2462.082  
 20 10 01 05 53 35.0000000  0 14G15G18G20G29G 5G24G27G13R14R 4R 6R 5
                                R20R21
  20010303.211   105154851.23649       462.276    20010302.844    81938845.35849
       360.211  
  20454384.059   107488513.71749       745.188    20454384.660    83757283.69148
       580.663  
  22012628.227   115677139.71348      2755.727    22012627.695    90138033.02545
      2147.316  
  24242470.770   127395044.20947     -3664.358    24242473.176    99268876.63649
     -2855.347  
  23382691.779   122876881.43248     -3167.273    23382691.171    95748216.49045
     -2468.003  
  24143744.357   126876241.00347      3832.461    24143749.888    98864602.30848
      2986.332  
  24451033.676   128491051.64646      1911.081    24451037.101   100122904.54549
      1489.147  
  20866355.633   109653435.70049     -1623.620    20866354.639    85444232.44847
     -1265.159  
  22696326.044   120984186.99706      2813.355    22696331.121    94098835.20105
      2188.167  
  20561521.152   110106014.29508     -2647.027    20561523.998    85638016.76407
     -2058.801  
  23183567.893   123711972.01704      3578.007           0.000           0.0000 
         0.000  
  19423730.732   103830971.84309       805.542    19423734.586    80757440.72408
       626.535  
  19817113.410   105971008.76806     -1360.219    19817119.012    82421918.77108
     -1057.948  
  21607693.303   115627135.24708      3161.901    21607696.168    89932225.57807
      2459.254  
 20 10 01 05 53 40.0000000  0 14G15G18G20G29G 5G24G27G13R14R 4R 6R 5
                                R20R21
  20009864.525   105152545.92449       460.039    20009864.135    81937049.01149
       358.469  
  20453676.064   107484793.27349       743.120    20453676.669    83754384.64848
       579.050  
  22010006.365   115663361.61148      2755.491    22010005.550    90127296.87345
      2147.141  
  24245957.205   127413365.42547     -3663.917    24245959.606    99283152.89049
     -2855.004  
  23385705.258   122892717.18248     -3167.027    23385704.490    95760556.02745
     -2467.813  
  24140097.312   126857075.59247      3833.313    24140102.641    98849668.25348
      2987.000  
  24449216.133   128481500.67846      1909.523    24449219.582   100115462.23449
      1487.938  
  20867901.443   109661559.11449     -1625.628    20867900.452    85450562.38947
     -1266.723  
  22693688.053   120970125.80006      2811.574    22693693.370    94087898.70006
      2186.780  
  20563993.024   110119250.89908     -2647.616    20563995.831    85648311.89307
     -2059.262  
  23180215.479   123694083.77104      3578.004           0.000           0.0000 
         0.000  
  19422978.265   103826949.29009       803.637    19422982.063    80754312.07608
       625.051  
  19818387.109   105977819.24505     -1364.093    19818392.643    82427215.80808
     -1060.828  
  21604739.635   115611330.13608      3159.988    21604742.723    89919932.70107
      2457.766  
 20 10 01 05 53 45.0000000  0 14G15G18G20G29G 5G24G27G13R14R 4R 6R 5
                                R20R21
  20009428.234   105150253.10849       456.898    20009427.812    81935262.40649
       356.022  
  20452970.327   107481084.53749       740.183    20452970.895    83751494.71548
       576.762  
  22007384.889   115649585.56748      2754.594    22007383.746    90116562.30645
      2146.441  
  24249443.464   127431685.90447     -3664.496    24249445.854    99297428.58949
     -2855.457  
  23388718.814   122908553.11848     -3167.531    23388717.880    95772895.70245
     -2468.211  
  24136449.962   126837908.69847      3832.647    24136455.054    98834733.02548
      2986.480  
  24447400.648   128471960.58246      1906.641    24447404.187   100108028.43348
      1485.699  
  20869449.245   109669693.11849     -1628.203    20869448.300    85456900.56747
     -1268.733  
  22691052.160   120956075.69706      2808.609    22691057.810    94076970.87305
      2184.476  
  20566465.723   110132492.03108     -2649.371    20566468.556    85658610.54707
     -2060.621  
  23176863.679   123676196.45303      3577.440           0.000           0.0000 
         0.000  
  19422227.696   103822936.91209       801.026    19422231.466    80751191.34308
       623.019  
  19819664.267   105984648.69205     -1368.069    19819669.895    82432527.59508
     -1064.059  
  21601788.278   115595536.89008      3157.098    21601791.564    89907649.09407
      2455.523  
 20 10 01 05 53 50.0000000  0 13G15G18G20G29G 5G24G27G13R14R 4R 5R20
                                R21
  20008995.166   105147977.16449       453.785    20008994.674    81933488.93349
       353.593  
  20452267.632   107477391.91049       737.219    20452268.189    83748617.34648
       574.456  
  22004764.620   115635815.93048      2753.668    22004763.273    90105832.71945
      2145.710  
  24252930.448   127450010.12647     -3665.063    24252932.881    99311707.19549
     -2855.898  
  23391733.221   122924393.52648     -3168.237    23391732.125    95785238.87545
     -2468.762  
  24132803.202   126818744.75247      3832.422    24132808.179    98819800.08748
      2986.305  
  24445588.259   128462435.85146      1903.163    24445591.718   100100606.51747
      1482.973  
  20870999.868   109677842.03949     -1630.917    20870998.955    85463250.39547
     -1270.844  
  22688419.164   120942041.03406      2805.695    22688425.118    94066054.99905
      2182.202  
  20568940.099   110145742.10708     -2650.777    20568942.858    85668916.17707
     -2061.714  
  19421479.842   103818939.04909       798.335    19421483.594    80748081.90908
       620.929  
  19820945.779   105991501.54405     -1372.754    19820951.511    82437857.59308
     -1067.702  
  21598839.948   115579760.00007      3153.941    21598843.352    89895378.18907
      2453.065  
 20 10 01 05 53 55.0000000  0 13G15G18G20G29G 5G24G27G13R14R 4R 5R20
                                R21
  20008565.002   105145716.54149       450.555    20008564.487    81931727.42049
       351.081  
  20451567.725   107473713.78449       734.211    20451568.234    83745751.27348
       572.108  
  22002145.274   115622051.17448      2752.496    22002143.848    90095106.92445
      2144.797  
  24256417.929   127468336.43447     -3665.272    24256420.268    99325987.36548
     -2856.070  
  23394748.185   122940236.83548     -3168.883    23394747.051    95797584.33745
     -2469.258  
  24129156.714   126799582.20046      3832.237    24129161.575    98804868.22947
      2986.159  
  24443778.271   128452924.54946      1901.104    24443781.815   100093195.17449
      1481.391  
  20872553.036   109686004.36649     -1633.737    20872552.176    85469610.63847
     -1273.047  
  22685788.704   120928020.26006      2802.496    22685794.986    94055149.95805
      2179.589  
  20571415.864   110158999.40508     -2652.238    20571418.463    85679227.39307
     -2062.855  
  19420734.439   103814954.34509       795.698    19420738.164    80744982.68808
       618.874  
  19822231.298   105998376.19705     -1376.960    19822237.220    82443204.54808
     -1070.969  
  21595894.384   115563997.87808      3150.832    21595897.889    89883118.75507
      2450.648  
 20 10 01 05 54  0.0000000  0 13G15G18G20G29G 5G24G27G13R14R 4R 5R20
                                R21
  20008138.037   105143472.91849       446.948    20008137.528    81929979.15849
       348.273  
  20450870.921   107470051.89949       730.758    20450871.318    83742897.86148
       569.422  
  21999527.248   115608293.04048      2750.866    21999525.725    90084386.30345
      2143.526  
  24259906.100   127486666.45747     -3665.976    24259908.373    99340270.51049
     -2856.608  
  23397764.039   122956084.85048     -3170.039    23397762.949    95809933.43246
     -2470.160  
  24125510.821   126780422.71743      3831.961    24125515.569    98789938.88347
      2985.965  
  24441971.294   128443428.78847      1897.776    24441974.971   100085795.85549
      1478.784  
  20874109.097   109694181.74249     -1637.124    20874108.259    85475982.60147
     -1275.688  
  22683161.217   120914015.21606      2799.351    22683167.807    94044257.16206
      2177.272  
  20573893.333   110172265.79008     -2654.121    20573895.767    85689545.67907
     -2064.320  
  19419991.800   103810984.36009       792.472    19419995.473    80741894.92108
       616.363  
  19823521.333   106005274.40405     -1382.194    19823527.339    82448569.81908
     -1075.043  
  21592951.842   115548252.30608      3147.589    21592955.377    89870872.22607
      2448.124  
 20 10 01 05 54  5.0000000  0 13G15G18G20G29G 5G24G27G13R14R 4R 5R20
                                R21
  20007714.224   105141245.80049       443.703    20007713.696    81928243.73249
       345.738  
  20450177.101   107466405.78549       727.577    20450177.437    83740056.72248
       566.940  
  21996910.395   115594541.01348      2749.769    21996908.804    90073670.48345
      2142.680  
  24263394.803   127504999.77546     -3666.859    24263397.178    99354556.24148
     -2857.293  
  23400780.620   122971936.96448     -3170.835    23400779.622    95822285.70446
     -2470.785  
  24121865.312   126761265.68945      3831.093    24121870.392    98775011.30448
      2985.270  
  24440167.191   128433947.94547      1894.516    24440170.980   100078408.21949
      1476.246  
  20875667.967   109702373.65949     -1639.776    20875667.061    85482365.94947
     -1277.745  
  22680536.627   120900025.36006      2796.698    22680543.349    94033376.17605
      2175.078  
  20576372.338   110185540.78108     -2655.773    20576374.629    85699870.68107
     -2065.602  
  19419251.845   103807028.65609       789.676    19419255.516    80738818.26608
       614.190  
  19824815.609   106012195.64005     -1386.784    19824821.715    82453952.98008
     -1078.616  
  21590012.350   115532522.86208      3144.433    21590015.912    89858638.19307
      2445.667  
 20 10 01 05 54 10.0000000  0 13G15G18G20G29G 5G24G27G13R14R 4R 5R20
                                R21
  20007293.191   105139033.35049       440.565    20007292.648    81926519.73549
       343.292  
  20449485.916   107462773.58249       724.684    20449486.207    83737226.43948
       564.687  
  21994294.320   115580793.19548      2748.851    21994292.710    90062957.88845
      2141.956  
  24266883.849   127523334.55747     -3667.542    24266886.396    99368843.03548
     -2857.831  
  23403797.625   122987791.36848     -3171.445    23403796.779    95834639.77446
     -2471.261  
  24118220.089   126742109.57145      3831.082    24118225.133    98760084.42047
      2985.253  
  24438365.547   128424480.21347      1891.809    24438369.436   100071030.73248
      1474.129  
  20877229.257   109710578.29349     -1642.690    20877228.260    85488759.17347
     -1280.019  
  22677914.581   120886048.85207      2793.254    22677921.247    94022505.58105
      2172.534  
  20578852.556   110198822.39308     -2657.590    20578854.771    85710200.82107
     -2067.020  
  19418514.182   103803085.42709       786.913    19418517.928    80735751.30908
       612.043  
  19826113.888   106019138.08605     -1391.151    19826120.016    82459352.65508
     -1082.011  
  21587075.517   115516807.52508      3141.168    21587079.164    89846415.12907
      2443.125  
 20 10 01 05 54 15.0000000  0 14G15G18G20G29G 5G30G24G27G13R14R 4R 5
                                R20R21
  20006875.594   105136838.85949       437.218    20006875.023    81924809.75449
       340.690  
  20448798.031   107459158.63149       721.272    20448798.238    83734409.59948
       562.030  
  21991679.713   115567053.03048      2747.261    21991678.036    90052251.23645
      2140.719  
  24270373.839   127541674.10847     -3668.273    24270376.390    99383133.57149
     -2858.406  
  23406815.719   123003651.40548     -3172.469    23406814.901    95846998.29045
     -2472.051  
  24379903.430   128117257.83754     -1952.313    24379909.329    99831644.42855
     -1521.297  
  24114575.515   126722957.51645      3829.585    24114580.598    98745160.75347
      2984.093  
  24436567.001   128415028.88247      1888.570    24436570.997   100063666.04748
      1471.609  
  20878793.566   109718798.98349     -1645.761    20878792.572    85495164.89147
     -1282.414  
  22675295.750   120872089.00806      2790.250    22675302.459    94011647.88906
      2170.188  
  20581334.646   110212113.99908     -2659.265    20581336.794    85720538.76407
     -2068.315  
  19417779.475   103799157.93509       783.694    19417783.271    80732696.59708
       609.539  
  19827416.726   106026105.00805     -1396.022    19827422.876    82464771.38608
     -1085.796  
  21584141.977   115501109.84108      3137.714    21584145.832    89834205.83907
      2440.444  
 20 10 01 05 54 20.0000000  0 14G15G18G20G29G 5G30G24G27G13R14R 4R 5
                                R20R21
  20006461.078   105134660.75149       434.011    20006460.502    81923112.51649
       338.188  
  20448113.089   107455559.29649       718.202    20448113.300    83731604.92548
       559.640  
  21989066.233   115553318.78648      2746.422    21989064.543    90041549.23145
      2140.069  
  24273864.445   127560016.68247     -3668.625    24273866.917    99397426.47648
     -2858.675  
  23409834.587   123019515.38248     -3172.969    23409833.850    95859359.78746
     -2472.444  
  24381760.860   128127024.16743     -1955.019    24381763.989    99839254.57744
     -1523.394  
  24110931.596   126703807.87244      3830.477    24110936.787    98730238.98646
      2984.785  
  24434771.388   128405592.40547      1885.820    24434775.285   100056312.97148
      1469.469  
  20880360.590   109727034.02949     -1648.495    20880359.644    85501581.82447
     -1284.543  
  22672679.759   120858144.23907      2787.593    22672686.539    94000802.01706
      2168.136  
  20583818.321   110225413.96608     -2660.898    20583820.397    85730883.16607
     -2069.590  
  19417047.376   103795244.50709       781.229    19417051.252    80729652.82608
       607.620  
  19828723.815   106033094.88306     -1400.422    19828730.074    82470207.93808
     -1089.222  
  21581211.382   115485428.04208      3134.953    21581215.481    89822008.89407
      2438.297  
 20 10 01 05 54 25.0000000  0 13G15G18G20G29G 5G30G27G13R14R 4R 5R20
                                R21
  20006049.115   105132496.03049       431.750    20006048.526    81921425.73049
       336.430  
  20447430.542   107451972.61349       716.105    20447430.762    83728810.10848
       558.003  
  21986453.293   115539587.56948      2745.854    21986451.688    90030849.59045
      2139.628  
  24277355.025   127578359.30447     -3668.659    24277357.417    99411719.39948
     -2858.698  
  23412853.593   123035380.36448     -3173.327    23412853.001    95871722.14346
     -2472.723  
  24383621.185   128136800.90144     -1956.520    24383620.800    99846872.93844
     -1524.542  
  24432978.029   128396167.71047      1883.729    24432981.792   100048969.07249
      1467.843  
  20881929.803   109735280.51849     -1650.460    20881928.852    85508007.65347
     -1286.078  
  22670066.097   120844211.60606      2785.331    22670072.773    93989965.52106
      2166.370  
  20586302.951   110238719.23408     -2661.695    20586305.050    85741231.71807
     -2070.207  
  19416317.344   103791342.19409       779.449    19416321.341    80726617.69308
       606.234  
  19830034.732   106040104.51005     -1404.280    19830040.958    82475659.88308
     -1092.218  
  21578283.247   115469759.22208      3132.602    21578287.494    89809822.04407
      2436.468  
 20 10 01 05 54 30.0000000  0 13G15G18G20G29G 5G30G27G13R14R 4R 5R20
                                R21
  20005640.326   105130347.95549       427.863    20005639.710    81919751.91449
       333.398  
  20446751.013   107448401.88249       712.313    20446751.290    83726027.72348
       555.046  
  21983841.540   115525862.62148      2744.250    21983839.999    90020154.84745
      2138.374  
  24280846.275   127596705.34847     -3669.858    24280848.555    99426014.96348
     -2859.641  
  23415873.381   123051249.58148     -3174.397    23415872.847    95884087.72146
     -2473.566  
  24385484.591   128146591.19444     -1960.401    24385488.151    99854501.77145
     -1527.573  
  24431187.504   128386758.12347      1880.629    24431191.207   100041636.95849
      1465.429  
  20883501.818   109743541.66949     -1653.875    20883500.889    85514444.91547
     -1288.738  
  22667455.300   120830294.37307      2781.527    22667462.023    93979141.02306
      2163.410  
  20588789.195   110252033.17708     -2663.894    20588791.415    85751586.99607
     -2071.921  
  19415590.045   103787454.36109       775.918    19415594.100    80723593.81608
       603.487  
  19831349.891   106047137.25305     -1408.637    19831356.146    82481129.79408
     -1095.605  
  21575358.136   115454106.64008      3128.816    21575362.494    89797647.80807
      2433.523  
 20 10 01 05 54 35.0000000  0 13G15G18G20G29G 5G30G27G13R14R 4R 5R20
                                R21
  20005234.820   105128217.16149       424.305    20005234.196    81918091.56149
       330.629  
  20446074.662   107444847.69849       709.047    20446074.983    83723258.23248
       552.500  
  21981231.079   115512144.61948      2742.746    21981229.604    90009465.49645
      2137.202  
  24284338.211   127615055.37947     -3670.608    24284340.412    99440313.62849
     -2860.226  
  23418894.087   123067123.68447     -3175.335    23418893.585    95896457.16746
     -2474.293  
  24387350.316   128156395.55144     -1962.085    24387354.979    99862141.46544
     -1528.905  
  24429399.981   128377364.31148      1877.128    24429403.682   100034317.12548
      1462.698  
  20885076.747   109751818.09949     -1656.979    20885075.876    85520894.06647
     -1291.155  
  22664847.558   120816393.32906      2778.355    22664854.314    93968329.10406
      2160.941  
  20591277.154   110265356.42808     -2665.831    20591279.525    85761949.51207
     -2073.430  
  19414865.540   103783581.56409       772.902    19414869.629    80720581.64508
       601.141  
  19832669.439   106054193.81505     -1413.827    19832675.783    82486618.23908
     -1099.645  
  21572436.270   115438471.14408      3125.398    21572440.619    89785486.86007
      2430.859  
 20 10 01 05 54 40.0000000  0 13G15G18G20G29G 5G30G27G13R14R 4R 5R20
                                R21
  20004832.176   105126101.22049       421.597    20004831.550    81916442.79549
       328.519  
  20445400.998   107441307.63049       706.605    20445401.351    83720499.73048
       550.598  
  21978621.497   115498431.05148      2742.285    21978620.080    89998779.59146
      2136.840  
  24287830.382   127633406.61347     -3671.098    24287832.590    99454613.44645
     -2860.570  
  23421915.198   123083000.16848     -3175.531    23421914.793    95908828.41846
     -2474.448  
  24389218.266   128166211.76044     -1964.464    24389223.429    99869790.48344
     -1530.750  
  24427615.011   128367983.82447      1874.870    24427618.589   100027007.65448
      1460.933  
  20886654.124   109760107.36549     -1659.203    20886653.260    85527353.22247
     -1292.890  
  22662242.352   120802505.86307      2776.168    22662249.220    93957527.71506
      2159.233  
  20593766.397   110278686.30608     -2666.562    20593768.872    85772317.17908
     -2073.995  
  19414143.393   103779721.30209       770.730    19414147.508    80717579.20908
       599.452  
  19833993.085   106061271.81805     -1417.504    19833999.396    82492123.34408
     -1102.507  
  21569517.044   115422850.02607      3122.835    21569521.283    89773337.10707
      2428.867  
 20 10 01 05 54 45.0000000  0 12G15G18G20G 5G30G27G13R14R 4R 5R20R21
  20004432.286   105123999.94449       419.315    20004431.689    81914805.42949
       326.737  
  20444730.021   107437781.50049       704.444    20444730.347    83717752.11248
       548.918  
  21976012.744   115484721.86748      2741.855    21976011.391    89988097.13145
      2136.512  
  23424936.627   123098878.85346     -3174.742    23424936.467    95921201.47844
     -2473.815  
  24391088.269   128176039.37944     -1966.359    24391092.068    99877448.34344
     -1532.222  
  24425832.503   128358616.43547      1872.476    24425836.028   100019708.36349
      1459.070  
  20888233.925   109768409.24549     -1660.898    20888233.107    85533822.24146
     -1294.206  
  22659639.674   120788631.81105      2774.082    22659646.660    93946736.83205
      2157.624  
  20596256.848   110292022.80508     -2667.116    20596259.446    85782690.01907
     -2074.426  
  19413423.586   103775873.43109       768.996    19413427.681    80714586.47107
       598.116  
  19835320.818   106068370.83405     -1421.527    19835326.999    82497644.82807
     -1105.633  
  21566600.477   115407243.16807      3120.495    21566604.764    89761198.45107
      2427.050  
 20 10 01 05 54 50.0000000  0 12G15G18G20G 5G24G27G13R14R 4R 5R20R21
  20004034.848   105121911.38949       415.027    20004034.245    81913177.99249
       323.395  
  20444061.269   107434267.43149       700.063    20444061.616    83715013.86348
       545.503  
  21973404.330   115471014.93247      2739.550    21973403.142    89977416.44546
      2134.726  
  23427958.096   123114757.84446     -3176.960    23427958.220    95933574.77145
     -2475.551  
  24089073.994   126588938.89855      3826.582    24089079.715    98640747.49355
      2981.753  
  24424052.166   128349260.29547      1868.687    24424055.588   100012417.85249
      1456.113  
  20889815.757   109776721.86249     -1665.097    20889814.932    85540299.61446
     -1297.479  
  22657039.070   120774769.22406      2769.652    22657046.201    93935954.81706
      2154.172  
  20598748.172   110305363.92108     -2670.116    20598750.878    85793066.43407
     -2076.762  
  19412705.711   103772036.10308       764.843    19412709.889    80711601.88208
       594.878  
  19836651.815   106075488.99305     -1426.800    19836658.130    82503181.13908
     -1109.742  
  21563686.203   115391648.76908      3115.926    21563690.544    89749069.46007
      2423.492  
 20 10 01 05 54 55.0000000  0 14G15G18G20G29G 5G30G24G27G13R14R 4R 5
                                R20R21
  20003642.012   105119846.99249       411.050    20003641.415    81911569.35949
       320.296  
  20443397.002   107430776.78348       696.175    20443397.395    83712293.89748
       542.477  
  21970798.599   115457321.84848      2738.233    21970797.460    89966746.48545
      2133.676  
  24298310.613   127688475.56555     -3673.000    24298312.235    99497530.34458
     -2862.078  
  23430981.864   123130648.72746     -3178.559    23430982.318    95945957.19645
     -2476.808  
  24394834.945   128195721.94654     -1973.499    24394839.984    99892791.55956
     -1537.797  
  24085432.233   126569806.28445      3826.097    24085438.161    98625838.97246
      2981.374  
  24422276.056   128339926.80247      1865.383    24422279.422   100005145.03349
      1453.546  
  20891401.783   109785056.57649     -1668.585    20891401.014    85546794.19846
     -1300.194  
  22654442.840   120760929.82604      2765.910    22654450.012    93925190.84605
      2151.262  
  20601242.575   110318721.27208     -2672.555    20601245.418    85803455.47907
     -2078.655  
  19411991.967   103768220.69908       761.292    19411996.212    80708634.33508
       592.113  
  19837988.551   106082637.84005     -1432.897    19837995.037    82508741.34808
     -1114.480  
  21560776.444   115376078.31308      3112.562    21560780.714    89736959.11306
      2420.883  
 20 10 01 05 55  0.0000000  0 13G15G18G20G29G 5G24G27G13R14R 4R 5R20
                                R21
  20003252.762   105117801.46849       405.894    20003252.167    81909975.45349
       316.277  
  20442736.218   107427304.40048       691.340    20442736.676    83709588.14148
       538.703  
  21968194.514   115443637.38148      2734.641    21968193.411    89956083.27945
      2130.890  
  24301805.559   127706844.03845     -3675.469    24301807.477    99511843.43048
     -2864.004  
  23434006.899   123146546.05046     -3181.409    23434007.601    95958344.72645
     -2479.022  
  24081792.526   126550678.96244      3823.034    24081797.480    98610934.58245
      2978.984  
  24420503.263   128330610.80547      1860.241    24420506.609    99997885.78248
      1449.535  
  20892991.035   109793408.15049     -1673.323    20892990.296    85553301.91746
     -1303.890  
  22651849.584   120747108.21705      2761.168    22651857.159    93914440.64306
      2147.565  
  20603738.987   110332089.54108     -2676.266    20603741.979    85813853.03807
     -2081.539  
  19411281.351   103764422.11308       756.612    19411285.670    80705679.88908
       588.476  
  19839330.195   106089812.21405     -1439.398    19839336.681    82514321.41608
     -1119.535  
