     2.11           OBSERVATION DATA    M                   RINEX VERSION / TYPE
LEICA GEO OFFICE 8.4                    2-10-20 22:41       PGM / RUN BY / DATE
                                                            OBSERVER / AGENCY
KUH1                                                        MARKER NAME
KUH1                                                        MARKER NUMBER
352348              LEICA GX1220GG      4.10                REC # / TYPE / VERS
                    LEIAX1202GG                             ANT # / TYPE
 -1265372.6094  3799785.9150  4948586.1595                  APPROX POSITION XYZ
        1.7430        0.0000        0.0000                  ANTENNA: DELTA H/E/N
L1PhaOff:   0.0644  L2PhaOff:   0.0640                      COMMENT
     1     1                                                WAVELENGTH FACT L1/2
     6    C1    L1    D1    P2    L2    D2                  # / TYPES OF OBSERV
  2020    10     2     6    38   50.0000000     GPS         TIME OF FIRST OBS
  2020    10     2     8    12   40.0000000     GPS         TIME OF LAST OBS
    18                                                      LEAP SECONDS
    21                                                      # OF SATELLITES
          C1    L1    D1    P2    L2    D2                  COMMENT
   G 1     0     0     0     0     0     0                  PRN / # OF OBS
   G 2     0     0     0     0     0     0                  PRN / # OF OBS
   G 3     0     0     0     0     0     0                  PRN / # OF OBS
   G 4     0     0     0     0     0     0                  PRN / # OF OBS
   G 5     0     0     0     0     0     0                  PRN / # OF OBS
   G 6     0     0     0     0     0     0                  PRN / # OF OBS
   G 7     0     0     0     0     0     0                  PRN / # OF OBS
   G 8   252   252   252   249   249   249                  PRN / # OF OBS
   G 9     0     0     0     0     0     0                  PRN / # OF OBS
   G10  1127  1127  1127  1127  1127  1127                  PRN / # OF OBS
   G11     0     0     0     0     0     0                  PRN / # OF OBS
   G12     0     0     0     0     0     0                  PRN / # OF OBS
   G13   631   631   631   612   612   612                  PRN / # OF OBS
   G14     0     0     0     0     0     0                  PRN / # OF OBS
   G15  1127  1127  1127  1127  1127  1127                  PRN / # OF OBS
   G16     0     0     0     0     0     0                  PRN / # OF OBS
   G17     0     0     0     0     0     0                  PRN / # OF OBS
   G18  1120  1120  1120  1120  1120  1120                  PRN / # OF OBS
   G19     0     0     0     0     0     0                  PRN / # OF OBS
   G20  1127  1127  1127  1127  1127  1127                  PRN / # OF OBS
   G21   567   567   567   566   566   566                  PRN / # OF OBS
   G22     0     0     0     0     0     0                  PRN / # OF OBS
   G23  1127  1127  1127  1127  1127  1127                  PRN / # OF OBS
   G24  1127  1127  1127  1127  1127  1127                  PRN / # OF OBS
   G25     0     0     0     0     0     0                  PRN / # OF OBS
   G26     0     0     0     0     0     0                  PRN / # OF OBS
   G27   692   692   692   692   692   692                  PRN / # OF OBS
   G28     0     0     0     0     0     0                  PRN / # OF OBS
   G29     0     0     0     0     0     0                  PRN / # OF OBS
   G30     0     0     0     0     0     0                  PRN / # OF OBS
   G31     0     0     0     0     0     0                  PRN / # OF OBS
   G32   492   492   492   492   492   492                  PRN / # OF OBS
   R 1     0     0     0     0     0     0                  PRN / # OF OBS
   R 2     0     0     0     0     0     0                  PRN / # OF OBS
   R 3     0     0     0     0     0     0                  PRN / # OF OBS
   R 4     0     0     0     0     0     0                  PRN / # OF OBS
   R 5   373   373   373   347   347   347                  PRN / # OF OBS
   R 6  1127  1127  1127     0     0     0                  PRN / # OF OBS
   R 7  1127  1127  1127  1127  1127  1127                  PRN / # OF OBS
   R 8   225   225   225   221   221   221                  PRN / # OF OBS
   R 9     0     0     0     0     0     0                  PRN / # OF OBS
   R10     0     0     0     0     0     0                  PRN / # OF OBS
   R11     0     0     0     0     0     0                  PRN / # OF OBS
   R12     0     0     0     0     0     0                  PRN / # OF OBS
   R13     0     0     0     0     0     0                  PRN / # OF OBS
   R14     0     0     0     0     0     0                  PRN / # OF OBS
   R15   857   857   857   831   831   831                  PRN / # OF OBS
   R16  1127  1127  1127  1127  1127  1127                  PRN / # OF OBS
   R17     0     0     0     0     0     0                  PRN / # OF OBS
   R18     0     0     0     0     0     0                  PRN / # OF OBS
   R19     0     0     0     0     0     0                  PRN / # OF OBS
   R20     0     0     0     0     0     0                  PRN / # OF OBS
   R21   688   688   688   688   688   688                  PRN / # OF OBS
   R22  1127  1127  1127  1127  1127  1127                  PRN / # OF OBS
   R23   881   881   881   880   880   880                  PRN / # OF OBS
   R24    28    28    28    28    28    28                  PRN / # OF OBS
                                                            END OF HEADER
 20 10 02 06 38 50.0000000  0 15G15G27G18G23G20G24G10G13R15R22R 6R 7
                                R16R 5R21
  20261627.265   106475577.96149     -1304.015    20261626.619    82967985.89049
     -1016.121  
  23897716.640   125583348.68746         4.284    23897718.183    97857161.76048
         3.339  
  20564582.833   108067613.21349     -1154.245    20564582.723    84208533.93248
      -899.414  
  21026763.579   110496403.80349      1956.577    21026763.985    86101105.25148
      1524.601  
  20686170.953   108706582.69149      1870.844    20686170.241    84706445.42948
      1457.800  
  22142495.865   116359626.69548      3099.457    22142498.770    90669870.61549
      2415.159  
  23498132.454   123483522.99347      3063.840    23498136.327    96220924.92048
      2387.410  
  22181861.637   116566470.16148     -2926.780    22181860.122    90831012.64744
     -2280.604  
  21704574.504   115982645.34107       500.882    21704579.503    90208760.83706
       389.566  
  20373976.325   108757674.61407       540.781    20373980.326    84589339.78504
       420.605  
  19274777.712   102853917.85607      -245.882           0.000           0.0000 
         0.000  
  21289304.750   113963331.36408      2765.874    21289309.151    88638171.16508
      2151.229  
  22584725.369   120643548.49614      3780.351    22584732.933    93833902.96513
      2940.270  
  22321364.368   119320509.61706     -3336.792    22321369.188    92804836.79104
     -2595.281  
  20976225.184   112248009.34708     -3390.047    20976230.001    87304023.59507
     -2636.706  
 20 10 02 06 38 55.0000000  0 15G15G27G18G23G20G24G10G13R15R22R 6R 7
                                R16R 5R21
  20262870.105   106482108.50349     -1307.440    20262869.393    82973074.62649
     -1018.785  
  23897715.425   125583342.20544        -0.223    23897717.007    97857156.69349
        -0.176  
  20565683.232   108073396.41548     -1158.332    20565683.298    84213040.31948
      -902.601  
  21024903.670   110486629.66449      1953.918    21024904.091    86093489.04348
      1522.534  
  20684392.667   108697237.32849      1868.066    20684391.901    84699163.33248
      1455.633  
  22139548.783   116344139.95448      3096.328    22139551.849    90657803.03249
      2412.722  
  23495218.553   123468209.77747      3062.055    23495222.136    96208992.54448
      2386.016  
  22184647.931   116581112.29748     -2929.387    22184646.611    90842422.04244
     -2282.647  
  21704108.786   115980156.99607       495.410    21704113.818    90206825.44806
       385.316  
  20373472.633   108754985.21607       535.355    20373476.663    84587248.03504
       416.387  
  19275010.258   102855158.88907      -249.534           0.000           0.0000 
         0.000  
  21286722.882   113949510.08008      2763.203    21286727.342    88627421.28608
      2149.156  
  22581188.680   120624654.60804      3777.363    22581196.108    93819207.78303
      2937.956  
  22324486.654   119337199.68207     -3338.491    22324491.290    92817817.89505
     -2596.608  
  20979394.929   112264971.10408     -3394.015    20979399.919    87317216.06407
     -2639.792  
 20 10 02 06 39  0.0000000  0 14G15G18G23G20G24G10G13R15R22R 6R 7R16
                                R 5R21
  20264115.581   106488653.05549     -1310.323    20264114.842    82978174.28049
     -1021.035  
  20566786.873   108079196.33549     -1161.733    20566786.840    84217559.73248
      -905.249  
  21023045.452   110476864.85249      1952.077    21023045.880    86085880.10448
      1521.101  
  20682616.293   108687902.23349      1865.926    20682615.522    84691889.23148
      1453.964  
  22136604.035   116328664.32648      3093.737    22136606.940    90645744.12049
      2410.808  
  23492305.492   123452900.16247      3061.699    23492308.641    96197062.98848
      2385.737  
  22187435.707   116595762.93948     -2930.859    22187434.658    90853838.15945
     -2283.784  
  21703647.430   115977691.86807       490.647    21703652.575    90204908.08206
       381.608  
  20372973.354   108752320.28207       530.430    20372977.392    84585175.30204
       412.554  
  19275245.388   102856413.12107      -252.094           0.000           0.0000 
         0.000  
  21284142.470   113935697.21508      2761.520    21284146.932    88616677.95408
      2147.847  
  22577653.763   120605770.90404      3775.253    22577661.217    93804520.53804
      2936.316  
  22327609.663   119353893.79706     -3339.198    22327614.384    92830802.24504
     -2597.160  
  20982567.668   112281949.22908     -3397.176    20982572.699    87330421.28707
     -2642.246  
 20 10 02 06 39  5.0000000  0 14G15G18G23G20G24G10G13R15R22R 6R 7R16
                                R 5R21
  20265363.131   106495209.57049     -1312.168    20265362.490    82983283.25149
     -1022.473  
  20567893.221   108085010.98349     -1164.085    20567893.367    84222090.62248
      -907.081  
  21021188.766   110467107.33849      1951.176    21021188.904    86078276.84848
      1520.397  
  20680841.410   108678575.37849      1865.008    20680840.568    84684621.55948
      1453.250  
  22133660.789   116313197.87248      3092.843    22133663.775    90633692.35149
      2410.008  
  23489392.479   123437592.23947      3061.750    23489395.607    96185134.72548
      2385.773  
  22190225.076   116610420.14348     -2932.012    22190223.799    90865259.38145
     -2284.683  
  21703190.119   115975247.97708       487.277    21703194.979    90203007.34506
       378.995  
  20372478.240   108749677.79807       526.582    20372482.486    84583120.07004
       409.566  
  19275482.385   102857678.19007      -253.827           0.000           0.0000 
         0.000  
  21281563.241   113921890.52508      2761.180    21281567.930    88605939.42207
      2147.585  
  22574120.425   120586895.69404      3773.886    22574127.580    93789839.78804
      2935.387  
  22330732.932   119370589.74006     -3338.848    22330737.491    92843787.99304
     -2596.878  
  20985742.997   112298941.71608     -3399.438    20985748.118    87343637.65307
     -2644.011  
 20 10 02 06 39 10.0000000  0 14G15G18G23G20G24G10G13R15R22R 6R 7R16
                                R 5R21
  20266612.553   106501775.82649     -1314.359    20266611.871    82988399.82149
     -1024.175  
  20569002.242   108090838.11649     -1166.832    20569002.347    84226631.24148
      -909.222  
  21019332.863   110457354.94249      1949.913    21019333.207    86070677.57948
      1519.410  
  20679067.647   108669254.60049      1863.348    20679066.858    84677358.60748
      1451.956  
  22130719.073   116297738.42448      3091.007    22130722.063    90621646.03249
      2408.578  
  23486479.237   123422283.57747      3061.839    23486482.405    96173205.93248
      2385.851  
  22193015.016   116625081.62548     -2932.758    22193013.726    90876683.91644
     -2285.284  
  21702736.383   115972822.88408       482.980    21702741.149    90201121.09906
       375.640  
  20371986.930   108747055.46407       522.167    20371991.086    84581080.45204
       406.121  
  19275721.111   102858952.13707      -255.761           0.000           0.0000 
         0.000  
  21278984.934   113908088.02108      2759.894    21278989.529    88595204.14507
      2146.582  
  22570588.110   120568026.45205      3773.050    22570595.159    93775163.74704
      2934.598  
  22333856.325   119387285.34507     -3339.304    22333860.786    92856773.36704
     -2597.258  
  20988920.742   112315946.28308     -3402.292    20988925.879    87356863.42207
     -2646.230  
 20 10 02 06 39 15.0000000  0 15G15G27G18G23G20G24G10G13R15R22R 6R 7
                                R16R 5R21
  20267864.458   106508354.50649     -1317.090    20267863.895    82993526.05549
     -1026.308  
  23897739.897   125583463.74756       -12.698    23897743.899    97857266.71859
        -9.897  
  20570113.943   108096680.42449     -1170.022    20570114.041    84231183.69048
      -911.711  
  21017478.668   110447610.30049      1948.172    21017478.971    86063084.35548
      1518.054  
  20677295.595   108659942.52849      1861.484    20677294.918    84670102.46448
      1450.507  
  22127779.054   116282288.61448      3089.222    22127782.122    90609607.21749
      2407.141  
  23483566.679   123406977.07547      3061.183    23483569.628    96161278.78248
      2385.335  
  22195806.532   116639750.14348     -2934.425    22195805.086    90888113.88145
     -2286.574  
  21702286.869   115970419.50608       478.554    21702291.079    90199251.83006
       372.210  
  20371499.849   108744455.98807       517.555    20371504.019    84579058.64004
       402.543  
  19275961.897   102860237.64608      -258.227           0.000           0.0000 
         0.000  
  21276407.796   113894292.14608      2758.472    21276412.383    88584474.02707
      2145.479  
  22567057.283   120549165.94205      3771.387    22567064.261    93760494.43904
      2933.296  
  22336980.004   119403983.13805     -3340.102    22336984.553    92869760.57704
     -2597.855  
  20992101.168   112332965.63308     -3405.233    20992106.124    87370100.68507
     -2648.520  
 20 10 02 06 39 20.0000000  0 15G15G27G18G23G20G24G10G13R15R22R 6R 7
                                R16R 5R21
  20269119.788   106514951.05749     -1321.280    20269119.134    82998666.23749
     -1029.569  
  23897754.952   125583541.29745       -18.171    23897758.326    97857327.13848
       -14.160  
  20571229.674   108102543.35049     -1174.819    20571229.872    84235752.20647
      -915.445  
  21015626.736   110437878.92149      1944.636    21015627.153    86055501.47048
      1515.301  
  20675526.232   108650644.65149      1857.813    20675525.676    84662857.37048
      1447.644  
  22124841.901   116266853.92548      3085.171    22124845.025    90597580.20149
      2404.031  
  23480655.413   123391678.17848      3058.647    23480657.935    96149357.54548
      2383.362  
  22198600.296   116654431.09348     -2937.453    22198598.813    90899553.63245
     -2288.926  
  21701842.285   115968043.28408       472.297    21701846.373    90197403.63207
       367.340  
  20371018.361   108741885.04907       511.148    20371022.585    84577059.02404
       397.555  
  19276206.087   102861540.34707      -262.507           0.000           0.0000 
         0.000  
  21273832.790   113880508.75208      2755.336    21273837.283    88573753.64507
      2143.042  
  22563529.582   120530319.84605      3767.163    22563536.216    93745836.36104
      2930.012  
  22340104.939   119420688.89706     -3342.660    22340109.568    92882753.97504
     -2599.847  
  20995285.489   112350005.20508     -3410.168    20995290.133    87383353.67907
     -2652.355  
 20 10 02 06 39 25.0000000  0 15G15G27G18G23G20G24G10G13R15R22R 6R 7
                                R16R 5R21
  20270376.067   106521553.37949     -1320.964    20270375.337    83003810.89949
     -1029.327  
  23897771.363   125583628.13544       -17.477    23897774.168    97857394.72849
       -13.629  
  20572346.904   108108414.81049     -1175.042    20572347.174    84240327.37048
      -915.617  
  21013775.132   110428148.70948      1946.043    21013775.579    86047919.49148
      1516.394  
  20673757.232   108641348.90049      1859.055    20673756.654    84655613.92748
      1448.608  
  22121905.515   116251422.30148      3086.168    22121908.326    90585555.56649
      2404.805  
  23477743.212   123376374.67448      3061.281    23477745.235    96137432.77447
      2385.414  
  22201394.033   116669112.41048     -2936.031    22201392.569    90910993.56745
     -2287.828  
  21701400.288   115965681.91807       470.984    21701404.710    90195567.05007
       366.320  
  20370539.674   108739330.19407       509.147    20370543.708    84575071.90304
       395.999  
  19276450.972   102862847.68907      -261.577           0.000           0.0000 
         0.000  
  21271258.037   113866725.33508      2756.777    21271262.490    88563033.20207
      2144.160  
  22560002.141   120511475.95005      3769.151    22560008.394    93731180.05103
      2931.565  
  22343229.536   119437390.25205     -3339.410    22343233.908    92895743.94604
     -2597.315  
  20998471.114   112367052.87808     -3410.276    20998475.688    87396612.98007
     -2652.440  
 20 10 02 06 39 30.0000000  0 15G15G27G18G23G20G24G10G13R15R22R 6R 7
                                R16R 5R21
  20271635.976   106528174.43549     -1325.965    20271635.474    83008970.16649
     -1033.223  
  23897792.002   125583737.43245       -24.308    23897794.965    97857479.92049
       -18.940  
  20573468.322   108114307.80549     -1180.675    20573468.606    84244919.32248
      -920.008  
  21011926.206   110418432.66149      1941.897    21011926.678    86040348.54948
      1513.167  
  20671991.264   108632068.26549      1854.766    20671990.786    84648382.27348
      1445.272  
  22118972.046   116236006.56648      3081.741    22118974.879    90573543.31149
      2401.394  
  23474832.663   123361079.66847      3058.198    23474834.294    96125514.58147
      2383.007  
  22204190.403   116683807.02348     -2940.059    22204188.676    90922443.90944
     -2290.956  
  21700963.712   115963348.64307       463.941    21700968.172    90193752.23907
       360.836  
  20370066.433   108736804.65707       502.324    20370070.606    84573107.60204
       390.695  
  19276699.482   102864173.03807      -266.644           0.000           0.0000 
         0.000  
  21268685.742   113852955.26408      2752.797    21268690.090    88552323.12307
      2141.054  
  22556477.622   120492647.22605      3764.167    22556483.174    93716535.45704
      2927.684  
  22346355.536   119454100.44806     -3342.695    22346359.854    92908740.74504
     -2599.878  
  21001660.807   112384121.62808     -3415.781    21001665.386    87409888.68007
     -2656.719  
 20 10 02 06 39 35.0000000  0 14G15G18G23G20G24G10G13R15R22R 6R 7R16
                                R 5R21
  20272897.618   106534804.03249     -1326.223    20272897.061    83014136.09249
     -1033.425  
  20574592.052   108120212.07949     -1181.487    20574592.226    84249520.04848
      -920.644  
  21010078.068   110408720.53749      1942.688    21010078.499    86032780.66148
      1513.781  
  20670226.079   108622792.53349      1855.266    20670225.651    84641154.43448
      1445.660  
  22116039.652   116220596.70148      3081.906    22116042.433    90561535.62049
      2401.480  
  23471921.744   123345782.93748      3059.910    23471923.161    96113595.04348
      2384.340  
  22206987.096   116698504.55648     -2939.160    22206985.718    90933896.54545
     -2290.257  
  21700530.512   115961033.06807       461.823    21700534.943    90191951.24007
       359.195  
  20369596.971   108734298.16807       500.120    20369601.131    84571158.10704
       388.979  
  19276949.256   102865506.12807      -266.866           0.000           0.0000 
         0.000  
  21266113.779   113839187.87608      2753.668    21266118.182    88541615.16007
      2141.737  
  22552953.901   120473823.54905      3764.914    22552959.266    93701894.84604
      2928.265  
  22349481.283   119470809.01605     -3341.281    22349485.637    92921736.37305
     -2598.762  
  21004852.619   112401201.13208     -3416.406    21004856.971    87423172.73607
     -2657.206  
 20 10 02 06 39 40.0000000  0 15G15G27G18G23G20G24G10G13R15R22R 6R 7
                                R16R 5R21
  20274161.747   106541447.20049     -1331.051    20274161.078    83019312.59249
     -1037.184  
  23897842.254   125584021.32456       -29.972    23897845.448    97857683.45059
       -23.354  
  20575718.629   108126132.68949     -1186.707    20575718.811    84254133.50648
      -924.710  
  21008231.659   110399017.43949      1938.749    21008232.022    86025219.80448
      1510.710  
  20668462.788   108613526.78349      1851.229    20668462.473    84633934.36148
      1442.511  
  22113109.363   116205197.73948      3077.796    22113112.171    90549536.43849
      2398.285  
  23469011.619   123330489.43748      3057.601    23469012.531    96101678.00047
      2382.539  
  22209785.483   116713210.21247     -2942.991    22209784.259    90945355.47945
     -2293.246  
  21700101.431   115958740.43607       455.190    21700106.055    90190168.10007
       354.039  
  20369131.797   108731815.82107       493.172    20369135.938    84569227.39204
       383.574  
  19277201.255   102866851.93907      -271.543           0.000           0.0000 
         0.000  
  21263543.440   113825428.55508      2750.093    21263547.709    88530913.48207
      2138.961  
  22549432.019   120455009.75405      3761.046    22549437.264    93687261.90604
      2925.262  
  22352607.486   119487521.01604     -3343.909    22352612.010    92934734.60305
     -2600.816  
  21008047.302   112418296.55708     -3421.555    21008051.764    87436469.17207
     -2661.215  
 20 10 02 06 39 45.0000000  0 15G15G27G18G23G20G24G10G13R15R22R 6R 7
                                R16R 5R21
  20275429.480   106548109.62049     -1332.891    20275429.017    83024504.08949
     -1038.617  
  23897872.442   125584182.77545       -33.304    23897876.426    97857809.30149
       -25.944  
  20576849.582   108132075.32349     -1189.292    20576849.739    84258764.12448
      -926.726  
  21006388.096   110389329.01449      1937.695    21006388.485    86017670.39148
      1509.891  
  20666702.570   108604276.71249      1849.886    20666702.174    84626726.51348
      1441.465  
  22110182.270   116189815.35948      3076.203    22110185.100    90537550.16649
      2397.038  
  23466102.909   123315204.94247      3057.152    23466104.015    96089767.98648
      2382.187  
  22212586.434   116727929.65448     -2943.766    22212585.466    90956825.17045
     -2293.848  
  21699677.808   115956476.50607       451.206    21699682.381    90188407.25507
       350.933  
  20368672.453   108729363.37407       488.641    20368676.302    84567319.93704
       380.055  
  19277457.027   102868216.35007      -273.206           0.000           0.0000 
         0.000  
  21260975.789   113811683.06508      2749.229    21260979.904    88520222.53807
      2138.285  
  22545913.361   120436212.12105      3759.789    22545918.330    93672641.49204
      2924.276  
  22355735.586   119504242.41205     -3343.456    22355740.405    92947740.11805
     -2600.464  
  21011246.060   112435413.60008     -3424.191    21011250.362    87449782.41807
     -2663.266  
 20 10 02 06 39 50.0000000  0 15G15G27G18G23G20G24G10G13R15R22R 6R 7
                                R16R 5R21
  20276698.722   106554779.40549     -1336.022    20276698.106    83029701.32949
     -1041.058  
  23897906.186   125584355.16546       -36.602    23897908.617    97857943.61948
       -28.523  
  20577982.435   108138028.06849     -1192.839    20577982.367    84263402.63748
      -929.484  
  21004544.943   110379643.39649      1935.460    21004545.421    86010123.16248
      1508.152  
  20664943.122   108595030.40749      1847.569    20664942.577    84619521.60148
      1439.659  
  22107255.979   116174437.81548      3073.819    22107258.737    90525567.66749
      2395.183  
  23463193.799   123299917.55647      3056.401    23463194.868    96077855.79848
      2381.621  
  22215387.774   116742650.98248     -2945.804    22215386.882    90968296.34545
     -2295.433  
  21699257.373   115954229.01707       446.206    21699261.911    90186659.22507
       347.050  
  20368216.310   108726928.60707       483.859    20368220.267    84565426.24604
       376.336  
  19277713.925   102869587.23907      -276.187           0.000           0.0000 
         0.000  
  21258408.269   113797939.27108      2747.347    21258412.277    88509532.92807
      2136.824  
  22542395.014   120417418.12205      3756.383    22542400.017    93658023.96804
      2921.636  
  22358863.030   119520960.95305     -3345.109    22358867.782    92960743.46505
     -2601.745  
  21014446.717   112452540.18108     -3427.644    21014450.962    87463103.08407
     -2665.949  
 20 10 02 06 39 55.0000000  0 15G15G27G18G23G20G24G10G13R15R22R 6R 7
                                R16R 5R21
  20277971.589   106561468.58949     -1338.737    20277970.878    83034913.68149
     -1043.176  
  23897943.512   125584550.65445       -40.476    23897945.409    97858095.89949
       -31.547  
  20579119.446   108144003.04049     -1196.141    20579119.394    84268058.44948
      -932.063  
  21002704.653   110369972.66949      1933.668    21002705.006    86002587.53248
      1506.750  
  20663186.522   108585799.97449      1845.538    20663186.147    84612329.06248
      1438.077  
  22104332.904   116159076.95048      3071.784    22104335.837    90513598.16149
      2393.598  
  23460286.466   123284639.38748      3055.668    23460287.580    96065950.72048
      2381.031  
  22218191.921   116757386.25048     -2947.355    22218190.783    90979778.34945
     -2296.645  
  21698842.179   115952010.43708       441.780    21698846.742    90184933.66507
       343.609  
  20367765.935   108724524.06907       479.011    20367769.828    84563556.03504
       372.562  
  19277974.263   102870976.70107      -278.625           0.000           0.0000 
         0.000  
  21255843.414   113784209.46308      2745.387    21255847.489    88498854.19907
      2135.301  
  22538879.780   120398640.30705      3755.324    22538885.079    93643419.00305
      2920.808  
  22361992.786   119537689.07506     -3345.839    22361997.026    92973754.22805
     -2602.324  
  21017651.250   112469688.59708     -3430.979    21017655.444    87476440.72507
     -2668.542  
 20 10 02 06 40  0.0000000  0 15G15G27G18G23G20G24G10G13R15R22R 6R 7
                                R16R 5R21
  20279246.354   106568167.89949     -1340.808    20279245.637    83040133.92049
     -1044.789  
  23897983.636   125584760.00746       -43.754    23897984.921    97858259.06949
       -34.094  
  20580258.750   108149990.96449     -1198.887    20580258.906    84272724.37148
      -934.199  
  21000865.494   110360307.63349      1932.484    21000865.796    85995056.33948
      1505.832  
  20661431.423   108576576.14849      1844.104    20661430.683    84605141.66648
      1436.964  
  22101411.314   116143723.83248      3069.729    22101414.242    90501634.68649
      2391.992  
  23457379.150   123269361.11848      3055.769    23457380.271    96054045.55847
      2381.113  
  22220996.876   116772126.26147     -2948.276    22220995.795    90991264.06144
     -2297.362  
  21698430.699   115949811.33008       437.827    21698435.267    90183223.23807
       340.526  
  20367319.326   108722140.22707       474.480    20367323.131    84561701.92704
       369.035  
  19278236.445   102872375.41208      -280.671           0.000           0.0000 
         0.000  
  21253279.440   113770484.27808      2744.590    21253283.471    88488179.05307
      2134.675  
  22535365.874   120379869.34104      3753.190    22535371.215    93628819.34105
      2919.145  
  22365122.354   119554417.22306     -3345.813    22365126.192    92986764.97905
     -2602.300  
  21020858.192   112486849.37008     -3433.296    21020862.342    87489787.98207
     -2670.352  
 20 10 02 06 40  5.0000000  0 15G15G27G18G23G20G24G10G13R15R22R 6R 7
                                R16R 5R21
  20280523.412   106574878.41149     -1343.426    20280522.592    83045362.89749
     -1046.824  
  23898026.344   125584984.22146       -46.440    23898027.354    97858433.76249
       -36.191  
  20581400.925   108155992.91449     -1201.921    20581401.136    84277401.20848
      -936.566  
  20999027.664   110350649.30549      1930.741    20999027.826    85987530.37648
      1504.473  
  20659677.664   108567360.01649      1842.289    20659676.906    84597960.27547
      1435.551  
  22098491.447   116128379.44748      3067.921    22098494.595    90489678.03149
      2390.590  
  23454471.877   123254083.89148      3055.301    23454473.111    96042141.28648
      2380.761  
  22223802.785   116786871.97548     -2949.917    22223801.654    91002754.24245
     -2298.640  
  21698022.938   115947632.78608       433.555    21698027.355    90181528.80707
       337.207  
  20366876.902   108719778.19507       470.137    20366880.763    84559864.78804
       365.656  
  19278500.471   102873784.65107      -282.914           0.000           0.0000 
         0.000  
  21250716.464   113756764.74908      2743.218    21250720.363    88477508.28807
      2133.609  
  22531853.263   120361106.32204      3751.300    22531858.719    93614225.92704
      2917.683  
  22368252.149   119571146.55106     -3346.144    22368255.912    92999776.69105
     -2602.563  
  21024067.642   112504023.60108     -3436.176    21024071.907    87503145.71507
     -2672.586  
 20 10 02 06 40 10.0000000  0 15G15G27G18G23G20G24G10G13R15R22R 6R 7
                                R16R 5R21
  20281802.763   106581601.82549     -1346.101    20281801.999    83050601.91849
     -1048.913  
  23898072.497   125585225.04146       -50.241    23898073.330    97858621.43549
       -39.148  
  20582546.134   108162010.56049     -1205.296    20582546.279    84282090.28448
      -939.194  
  20997191.382   110340999.39049      1929.098    20997191.315    85980010.95248
      1503.188  
  20657925.637   108558153.30449      1840.339    20657924.834    84590786.21048
      1434.027  
  22095573.468   116113045.39948      3065.547    22095576.586    90477729.42849
      2388.738  
  23451565.325   123238809.38948      3054.473    23451566.745    96030239.07848
      2380.108  
  22226610.419   116801625.10048     -2951.358    22226609.092    91014250.17045
     -2299.766  
  21697619.454   115945476.50408       428.637    21697623.686    90179851.70207
       333.382  
  20366438.794   108717439.57507       465.145    20366442.671    84558045.87504
       361.777  
  19278766.948   102875206.11808      -285.543           0.000           0.0000 
         0.000  
  21248154.956   113743052.61008      2741.574    21248158.626    88466843.32607
      2132.336  
  22528342.341   120342352.70004      3749.953    22528348.010    93599639.78004
      2916.624  
  22371382.509   119587878.74406     -3346.413    22371386.119    93012790.61804
     -2602.765  
  21027279.909   112521212.93208     -3439.647    21027284.307    87516515.21407
     -2675.281  
 20 10 02 06 40 15.0000000  0 15G15G27G18G23G20G24G10G13R15R22R 6R 7
                                R16R 5R21
  20283084.967   106588339.78649     -1349.102    20283084.356    83055852.26849
     -1051.249  
  23898121.634   125585483.97346       -53.440    23898123.099    97858823.19949
       -41.645  
  20583694.565   108168045.54549     -1208.828    20583694.614    84286792.86748
      -941.948  
  20995356.972   110331359.56349      1926.980    20995356.993    85972499.40048
      1501.538  
  20656175.728   108548957.62749      1838.051    20656174.787    84583620.74848
      1432.246  
  22092657.722   116097723.36448      3063.241    22092660.986    90465790.19249
      2386.940  
  23448659.574   123223539.28548      3053.542    23448661.170    96018340.26548
      2379.375  
  22229419.569   116816387.09448     -2953.390    22229418.283    91025753.02545
     -2301.347  
  21697220.496   115943344.12508       423.761    21697224.709    90178193.18607
       329.594  
  20366005.579   108715126.23107       460.012    20366009.321    84556246.58504
       357.781  
  19279035.870   102876641.14007      -288.507           0.000           0.0000 
         0.000  
  21245595.142   113729349.53708      2739.694    21245598.540    88456185.36307
      2130.867  
  22524833.771   120323610.42204      3747.098    22524839.367    93585062.46604
      2914.409  
  22374513.712   119604615.47406     -3348.019    22374517.191    93025808.10405
     -2604.011  
  21030495.474   112538419.07208     -3442.878    21030499.584    87529897.75307
     -2677.797  
 20 10 02 06 40 20.0000000  0 15G15G27G18G23G20G24G10G13R15R22R 6R 7
                                R16R 5R21
  20284369.254   106595088.07449     -1350.848    20284368.453    83061110.68149
     -1052.608  
  23898173.467   125585756.95246       -55.972    23898175.233    97859035.92848
       -43.612  
  20584845.460   108174093.66149     -1211.163    20584845.608    84291505.68348
      -943.770  
  20993523.715   110321725.60849      1925.953    20993523.673    85964992.41548
      1500.737  
  20654427.158   108539768.83249      1836.862    20654426.185    84576460.64048
      1431.315  
  22089743.515   116082409.13448      3061.886    22089746.806    90453857.01949
      2385.886  
  23445753.809   123208269.29248      3053.992    23445755.626    96006441.61348
      2379.737  
  22232229.475   116831153.99848     -2954.069    22232228.104    91037259.70945
     -2301.871  
  21696825.131   115941231.44708       420.429    21696829.177    90176549.99408
       326.995  
  20365576.036   108712833.70807       456.354    20365579.893    84554463.51404
       354.937  
  19279306.535   102878085.77407      -289.983           0.000           0.0000 
         0.000  
  21243036.296   113715651.24208      2739.026    21243039.422    88445531.15107
      2130.354  
  22521326.597   120304875.16905      3745.676    22521331.952    93570490.63104
      2913.309  
  22377644.891   119621352.42006     -3347.789    22377648.155    93038825.70704
     -2603.836  
  21033713.119   112555637.68108     -3445.066    21033717.281    87543289.98407
     -2679.500  
 20 10 02 06 40 25.0000000  0 15G15G27G18G23G20G24G10G13R15R22R 6R 7
                                R16R 5R21
  20285655.270   106601846.63549     -1352.836    20285654.749    83066377.09749
     -1054.156  
  23898228.434   125586043.96347       -58.871    23898230.457    97859259.59448
       -45.870  
  20585998.857   108180154.86649     -1213.757    20585999.045    84296228.68948
      -945.788  
  20991691.550   110312097.45449      1924.820    20991691.335    85957489.95648
      1499.858  
  20652679.932   108530586.81249      1835.530    20652678.823    84569305.82647
      1430.285  
  22086830.698   116067102.64548      3060.348    22086833.775    90441929.89449
      2384.688  
  23442848.073   123192999.45048      3053.926    23442850.246    95994543.00448
      2379.680  
  22235040.552   116845925.49448     -2955.069    22235038.821    91048769.96945
     -2302.652  
  21696433.452   115939138.40108       416.347    21696437.739    90174922.06208
       323.819  
  20365150.550   108710562.18407       451.827    20365154.391    84552696.77804
       351.421  
  19279579.051   102879539.84708      -291.832           0.000           0.0000 
         0.000  
  21240478.126   113701957.84108      2738.117    21240481.060    88434880.70707
      2129.645  
  22517820.367   120286147.01604      3744.473    22517826.094    93555924.29305
      2912.367  
  22380775.995   119638089.62206     -3347.941    22380779.404    93051843.55605
     -2603.953  
  21036933.221   112572868.78608     -3447.789    21036937.394    87556691.92907
     -2681.621  
 20 10 02 06 40 30.0000000  0 15G15G27G18G23G20G24G10G13R15R22R 6R 7
                                R16R 5R21
  20286944.319   106608620.57349     -1356.563    20286943.741    83071655.49349
     -1057.062  
  23898287.006   125586349.94847       -63.430    23898289.117    97859498.01548
       -49.426  
  20587155.863   108186234.22849     -1217.870    20587155.892    84300965.84848
      -948.995  
  20989861.486   110302480.24649      1922.038    20989861.503    85949996.03648
      1497.690  
  20650934.984   108521416.70849      1832.512    20650933.853    84562160.27948
      1427.925  
  22083920.604   116051809.09048      3057.011    22083923.432    90430012.83649
      2382.086  
  23439943.244   123177734.81448      3052.319    23439945.483    95982648.51548
      2378.429  
  22237853.269   116860706.92448     -2957.800    22237851.561    91060287.98145
     -2304.776  
  21696046.504   115937070.07308       410.910    21696050.714    90173313.34908
       319.593  
  20364729.824   108708316.69407       446.320    20364733.946    84550950.28604
       347.132  
  19279854.369   102881008.46308      -295.456           0.000           0.0000 
         0.000  
  21237921.997   113688274.37008      2735.272    21237924.990    88424238.02907
      2127.433  
  22514316.517   120267430.98404      3742.448    22514322.383    93541367.34704
      2910.784  
  22383908.164   119654832.20306     -3349.026    22383911.645    93064865.56505
     -2604.801  
  21040156.695   112590117.43208     -3451.897    21040160.829    87570107.54607
     -2684.813  
 20 10 02 06 40 35.0000000  0 15G15G27G18G23G20G24G10G13R15R22R 6R 7
                                R16R 5R21
  20288236.373   106615410.48649     -1358.988    20288235.917    83076946.33249
     -1058.953  
  23898349.212   125586675.68647       -67.015    23898350.888    97859751.83048
       -52.223  
  20588316.309   108192332.41149     -1220.913    20588316.408    84305717.68348
      -951.367  
  20988033.535   110292874.61149      1920.604    20988033.654    85942511.14448
      1496.573  
  20649192.529   108512259.13949      1831.004    20649191.120    84555024.51748
      1426.758  
  22081012.984   116036529.19248      3055.191    22081015.869    90418106.41749
      2380.664  
  23437039.816   123162476.07248      3051.772    23437042.064    95970758.59348
      2378.004  
  22240668.127   116875498.91348     -2958.996    22240666.556    91071814.19545
     -2305.714  
  21695664.215   115935027.33108       406.621    21695668.416    90171724.56608
       316.262  
  20364314.116   108706097.86807       441.839    20364318.339    84549224.53604
       343.651  
  19280132.492   102882492.39507      -297.675           0.000           0.0000 
         0.000  
  21235367.782   113674601.42908      2734.121    21235370.682    88413603.52707
      2126.539  
  22510815.229   120248727.73105      3740.297    22510820.994    93526820.42104
      2909.125  
  22387041.264   119671580.85907     -3349.918    22387045.045    93077892.29205
     -2605.496  
  21043383.478   112607384.32308     -3454.538    21043387.544    87583537.37907
     -2686.863  
 20 10 02 06 40 40.0000000  0 15G15G27G18G23G20G24G10G13R15R22R 6R 7
                                R16R 5R21
  20289530.930   106622213.21049     -1361.715    20289530.529    83082247.14449
     -1061.082  
  23898414.490   125587017.85047       -70.304    23898415.976    97860018.45048
       -54.785  
  20589479.797   108198446.14349     -1224.121    20589479.850    84310481.62848
      -953.863  
  20986207.324   110283277.33849      1918.766    20986207.302    85935032.75548
      1495.140  
  20647451.547   108503110.87149      1828.847    20647450.417    84547896.00248
      1425.073  
  22078107.234   116021259.59348      3053.184    22078110.259    90406208.02249
      2379.102  
  23434136.556   123147219.96548      3051.082    23434139.020    95958870.71048
      2377.460  
  22243484.539   116890298.23048     -2960.452    22243482.832    91083346.12645
     -2306.851  
  21695285.990   115933006.68208       401.979    21695290.203    90170152.94508
       312.651  
  20363902.873   108703902.46607       436.898    20363907.314    84547517.00104
       339.805  
  19280412.866   102883988.30407      -300.394           0.000           0.0000 
         0.000  
  21232814.915   113660935.82608      2732.589    21232817.861    88402974.71907
      2125.343  
  22507315.929   120230034.28705      3737.535    22507321.509    93512281.09305
      2906.972  
  22390175.138   119688332.05207     -3350.367    22390178.913    93090921.00204
     -2605.844  
  21046613.059   112624666.14808     -3457.655    21046617.040    87596978.78107
     -2689.292  
 20 10 02 06 40 45.0000000  0 15G15G27G18G23G20G24G10G13R15R22R 6R 7
                                R16R 5R21
  20290827.761   106629028.60349     -1364.690    20290827.373    83087557.84749
     -1063.394  
  23898482.721   125587376.31247       -73.848    23898483.953    97860297.80448
       -57.539  
  20590646.130   108204575.39249     -1227.831    20590646.208    84315257.66948
      -956.754  
  20984382.619   110273688.35449      1916.687    20984382.645    85927560.81048
      1493.522  
  20645712.433   108493971.86149      1826.473    20645711.138    84540774.69648
      1423.227  
  22075203.558   116006000.32748      3050.293    22075206.300    90394317.70049
      2376.851  
  23431233.981   123131966.42447      3050.198    23431236.434    95946984.82448
      2376.773  
  22246302.067   116905104.78048     -2962.331    22246300.309    91094883.72245
     -2308.313  
  21694912.128   115931008.12607       396.894    21694916.330    90168598.52008
       308.694  
  20363495.945   108701730.35507       431.823    20363500.403    84545827.57604
       335.859  
  19280695.435   102885496.08408      -302.940           0.000           0.0000 
         0.000  
  21230263.568   113647277.35808      2730.479    21230266.524    88392351.46507
      2123.706  
  22503818.155   120211350.34005      3735.351    22503823.734    93497749.15305
      2905.272  
  22393309.440   119705086.00507     -3351.257    22393312.808    93103951.78804
     -2606.547  
  21049845.289   112641962.77808     -3461.276    21049849.425    87610431.71107
     -2692.108  
 20 10 02 06 40 50.0000000  0 15G15G27G18G23G20G24G10G13R15R22R 6R 7
                                R16R 5R21
  20292127.636   106635859.05549     -1367.574    20292127.369    83092880.27049
     -1065.644  
  23898554.336   125587753.58947       -77.519    23898555.526    97860591.82048
       -60.401  
  20591815.874   108210722.52949     -1231.214    20591815.968    84320047.64248
      -959.390  
  20982559.994   110264110.05149      1914.698    20982560.108    85920097.20048
      1491.972  
  20643975.591   108484844.53549      1824.332    20643974.305    84533662.49848
      1421.558  
  22072302.150   115990753.76548      3047.934    22072305.039    90382437.27449
      2375.012  
  23428332.173   123116717.88347      3049.253    23428334.822    95935102.83148
      2376.035  
  22249121.468   116919920.89848     -2963.914    22249119.629    91106428.74145
     -2309.542  
  21694542.704   115929034.15908       392.555    21694547.045    90167063.22408
       305.316  
  20363093.871   108699584.18107       426.694    20363098.466    84544158.33204
       331.870  
  19280980.730   102887018.16007      -305.746           0.000           0.0000 
         0.000  
  21227713.830   113633628.75708      2729.004    21227716.849    88381735.91107
      2122.559  
  22500322.660   120192678.43904      3733.503    22500328.225    93483226.59804
      2903.839  
  22396444.683   119721845.05207     -3352.284    22396448.057    93116986.58304
     -2607.340  
  21053080.846   112659276.61208     -3464.405    21053085.176    87623898.02407
     -2694.543  
 20 10 02 06 40 55.0000000  0 15G15G27G18G23G20G24G10G13R15R22R 6R 7
                                R16R 5R21
  20293429.784   106642702.45149     -1369.640    20293429.570    83098212.78449
     -1067.257  
  23898629.164   125588147.59547       -80.039    23898629.923    97860898.81047
       -62.370  
  20592988.673   108216885.44349     -1234.035    20592988.616    84324849.90948
      -961.590  
  20980738.881   110254540.35349      1913.313    20980739.008    85912640.28648
      1490.891  
  20642240.471   108475726.79349      1822.827    20642239.202    84526557.76348
      1420.382  
  22069402.762   115975517.75148      3046.421    22069405.679    90370565.06749
      2373.835  
  23425431.174   123101472.15748      3049.241    23425433.858    95923223.05448
      2376.030  
  22251942.371   116934744.52947     -2965.491    22251940.413    91117979.63244
     -2310.772  
  21694177.364   115927082.61107       388.179    21694181.897    90165545.34508
       301.914  
  20362696.130   108697461.63907       422.499    20362700.807    84542507.47704
       328.608  
  19281268.217   102888552.59108      -307.887           0.000           0.0000 
         0.000  
  21225165.542   113619987.72408      2727.938    21225168.805    88371126.20807
      2121.726  
  22496829.108   120174016.44905      3731.940    22496834.705    93468711.70905
      2902.620  
  22399580.192   119738606.92706     -3352.645    22399583.644    93130023.56404
     -2607.624  
  21056319.218   112676605.60708     -3466.973    21056323.476    87637376.13207
     -2696.539  
 20 10 02 06 41  0.0000000  0 15G15G27G18G23G20G24G10G13R15R22R 6R 7
                                R16R 5R21
  20294734.404   106649558.99449     -1372.891    20294734.441    83103555.54249
     -1069.789  
  23898707.354   125588558.51847       -84.172    23898707.816    97861219.01747
       -65.589  
  20594164.508   108223064.37149     -1237.570    20594164.463    84329664.64748
      -964.344  
  20978919.462   110244979.46149      1911.093    20978919.610    85905190.25048
      1489.163  
  20640507.257   108466618.81949      1820.530    20640506.021    84519460.64348
      1418.594  
  22066505.471   115960292.57548      3043.687    22066508.354    90358701.31649
      2371.703  
  23422530.562   123086229.58848      3048.313    23422533.210    95911345.76148
      2375.309  
  22254764.526   116949575.80648     -2967.125    22254762.714    91129536.48345
     -2312.047  
  21693816.320   115925153.67908       383.191    21693821.052    90164045.06408
       298.035  
  20362302.948   108695362.95807       417.039    20362307.605    84540875.18504
       324.363  
  19281558.136   102890099.37308      -310.979           0.000           0.0000 
         0.000  
  21222618.741   113606354.25008      2725.714    21222622.011    88360522.39807
      2119.996  
  22493337.358   120155364.64605      3729.155    22493343.152    93454204.74404
      2900.449  
  22402716.322   119755371.93206     -3353.457    22402719.517    93143063.10503
     -2608.234  
  21059560.295   112693949.86008     -3470.707    21059564.661    87650866.12607
     -2699.437  
 20 10 02 06 41  5.0000000  0 15G15G27G18G23G20G24G10G13R15R22R 6R 7
                                R16R 5R21
  20296041.736   106656428.03849     -1375.043    20296041.706    83108908.04349
     -1071.465  
  23898788.544   125588985.58147       -87.168    23898788.456    97861551.78648
       -67.925  
  20595343.191   108229258.61449     -1240.429    20595343.192    84334491.34648
      -966.569  
  20977101.578   110235426.72549      1909.578    20977101.671    85897746.56247
      1487.983  
  20638775.746   108457519.97749      1818.891    20638774.587    84512370.64648
      1417.315  
  22063610.186   115945077.59448      3041.921    22063612.978    90346845.45649
      2370.323  
  23419630.459   123070989.50347      3047.921    23419633.145    95899470.32448
      2374.995  
  22257588.237   116964414.00648     -2968.605    22257586.356    91141098.73045
     -2313.198  
  21693459.457   115923246.77408       379.332    21693463.864    90162561.92607
       295.031  
  20361914.204   108693287.53707       412.796    20361918.523    84539260.93804
       321.055  
  19281850.077   102891657.81807      -312.621           0.000           0.0000 
         0.000  
  21220073.319   113592728.00208      2724.507    21220076.570    88349924.19407
      2119.058  
  22489847.434   120136722.35005      3727.313    22489853.296    93439705.20404
      2899.019  
  22405853.034   119772139.64306     -3353.469    22405855.708    93156104.65904
     -2608.249  
  21062804.211   112711308.71108     -3473.141    21062808.449    87664367.42007
     -2701.339  
 20 10 02 06 41 10.0000000  0 15G15G27G18G23G20G24G10G13R15R22R 6R 7
                                R16R 5R21
  20297351.138   106663309.64949     -1377.690    20297351.105    83114270.34749
     -1073.527  
  23898872.714   125589428.99047       -90.410    23898872.361    97861897.23747
       -70.461  
  20596524.958   108235468.24549     -1243.487    20596524.866    84339330.00848
      -968.956  
  20975285.397   110225882.22449      1907.930    20975285.452    85890309.29348
      1486.699  
  20637046.193   108448430.37049      1816.969    20637044.799    84505287.83347
      1415.820  
  22060716.762   115929872.86148      3040.004    22060719.564    90334997.62849
      2368.836  
  23416730.772   123055751.89048      3047.242    23416733.225    95887596.82648
      2374.465  
  22260413.107   116979259.26747     -2969.879    22260411.565    91152666.48744
     -2314.378  
  21693106.774   115921361.92208       374.796    21693111.036    90161095.90407
       291.503  
  20361529.784   108691235.38307       407.964    20361534.046    84537664.81104
       317.301  
  19282144.509   102893228.02508      -315.328           0.000           0.0000 
         0.000  
  21217528.981   113579108.83708      2723.288    21217532.262    88339331.48407
      2118.109  
  22486359.237   120118089.61805      3725.707    22486365.092    93425213.09104
      2897.772  
  22408990.327   119788909.74206     -3354.219    22408992.862    93169148.03104
     -2608.835  
  21066050.935   112728682.21408     -3476.171    21066055.181    87677880.12407
     -2703.690  
 20 10 02 06 41 15.0000000  0 15G15G27G18G23G20G24G10G13R15R22R 6R 7
                                R16R 5R21
  20298663.426   106670205.70349     -1380.737    20298663.201    83119643.87949
     -1075.901  
  23898960.487   125589890.49247       -94.327    23898959.870    97862256.85647
       -73.508  
  20597709.899   108241695.18249     -1247.272    20597709.767    84344182.16848
      -971.905  
  20973470.927   110216347.83949      1905.820    20973470.941    85882879.89148
      1485.051  
  20635318.543   108439351.85149      1814.417    20635317.292    84498213.66648
      1413.828  
  22057825.843   115914680.19448      3037.148    22057828.554    90323159.20549
      2366.609  
  23413832.006   123040518.67648      3045.953    23413834.258    95875726.85348
      2373.476  
  22263239.659   116994113.39747     -2971.479    22263238.481    91164241.11344
     -2315.444  
  21692758.752   115919501.01308       369.492    21692762.856    90159648.57407
       287.383  
  20361150.057   108689208.40507       403.183    20361154.433    84536088.28504
       313.582  
  19282441.178   102894811.98707      -318.038           0.000           0.0000 
         0.000  
  21214986.521   113565498.81708      2721.019    21214989.770    88328745.99407
      2116.354  
  22482873.459   120099468.50205      3722.754    22482878.737    93410729.97504
      2895.465  
  22412128.485   119805684.14806     -3355.511    22412130.915    93182194.82303
     -2609.844  
  21069300.600   112746072.23408     -3479.706    21069304.743    87691405.70007
     -2706.437  
 20 10 02 06 41 20.0000000  0 15G15G27G18G23G20G24G10G13R15R22R 6R 7
                                R16R 5R21
  20299978.165   106677114.67349     -1383.281    20299977.989    83125027.49749
     -1077.882  
  23899051.320   125590368.69646       -97.070    23899050.929    97862629.50648
       -75.641  
  20598897.693   108247937.89849     -1250.301    20598897.578    84349046.61848
      -974.265  
  20971658.320   110206822.12149      1904.069    20971658.381    85875457.26048
      1483.690  
  20633592.779   108430282.99249      1812.641    20633591.682    84491147.01948
      1412.440  
  22054936.757   115899498.29148      3035.070    22054939.560    90311329.13449
      2364.984  
  23410933.775   123025288.40448      3045.660    23410936.212    95863859.08748
      2373.238  
  22266067.654   117008975.01747     -2973.039    22266066.474    91175821.58345
     -2316.655  
  21692414.684   115917662.48108       365.613    21692418.793    90158218.57907
       284.367  
  20360774.795   108687205.22907       397.894    20360779.182    84534530.27404
       309.472  
  19282740.457   102896408.30907      -320.761           0.000           0.0000 
         0.000  
  21212445.598   113551896.58708      2719.573    21212448.984    88318166.45007
      2115.219  
  22479389.433   120080857.36705      3721.315    22479394.643    93396254.68603
      2894.354  
  22415267.124   119822461.75605     -3356.914    22415269.410    93195243.89403
     -2610.960  
  21072553.144   112763477.31508     -3482.940    21072557.331    87704942.96707
     -2708.956  
 20 10 02 06 41 25.0000000  0 15G15G27G18G23G20G24G10G13R15R22R 6R 7
                                R16R 5R21
  20301295.367   106684036.61849     -1385.277    20301295.228    83130421.21549
     -1079.441  
  23899145.301   125590863.69646      -100.499    23899145.106    97863015.20947
       -78.312  
  20600088.725   108254196.40649     -1252.968    20600088.587    84353923.38248
      -976.339  
  20969847.280   110197305.07149      1902.679    20969847.239    85868041.37747
      1482.609  
  20631868.938   108421223.80449      1811.116    20631867.591    84484087.90548
      1411.258  
  22052049.790   115884327.11148      3033.444    22052052.480    90299507.43049
      2363.719  
  23408036.093   123010061.13547      3045.417    23408038.473    95851993.70549
      2373.054  
  22268897.058   117023844.07447     -2974.418    22268895.911    91187407.84245
     -2317.729  
  21692074.880   115915846.54308       361.301    21692079.067    90156806.17107
       281.008  
  20360403.922   108685225.73407       393.781    20360408.172    84532990.65604
       306.269  
  19283041.771   102898016.96007      -322.563           0.000           0.0000 
         0.000  
  21209905.951   113538301.87908      2718.565    21209909.342    88307592.76107
      2114.433  
  22475907.166   120062256.37405      3719.555    22475912.606    93381787.26004
      2892.988  
  22418406.410   119839242.19406     -3356.496    22418408.388    93208295.38003
     -2610.621  
  21075808.517   112780897.31708     -3485.269    21075812.725    87718491.88007
     -2710.766  
 20 10 02 06 41 30.0000000  0 15G15G27G18G23G20G24G10G13R15R22R 6R 7
                                R16R 5R21
  20302614.859   106690970.78249     -1388.144    20302614.669    83135824.45049
     -1081.676  
  23899242.323   125591374.70347      -104.043    23899242.200    97863413.41847
       -81.074  
  20601282.627   108260470.05749     -1256.309    20601282.322    84358811.93548
      -978.945  
  20968037.744   110187796.02249      1900.847    20968037.622    85860631.73348
      1481.176  
  20630146.816   108412173.58449      1808.992    20630145.445    84477035.78748
      1409.604  
  22049164.546   115869165.99448      3031.257    22049167.311    90287693.58249
      2362.019  
  23405138.816   122994836.09248      3044.664    23405141.330    95840130.04848
      2372.469  
  22271727.613   117038719.76948     -2975.894    22271726.860    91198999.29345
     -2318.878  
  21691739.246   115914052.35908       356.472    21691743.235    90155410.72407
       277.258  
  20360037.508   108683269.35807       388.854    20360041.789    84531469.02804
       302.440  
  19283345.344   102899636.88108      -325.163           0.000           0.0000 
         0.000  
  21207367.804   113524714.07108      2716.633    21207371.103    88297024.47607
      2112.938  
  22472426.808   120043664.71105      3716.918    22472431.995    93367327.10104
      2890.941  
  22421545.885   119856024.73905     -3356.991    22421547.676    93221348.46403
     -2610.988  
  21079066.477   112798331.66308     -3488.344    21079070.709    87732051.94407
     -2713.156  
 20 10 02 06 41 35.0000000  0 15G15G27G18G23G20G24G10G13R15R22R 6R 7
                                R16R 5R21
  20303937.009   106697918.35149     -1390.652    20303936.828    83141238.15549
     -1083.625  
  23899342.721   125591902.86447      -106.941    23899342.550    97863824.92747
       -83.344  
  20602479.354   108266759.96549     -1259.336    20602479.504    84363713.16148
      -981.304  
  20966229.963   110178296.13148      1899.309    20966229.937    85853229.22147
      1479.976  
  20628426.564   108403133.50349      1807.191    20628425.245    84469991.57348
      1408.195  
  22046281.800   115854016.15548      3029.140    22046284.314    90275888.53349
      2360.371  
  23402242.115   122979614.48147      3044.488    23402244.500    95828269.04448
      2372.324  
  22274559.846   117053603.35048     -2977.211    22274559.034    91210596.91645
     -2319.905  
  21691407.854   115912281.22008       352.077    21691411.973    90154033.08807
       273.827  
  20359675.636   108681337.12507       384.309    20359679.779    84529966.17804
       298.906  
  19283651.330   102901269.36707      -327.504           0.000           0.0000 
         0.000  
  21204830.975   113511134.44408      2715.527    21204834.364    88286462.59307
      2112.082  
  22468948.467   120025083.63105      3715.016    22468953.335    93352875.17004
      2889.460  
  22424686.116   119872810.88705     -3357.097    22424687.562    93234404.44202
     -2611.066  
  21082327.434   112815781.51408     -3491.355    21082331.822    87745624.03607
     -2715.503  
 20 10 02 06 41 40.0000000  0 15G15G27G18G23G20G24G10G13R15R22R 6R 7
                                R16R 5R21
  20305261.441   106704878.66449     -1393.395    20305261.215    83146661.76849
     -1085.762  
  23899446.289   125592447.55347      -110.727    23899446.564    97864249.31847
       -86.292  
  20603679.303   108273065.52149     -1262.797    20603679.339    84368626.56948
      -984.000  
  20964423.700   110168804.81149      1897.315    20964423.735    85845833.37647
      1478.425  
  20626708.047   108394102.95149      1804.933    20626706.748    84462954.77048
      1406.437  
  22043400.950   115838877.09048      3026.468    22043403.414    90264091.85749
      2358.288  
  23399345.867   122964395.69147      3043.491    23399348.212    95816410.28948
      2371.550  
  22277393.435   117068494.15047     -2979.047    22277392.977    91222200.09545
     -2321.344  
  21691080.597   115910532.39808       347.507    21691084.650    90152672.91608
       270.284  
  20359317.991   108679428.46307       378.991    20359322.138    84528481.65804
