     2.11           OBSERVATION DATA    M                   RINEX VERSION / TYPE
LEICA GEO OFFICE 8.4                    2-10-20 22:41       PGM / RUN BY / DATE
                                                            OBSERVER / AGENCY
KUHR                                                        MARKER NAME
KUHR                                                        MARKER NUMBER
352348              LEICA GX1220GG      4.10                REC # / TYPE / VERS
                    LEIAX1202GG                             ANT # / TYPE
 -1265373.7983  3799790.0940  4948593.4596                  APPROX POSITION XYZ
        1.7810        0.0000        0.0000                  ANTENNA: DELTA H/E/N
L1PhaOff:   0.0644  L2PhaOff:   0.0640                      COMMENT
     1     1                                                WAVELENGTH FACT L1/2
     6    C1    L1    D1    P2    L2    D2                  # / TYPES OF OBSERV
  2020    10     2     4    52   40.0000000     GPS         TIME OF FIRST OBS
  2020    10     2     6    36   20.0000000     GPS         TIME OF LAST OBS
    18                                                      LEAP SECONDS
    23                                                      # OF SATELLITES
          C1    L1    D1    P2    L2    D2                  COMMENT
   G 1     0     0     0     0     0     0                  PRN / # OF OBS
   G 2   137   137   137   128   128   128                  PRN / # OF OBS
   G 3     0     0     0     0     0     0                  PRN / # OF OBS
   G 4     0     0     0     0     0     0                  PRN / # OF OBS
   G 5  1124  1124  1124  1124  1124  1124                  PRN / # OF OBS
   G 6     0     0     0     0     0     0                  PRN / # OF OBS
   G 7    37    37    37    24    24    24                  PRN / # OF OBS
   G 8     0     0     0     0     0     0                  PRN / # OF OBS
   G 9     0     0     0     0     0     0                  PRN / # OF OBS
   G10   413   413   413   413   413   413                  PRN / # OF OBS
   G11     0     0     0     0     0     0                  PRN / # OF OBS
   G12     0     0     0     0     0     0                  PRN / # OF OBS
   G13  1245  1245  1245  1245  1245  1245                  PRN / # OF OBS
   G14     0     0     0     0     0     0                  PRN / # OF OBS
   G15  1245  1245  1245  1245  1245  1245                  PRN / # OF OBS
   G16     0     0     0     0     0     0                  PRN / # OF OBS
   G17     0     0     0     0     0     0                  PRN / # OF OBS
   G18  1245  1245  1245  1245  1245  1245                  PRN / # OF OBS
   G19     0     0     0     0     0     0                  PRN / # OF OBS
   G20  1244  1244  1244  1243  1243  1243                  PRN / # OF OBS
   G21     0     0     0     0     0     0                  PRN / # OF OBS
   G22     0     0     0     0     0     0                  PRN / # OF OBS
   G23  1100  1100  1100  1100  1100  1100                  PRN / # OF OBS
   G24   636   636   636   635   635   635                  PRN / # OF OBS
   G25     0     0     0     0     0     0                  PRN / # OF OBS
   G26     0     0     0     0     0     0                  PRN / # OF OBS
   G27   655   655   655   654   654   654                  PRN / # OF OBS
   G28     0     0     0     0     0     0                  PRN / # OF OBS
   G29   829   829   829   829   829   829                  PRN / # OF OBS
   G30   721   721   721   695   695   695                  PRN / # OF OBS
   G31     0     0     0     0     0     0                  PRN / # OF OBS
   G32     0     0     0     0     0     0                  PRN / # OF OBS
   R 1     0     0     0     0     0     0                  PRN / # OF OBS
   R 2     0     0     0     0     0     0                  PRN / # OF OBS
   R 3     0     0     0     0     0     0                  PRN / # OF OBS
   R 4   242   242   242   242   242   242                  PRN / # OF OBS
   R 5  1224  1224  1224  1225  1225  1225                  PRN / # OF OBS
   R 6  1245  1245  1245     0     0     0                  PRN / # OF OBS
   R 7   738   738   738   737   737   737                  PRN / # OF OBS
   R 8     0     0     0     0     0     0                  PRN / # OF OBS
   R 9     0     0     0     0     0     0                  PRN / # OF OBS
   R10     0     0     0     0     0     0                  PRN / # OF OBS
   R11     0     0     0     0     0     0                  PRN / # OF OBS
   R12     0     0     0     0     0     0                  PRN / # OF OBS
   R13     0     0     0     0     0     0                  PRN / # OF OBS
   R14   959   959   959   938   938   938                  PRN / # OF OBS
   R15   826   826   826   825   825   825                  PRN / # OF OBS
   R16    52    52    52    52    52    52                  PRN / # OF OBS
   R17     0     0     0     0     0     0                  PRN / # OF OBS
   R18     0     0     0     0     0     0                  PRN / # OF OBS
   R19     0     0     0     0     0     0                  PRN / # OF OBS
   R20   566   566   566   566   566   566                  PRN / # OF OBS
   R21  1245  1245  1245  1245  1245  1245                  PRN / # OF OBS
   R22  1172  1172  1172  1099  1099  1099                  PRN / # OF OBS
   R23     0     0     0     0     0     0                  PRN / # OF OBS
   R24     0     0     0     0     0     0                  PRN / # OF OBS
                                                            END OF HEADER
 20 10 02 04 52 40.0000000  0 13G15G 2G18G29G 5G30G20G13R 4R 6R 5R20
                                R21
  21002869.450   110370821.61849      2526.184    21002868.727    86003238.63249
      1968.448  
  24175365.285   127042399.79047     -3233.671    24175361.985    98994076.27745
     -2519.750  
  21535722.142   113170982.75848      2447.328    21535722.061    88185185.30347
      1907.004  
  22134468.904   116317419.76348     -2607.858    22134468.752    90636948.87949
     -2032.101  
  21535195.568   113168215.06249     -2442.995    21535194.523    88183023.80949
     -1903.632  
  23750289.726   124808596.24047        86.854    23750291.971    97253470.62946
        67.675  
  23989247.427   126064332.25045      3259.187    23989243.111    98231942.19843
      2539.625  
  20508949.361   107775256.65949       595.733    20508948.217    83980716.71147
       464.206  
  22524669.202   120618566.49306     -3770.425    22524671.388    93814460.40407
     -2932.554  
  20935461.152   111715632.33907      2966.241           0.000           0.0000 
         0.000  
  19340676.010   103387001.85009     -1156.324    19340679.660    80412129.94808
      -899.363  
  20177580.617   107898596.91706     -2713.719    20177586.644    83921149.13908
     -2110.671  
  20080164.161   107453011.65609      2033.952    20080167.713    83574583.07008
      1581.965  
 20 10 02 04 52 45.0000000  0 13G15G 2G18G29G 5G30G20G13R 4R 6R 5R20
                                R21
  21000467.430   110358198.88749      2522.840    21000466.572    85993402.73949
      1965.844  
  24178443.164   127058573.02647     -3235.421    24178439.468    99006678.77544
     -2521.116  
  21533395.044   113158753.15548      2444.684    21533394.718    88175655.75247
      1904.949  
  22136951.833   116330467.64248     -2611.141    22136951.817    90647116.05149
     -2034.660  
  21537520.958   113180435.25748     -2445.101    21537520.025    88192546.04049
     -1905.272  
  23750208.749   124808171.17647        82.929    23750211.390    97253139.41246
        64.616  
  23986145.976   126048037.42345      3258.233    23986141.380    98219244.84643
      2538.866  
  20508384.525   107772288.42549       591.495    20508383.313    83978403.80248
       460.906  
  22528189.832   120637421.33805     -3771.449    22528192.706    93829125.32107
     -2933.496  
  20932683.049   111700808.56607      2963.449           0.000           0.0000 
         0.000  
  19341759.318   103392792.31709     -1159.901    19341762.928    80416633.63108
      -902.147  
  20180120.319   107912176.03506     -2718.297    20180125.886    83931710.67008
     -2114.234  
  20078265.909   107442853.94508      2029.172    20078269.345    83566682.63208
      1578.246  
 20 10 02 04 52 50.0000000  0 13G15G 2G18G29G 5G30G20G13R 4R 6R 5R20
                                R21
  20998067.841   110345588.05549      2521.265    20998066.866    85983576.12549
      1964.621  
  24181521.265   127074749.77647     -3235.815    24181518.269    99019284.01544
     -2521.418  
  21531069.280   113146531.64748      2443.688    21531069.081    88166132.50047
      1904.168  
  22139436.872   116343526.76548     -2612.602    22139436.637    90657291.97649
     -2035.796  
  21539847.464   113192661.34648     -2445.526    21539846.336    88202072.86349
     -1905.608  
  23750130.415   124807760.33847        81.176    23750133.357    97252819.28746
        63.254  
  23983044.862   126031743.39444      3258.999    23983040.394    98206548.32846
      2539.499  
  20507822.755   107769336.21049       589.124    20507821.610    83976103.37848
       459.058  
  22531710.445   120656277.87105     -3771.266    22531714.205    93843791.49107
     -2933.211  
  20929906.869   111685994.36807      2962.124           0.000           0.0000 
         0.000  
  19342845.144   103398596.45809     -1161.921    19342848.638    80421147.96508
      -903.722  
  20182662.674   107925771.49106     -2720.464    20182668.290    83942284.91308
     -2115.922  
  20076371.151   107432714.08508      2026.448    20076374.612    83558796.07408
      1576.124  
 20 10 02 04 52 55.0000000  0 13G15G 2G18G29G 5G30G20G13R 4R 6R 5R20
                                R21
  20995670.133   110332988.98649      2518.266    20995669.209    85973758.68349
      1962.285  
  24184600.070   127090929.94147     -3236.671    24184597.042    99031891.91845
     -2522.085  
  21528745.242   113134318.02748      2441.613    21528744.945    88156615.39947
      1902.555  
  22141923.974   116356596.91948     -2615.460    22141923.950    90667476.51249
     -2038.026  
  21542175.093   113204893.15348     -2447.253    21542174.226    88211604.14949
     -1906.948  
  23750054.693   124807363.54247        77.530    23750057.797    97252510.10046
        60.409  
  23979944.369   126015450.09845      3258.226    23979941.045    98193852.10443
      2538.863  
  20507263.850   107766399.83249       585.363    20507262.889    83973815.29048
       456.128  
  22535231.609   120675135.92405     -3771.737    22535235.904    93858458.83407
     -2933.637  
  20927132.400   111671189.36307      2959.858           0.000           0.0000 
         0.000  
  19343933.307   103404413.93808     -1165.226    19343936.909    80425672.66508
      -906.292  
  20185207.964   107939383.33206     -2723.945    20185213.834    83952871.90408
     -2118.629  
  20074479.444   107422591.74408      2022.499    20074483.001    83550923.13408
      1573.051  
 20 10 02 04 53  0.0000000  0 13G15G 2G18G29G 5G30G20G13R 4R 6R 5R20
                                R21
  20993274.871   110320401.79849      2516.382    20993274.055    85963950.49149
      1960.815  
  24187679.808   127107113.57647     -3236.995    24187676.700    99044502.54244
     -2522.339  
  21526422.474   113122112.42648      2440.445    21526422.363    88147104.53247
      1901.640  
  22144413.369   116369678.24748     -2617.249    22144413.285    90677669.73649
     -2039.417  
  21544503.664   113217130.81448     -2448.102    21544502.834    88221139.97349
     -1907.616  
  23749981.585   124806980.94947        75.202    23749984.863    97252211.98146
        58.601  
  23976843.942   125999157.62105      3258.922           0.000           0.0000 
         0.000  
  20506708.232   107763479.44949       582.624    20506707.130    83971539.67848
       453.992  
  22538753.294   120693995.57205     -3771.605    22538757.921    93873127.47307
     -2933.472  
  20924359.731   111656393.96307      2958.152           0.000           0.0000 
         0.000  
  19345024.275   103410245.06709     -1167.546    19345027.556    80430207.99508
      -908.097  
  20187756.531   107953011.54206     -2726.819    20187762.487    83963471.61008
     -2120.862  
  20072591.244   107412487.23108      2019.253    20072594.814    83543064.06908
      1570.527  
 20 10 02 04 53  5.0000000  0 13G15G 2G18G29G 5G30G20G13R 4R 6R 5R20
                                R21
  20990882.433   110307829.67149      2510.969    20990881.836    85954154.03449
      1956.598  
  24190760.656   127123303.88547     -3240.667    24190757.469    99057118.33844
     -2525.203  
  21524102.044   113109918.04548      2436.058    21524101.942    88137602.42147
      1898.223  
  22146905.284   116382773.84748     -2622.417    22146905.617    90687874.10549
     -2043.444  
  21546834.138   113229377.47548     -2452.159    21546833.348    88230682.81949
     -1910.777  
  23749911.775   124806615.65747        69.297    23749915.467    97251927.34745
        53.995  
  23973744.224   125982869.11644      3255.363    23973741.858    98168461.50053
      2536.667  
  20506156.226   107760578.19849       576.395    20506155.055    83969278.96148
       449.133  
  22542275.681   120712860.04605     -3775.659    22542280.505    93887799.84806
     -2936.624  
  20921589.758   111641611.35807      2953.422           0.000           0.0000 
         0.000  
  19346118.083   103416092.84909     -1173.207    19346121.632    80434756.26508
      -912.500  
  20190308.666   107966659.39006     -2733.629    20190314.756    83974086.60208
     -2126.155  
  20070706.862   107402403.61708      2012.844    20070710.427    83535221.25708
      1565.546  
 20 10 02 04 53 10.0000000  0 13G15G 2G18G29G 5G30G20G13R 4R 6R 5R20
                                R21
  20988494.220   110295279.46749      2509.397    20988493.481    85944374.65149
      1955.375  
  24193843.945   127139507.64546     -3240.276    24193840.851    99069744.61444
     -2524.897  
  21521784.854   113097741.69148      2435.183    21521784.929    88128114.35747
      1897.547  
  22149401.422   116395890.55148     -2623.851    22149401.593    90698094.90049
     -2044.562  
  21549167.486   113241639.89448     -2452.578    21549166.709    88240237.95149
     -1911.101  
  23749846.628   124806274.55847        67.499    23749850.245    97251661.55446
        52.594  
  23970646.513   125966591.31745      3255.979    23970643.926    98155778.39451
      2537.128  
  20505608.992   107757702.90249       574.050    20505608.110    83967038.46948
       447.313  
  22545800.046   120731736.23305     -3774.687    22545805.451    93902481.34306
     -2935.866  
  20918823.232   111626848.20607      2952.159           0.000           0.0000 
         0.000  
  19347216.577   103421964.27509     -1175.069    19347219.832    80439322.93508
      -913.945  
  20192865.753   107980333.75106     -2735.749    20192872.023    83984722.22808
     -2127.805  
  20068827.719   107392347.94209      2010.016    20068831.324    83527400.18508
      1563.344  
 20 10 02 04 53 15.0000000  0 13G15G 2G18G29G 5G30G20G13R 4R 6R 5R20
                                R21
  20986106.955   110282734.36449      2508.503    20986106.367    85934599.25549
      1954.680  
  24196926.736   127155708.10347     -3239.792    24196923.712    99082368.32244
     -2524.522  
  21519468.038   113085566.61749      2435.019    21519468.182    88118627.29247
      1897.417  
  22151898.342   116409011.57749     -2624.655    22151898.778    90708319.07749
     -2045.191  
  21551500.832   113253901.33748     -2452.245    21551500.069    88249792.32449
     -1910.843  
  23749782.928   124805940.84647        66.011    23749786.395    97251401.50346
        51.433  
  23967547.577   125950307.61445      3256.921    23967545.124    98143089.84843
      2537.878  
  20505063.633   107754836.77249       572.328    20505062.851    83964805.12848
       445.969  
  22549323.857   120750607.11205     -3773.516    22549329.289    93917158.69007
     -2934.957  
  20916057.084   111612087.91907      2951.770           0.000           0.0000 
         0.000  
  19348316.194   103427842.35409     -1176.245    19348319.604    80443894.76808
      -914.862  
  20195424.759   107994017.53506     -2737.641    20195430.958    83995365.16408
     -2129.281  
  20066950.814   107382303.21009      2007.835    20066954.127    83519587.61308
      1561.645  
 20 10 02 04 53 20.0000000  0 13G15G 2G18G29G 5G30G20G13R 4R 6R 5R20
                                R21
  20983721.205   110270197.84949      2505.789    20983720.711    85924830.55249
      1952.562  
  24200009.463   127171908.63147     -3240.852    24200006.665    99094992.12345
     -2525.340  
  21517152.183   113073396.31049      2432.901    21517152.158    88109143.93547
      1895.766  
  22154396.768   116422140.39548     -2627.133    22154397.145    90718549.31749
     -2047.121  
  21553834.576   113266165.24348     -2453.609    21553833.691    88259348.61849
     -1911.901  
  23749721.307   124805617.99147        62.983    23749724.506    97251149.92445
        49.074  
  23964448.461   125934021.36545      3257.073    23964446.358    98130399.20241
      2537.980  
  20504520.737   107751983.30349       568.819    20504519.800    83962581.64748
       443.238  
  22552847.346   120769476.17405     -3774.218    22552853.016    93931834.60907
     -2935.507  
  20913292.231   111597333.94807      2949.847           0.000           0.0000 
         0.000  
  19349417.687   103433730.53009     -1179.269    19349421.341    80448474.45408
      -917.214  
  20197986.219   108007714.18806     -2740.828    20197992.360    84006018.11108
     -2131.758  
  20065076.328   107372272.89808      2003.926    20065079.790    83511786.25608
      1558.609  
 20 10 02 04 53 25.0000000  0 13G15G 2G18G29G 5G30G20G13R 4R 6R 5R20
                                R21
  20981338.318   110257675.25849      2504.184    20981337.736    85915072.69649
      1951.313  
  24203093.275   127188114.66946     -3240.523    24203090.462    99107620.19244
     -2525.089  
  21514838.249   113061236.06948      2432.242    21514838.318    88099668.42747
      1895.254  
  22156897.672   116435282.26348     -2628.624    22156897.936    90728789.73349
     -2048.281  
  21556169.695   113278436.96948     -2453.948    21556168.777    88268910.99849
     -1912.171  
  23749663.028   124805311.29947        60.637    23749665.761    97250910.96845
        47.250  
  23961349.703   125917737.97244      3257.844    23961347.209    98117710.92141
      2538.578  
  20503981.073   107749147.78449       566.495    20503980.406    83960372.16548
       441.425  
  22556371.357   120788348.75105     -3773.796    22556377.461    93946513.26507
     -2935.180  
  20910529.561   111582591.34307      2948.362           0.000           0.0000 
         0.000  
  19350522.224   103439634.16609     -1181.215    19350525.912    80453066.17408
      -918.723  
  20200550.932   108021429.35806     -2743.789    20200557.036    84016685.45608
     -2134.063  
  20063205.752   107362262.47408      2001.198    20063209.112    83504000.37708
      1556.487  
 20 10 02 04 53 30.0000000  0 13G15G 2G18G29G 5G30G20G13R 4R 6R 5R20
                                R21
  20978956.026   110245156.75849      2501.698    20978955.774    85905318.02449
      1949.374  
  24206176.295   127204316.33146     -3241.585    24206173.325    99120244.81644
     -2525.918  
  21512524.258   113049076.05749      2430.363    21512524.486    88090193.11047
      1893.789  
  22159399.134   116448427.35048     -2631.015    22159399.394    90739032.66049
     -2050.141  
  21558504.593   113290706.60048     -2455.320    21558503.609    88278471.74549
     -1913.238  
  23749605.769   124805010.99147        57.800    23749608.429    97250676.95345
        45.034  
  23958249.674   125901447.48945      3257.339    23958248.167    98105017.11341
      2538.194  
  20503443.123   107746320.43449       563.155    20503442.461    83958169.03048
       438.824  
  22559893.975   120807214.95705     -3774.750    22559900.766    93961187.02007
     -2935.918  
  20907767.111   111567850.53307      2945.999           0.000           0.0000 
         0.000  
  19351627.634   103445543.40009     -1184.184    19351631.370    80457662.24108
      -921.035  
  20203117.106   108035152.87506     -2746.941    20203123.337    84027359.30808
     -2136.515  
  20061336.891   107352261.84808      1997.574    20061340.342    83496222.09408
      1553.663  
 20 10 02 04 53 35.0000000  0 13G15G 2G18G29G 5G30G20G13R 4R 6R 5R20
                                R21
  20976577.949   110232659.59949      2496.226    20976577.485    85895579.98249
      1945.113  
  24209261.723   127220530.83347     -3245.226    24209258.870    99132879.48045
     -2528.754  
  21510213.555   113036933.57748      2425.688    21510213.839    88080731.42747
      1890.140  
  22161904.423   116461592.91848     -2636.269    22161904.746    90749291.53049
     -2054.237  
  21560842.343   113302991.43048     -2459.387    21560841.374    88288044.34549
     -1916.409  
  23749553.344   124804734.27947        52.108    23749555.677    97250461.28445
        40.597  
  23955151.318   125885167.39243      3254.366    23955150.504    98092337.32653
      2535.871  
  20502909.915   107743518.43849       556.836    20502909.101    83955985.66348
       433.898  
  22563419.003   120826092.17004     -3777.715    22563425.876    93975869.29307
     -2938.223  
  20905008.228   111553128.82406      2941.023           0.000           0.0000 
         0.000  
  19352737.360   103451475.55409     -1189.957    19352741.117    80462276.13608
      -925.527  
  20205688.343   108048902.12306     -2753.546    20205694.459    84038053.15108
     -2141.651  
  20059473.186   107342288.69608      1990.898    20059476.639    83488465.21308
      1548.477  
 20 10 02 04 53 40.0000000  0 12G15G 2G18G29G 5G30G13R 4R 6R 5R20R21
  20974204.016   110220184.34249      2494.522    20974203.814    85885859.01049
      1943.785  
  24212349.930   127236758.68947     -3245.362    24212347.073    99145524.56343
     -2528.854  
  21507906.460   113024809.14448      2424.844    21507906.591    88071283.82147
      1889.484  
  22164413.859   116474779.49848     -2637.757    22164413.960    90759566.78249
     -2055.397  
  21563182.934   113315291.94648     -2460.120    21563182.048    88297629.16949
     -1916.977  
  23749505.332   124804481.66147        49.699    23749507.565    97250264.46045
        38.727  
  20502381.650   107740742.35449       554.370    20502380.827    83953822.47148
       431.972  
  22566946.109   120844981.15805     -3777.418    22566953.105    93990560.76207
     -2937.750  
  20902253.019   111538426.72007      2940.233           0.000           0.0000 
         0.000  
  19353851.602   103457431.31609     -1191.758    19353855.198    80466908.39808
      -926.921  
  20208264.333   108062677.94306     -2756.304    20208270.409    84048767.66808
     -2143.796  
  20057614.719   107332343.50509      1988.003    20057618.205    83480730.07808
      1546.226  
 20 10 02 04 53 45.0000000  0 13G15G 2G18G29G 5G30G20G13R 4R 6R 5R20
                                R21
  20971830.826   110207713.64549      2493.483    20971830.651    85876141.58849
      1942.976  
  24215437.515   127252982.62446     -3244.812    24215434.329    99158166.57844
     -2528.430  
  21505599.354   113012685.44048      2424.625    21505599.549    88061836.77647
      1889.315  
  22166923.871   116487969.73448     -2638.516    22166923.892    90769844.87649
     -2055.987  
  21565523.319   113327590.90848     -2459.941    21565522.251    88307212.78449
     -1916.835  
  23749458.568   124804235.88447        48.210    23749460.621    97250072.95045
        37.565  
  23948957.265   125852620.08255      3255.621    23948960.210    98066988.29453
      2536.848  
  20501854.936   107737974.85949       552.538    20501854.012    83951665.99947
       430.550  
  22570472.276   120863864.03305     -3775.979    22570479.453    94005247.37707
     -2936.882  
  20899498.213   111523726.73707      2939.391           0.000           0.0000 
         0.000  
  19354966.983   103463393.00709     -1192.973    19354970.501    80471545.27008
      -927.867  
  20210842.137   108076462.33906     -2757.480    20210848.098    84059488.85508
     -2144.711  
  20055758.152   107322408.64209      1985.702    20055761.416    83473002.97308
      1544.437  
 20 10 02 04 53 50.0000000  0 13G15G 2G18G29G 5G30G20G13R 4R 6R 5R20
                                R21
  20969459.763   110195253.93849      2490.108    20969459.677    85866432.71649
      1940.339  
  24218525.301   127269208.95546     -3246.175    24218522.234    99170810.47044
     -2529.495  
  21503293.562   113000568.86148      2422.085    21503294.002    88052395.29147
      1887.339  
  22169435.825   116501169.95149     -2641.672    22169435.809    90780130.75649
     -2058.449  
  21567864.653   113339894.67248     -2461.870    21567863.715    88316800.12949
     -1918.343  
  23749414.456   124804003.25947        44.590    23749416.404    97249891.70445
        34.745  
  23945859.719   125836343.99345      3254.184    23945863.531    98054305.78644
      2535.745  
  20501331.246   107735222.35249       548.452    20501330.387    83949521.18948
       427.366  
  22573998.528   120882747.44805     -3777.272    22574005.679    94019934.45307
     -2937.891  
  20896745.132   111509035.20407      2936.793           0.000           0.0000 
         0.000  
  19356084.593   103469367.05609     -1196.660    19356088.018    80476191.75308
      -930.738  
  20213422.727   108090262.03806     -2762.125    20213428.655    84070221.96808
     -2148.319  
  20053904.750   107312490.68209      1981.199    20053907.999    83465288.99808
      1540.930  
 20 10 02 04 53 55.0000000  0 13G15G 2G18G29G 5G30G20G13R 4R 6R 5R20
                                R21
  20967091.748   110182809.02949      2487.668    20967091.597    85856735.38749
      1938.437  
  24221614.384   127285441.53846     -3246.793    24221611.444    99183459.23744
     -2529.972  
  21500990.075   112988463.23648      2420.277    21500990.358    88042962.34747
      1885.930  
  22171950.416   116514383.97149     -2643.851    22171950.411    90790427.41249
     -2060.145  
  21570207.710   113352207.01948     -2462.964    21570206.645    88326394.16049
     -1919.198  
  23749373.406   124803787.66947        41.207    23749375.383    97249723.69845
        32.104  
  23942763.179   125820071.53346      3254.425    23942766.930    98041625.91344
      2535.914  
  20500810.969   107732488.62249       545.050    20500810.181    83947391.00048
       424.711  
  22577525.528   120901635.09405     -3777.612    22577532.710    94034624.85007
     -2938.054  
  20893994.315   111494356.22607      2934.859           0.000           0.0000 
         0.000  
  19357205.214   103475357.44909     -1199.504    19357208.653    80480850.94908
      -932.948  
  20216006.747   108104080.76506     -2765.624    20216012.765    84080969.86108
     -2151.047  
  20052055.292   107302593.54608      1977.612    20052058.655    83457591.22508
      1538.140  
 20 10 02 04 54  0.0000000  0 13G15G 2G18G29G 5G30G20G13R 4R 6R 5R20
                                R21
  20964727.907   110170387.33649      2478.668    20964727.936    85847056.15649
      1931.430  
  24224706.140   127301688.79446     -3254.160    24224703.363    99196119.41244
     -2535.714  
  21498690.007   112976376.98648      2411.979    21498690.374    88033544.48347
      1879.464  
  22174469.352   116527620.22148     -2652.808    22174469.149    90800741.38149
     -2067.125  
  21572553.803   113364536.35348     -2471.015    21572552.763    88336001.43349
     -1925.469  
  23749337.197   124803597.51446        32.191    23749339.291    97249575.50046
        25.081  
  23939668.955   125803811.21446      3247.944    23939672.900    98028955.56241
      2530.866  
  20500296.022   107729782.11949       535.313    20500295.088    83945282.03148
       417.121  
  22581054.919   120920535.72905     -3784.422    22581062.372    94049325.39307
     -2943.433  
  20891247.353   111479698.28507      2926.195           0.000           0.0000 
         0.000  
  19358330.482   103481372.62209     -1208.913    19358333.992    80485529.42308
      -940.265  
  20218596.284   108117927.40306     -2775.691    20218602.245    84091739.46308
     -2158.874  
  20050211.257   107292725.74208      1967.343    20050214.573    83449916.25808
      1530.151  
 20 10 02 04 54  5.0000000  0 13G15G 2G18G29G 5G30G20G13R 4R 6R 5R20
                                R21
  20962368.803   110157990.41149      2480.500    20962368.869    85837396.23149
      1932.854  
  24227801.038   127317952.28045     -3250.718    24227798.247    99208792.28945
     -2533.030  
  21496394.123   112964311.69048      2414.601    21496394.240    88024142.94847
      1881.504  
  22176992.623   116540880.22948     -2650.894    22176992.272    90811073.86549
     -2065.633  
  21574903.527   113376884.20248     -2467.694    21574902.634    88345623.13449
     -1922.882  
  23749306.063   124803434.27745        33.499    23749308.249    97249448.29547
        26.105  
  23936577.235   125787564.55246      3251.737    23936581.404    98016295.83943
      2533.824  
  20499786.412   107727104.37949       536.288    20499785.383    83943195.46647
       417.883  
  22584587.060   120939450.90305     -3780.409    22584594.679    94064037.16907
     -2940.324  
  20888504.629   111465062.83307      2928.480           0.000           0.0000 
         0.000  
  19359460.802   103487414.20409     -1207.266    19359464.166    80490228.43608
      -938.973  
  20221191.218   108131803.12006     -2774.363    20221197.041    84102531.67708
     -2157.844  
  20048373.035   107282888.85809      1967.953    20048376.226    83442265.34708
      1530.625  
 20 10 02 04 54 10.0000000  0 13G15G 2G18G29G 5G30G20G13R 4R 6R 5R20
                                R21
  20960008.554   110145587.52949      2480.647    20960008.528    85827731.65549
      1932.973  
  24230893.157   127334201.16345     -3248.812    24230890.300    99221453.69845
     -2531.547  
  21494096.327   112952236.59348      2415.456    21494096.391    88014733.79947
      1882.175  
  22179514.530   116554133.28148     -2650.546    22179514.151    90821400.91349
     -2065.363  
  21577250.760   113389219.83948     -2466.722    21577250.049    88355235.31249
     -1922.125  
  23749274.092   124803267.36545        33.082    23749276.388    97249318.23746
        25.772  
  23933482.363   125771300.79846      3254.214    23933486.688    98003622.74644
      2535.742  
  20499276.381   107724424.65149       535.655    20499275.479    83941107.37048
       417.390  
  22588116.106   120958349.15805     -3778.569    22588123.661    94078735.88207
     -2938.878  
  20885760.365   111450418.82207      2929.042           0.000           0.0000 
         0.000  
  19360589.984   103493450.88909     -1207.444    19360593.402    80494923.64208
      -939.124  
  20223785.576   108145676.81706     -2775.280    20223791.546    84113322.33608
     -2158.554  
  20046534.795   107273051.69009      1966.824    20046537.873    83434614.22608
      1529.753  
 20 10 02 04 54 15.0000000  0 13G15G 2G18G29G 5G30G20G13R 4R 6R 5R20
                                R21
  20957650.033   110133193.57349      2476.999    20957650.128    85818074.02849
      1930.128  
  24233985.339   127350450.37545     -3250.589    24233982.631    99234115.40045
     -2532.930  
  21491799.453   112940166.56548      2412.573    21491799.573    88005328.58747
      1879.929  
  22182037.978   116567394.15048     -2653.749    22182037.734    90831734.03349
     -2067.858  
  21579598.766   113401558.16348     -2468.934    21579597.973    88364849.57749
     -1923.847  
  23749243.922   124803111.47545        28.461    23749246.562    97249196.82146
        22.183  
  23930387.124   125755034.73946      3252.492    23930391.433    97990947.88044
      2534.402  
  20498768.833   107721757.77949       531.230    20498768.059    83939029.29048
       413.945  
  22591644.688   120977245.64606     -3779.902    22591652.654    94093433.13907
     -2939.741  
  20883017.420   111435781.25507      2926.093           0.000           0.0000 
         0.000  
  19361721.208   103499497.80909     -1211.352    19361724.580    80499626.80108
      -942.168  
  20226382.549   108159563.59206     -2779.531    20226388.437    84124123.16308
     -2161.859  
  20044699.353   107263229.33709      1962.159    20044702.173    83426974.61508
      1526.120  
 20 10 02 04 54 20.0000000  0 13G15G 2G18G29G 5G30G20G13R 4R 6R 5R20
                                R21
  20955294.363   110120814.47549      2474.390    20955294.191    85808427.98349
      1928.094  
  24237078.630   127366705.73046     -3251.347    24237075.819    99246781.89344
     -2533.522  
  21489504.696   112928107.59948      2410.707    21489504.738    87995931.99847
      1878.473  
  22184563.907   116580668.87548     -2656.301    22184563.532    90842077.97149
     -2069.847  
  21581948.304   113413905.13248     -2470.102    21581947.590    88374470.58349
     -1924.757  
  23749217.170   124802972.70345        25.979    23749219.992    97249088.68045
        20.249  
  23927292.592   125738772.45846      3252.105    23927297.011    97978276.02144
      2534.112  
  20498264.904   107719109.77049       527.792    20498264.054    83936965.90948
       411.265  
  22595174.257   120996146.45306     -3780.343    22595182.111    94108133.76507
     -2940.265  
  20880276.745   111421156.17407      2923.801           0.000           0.0000 
         0.000  
  19362855.616   103505561.05609     -1214.160    19362858.904    80504342.66008
      -944.352  
  20228983.157   108173469.33606     -2783.265    20228988.731    84134938.74508
     -2164.762  
  20042867.601   107253427.85409      1958.413    20042870.586    83419351.24408
      1523.206  
 20 10 02 04 54 25.0000000  0 13G15G 2G18G29G 5G30G20G13R 4R 6R 5R20
                                R21
  20952941.328   110108449.13349      2471.878    20952941.169    85798792.65949
      1926.140  
  24240173.000   127382966.34946     -3252.198    24240170.394    99259452.47243
     -2534.191  
  21487211.833   112916058.55148      2409.094    21487212.085    87986543.12247
      1877.210  
  22187092.492   116593956.24048     -2658.617    22187092.033    90852431.76149
     -2071.652  
  21584299.222   113426259.50848     -2471.198    21584298.655    88384097.36749
     -1925.612  
  23749193.600   124802849.80946        22.961    23749196.499    97248992.91844
        17.886  
  23924198.464   125722512.70347      3251.945    23924202.751    97965606.13743
      2533.987  
  20497764.357   107716479.44349       524.464    20497763.742    83934916.31248
       408.676  
  22598704.293   121015050.48206     -3780.683    22598712.288    94122836.88907
     -2940.535  
  20877538.106   111406542.52407      2921.887           0.000           0.0000 
         0.000  
  19363992.613   103511639.33209     -1217.022    19363996.105    80509070.20108
      -946.577  
  20231587.096   108187393.14506     -2786.011    20231592.654    84145768.38708
     -2166.898  
  20041039.758   107243646.10608      1954.832    20041042.613    83411743.23108
      1520.426  
 20 10 02 04 54 30.0000000  0 13G15G 2G18G29G 5G30G20G13R 4R 6R 5R20
                                R21
  20950590.385   110096095.53049      2469.414    20950590.389    85789166.48149
      1924.219  
  24243267.911   127399230.05845     -3253.229    24243265.244    99272125.46144
     -2534.992  
  21484920.503   112904017.43848      2407.194    21484920.610    87977160.44647
      1875.737  
  22189622.978   116607254.21948     -2660.930    22189622.582    90862793.81249
     -2073.456  
  21586651.292   113438619.28348     -2472.660    21586650.689    88393728.36149
     -1926.754  
  23749172.603   124802740.88045        20.390    23749176.037    97248908.03545
        15.887  
  23921104.553   125706253.65346      3251.456    23921108.399    97952936.72343
      2533.597  
  20497266.698   107713864.78949       521.120    20497266.086    83932878.92948
       406.070  
  22602234.371   121033955.63804     -3780.765    22602242.642    94137540.90707
     -2940.598  
  20874801.336   111391938.24907      2919.112           0.000           0.0000 
         0.000  
  19365132.041   103517730.66309     -1219.844    19365135.449    80513807.90508
      -948.770  
  20234193.810   108201332.75906     -2789.476    20234199.449    84156610.28208
     -2169.601  
  20039215.106   107233882.11608      1950.734    20039217.962    83404149.01108
      1517.233  
 20 10 02 04 54 35.0000000  0 13G15G 2G18G29G 5G30G20G13R 4R 6R 5R20
                                R21
  20948242.324   110083756.07249      2466.684    20948242.308    85779551.32549
      1922.090  
  24246363.777   127415499.16245     -3254.352    24246361.258    99284802.65344
     -2535.867  
  21482631.129   112891986.63449      2405.281    21482631.144    87967785.80847
      1874.246  
  22192155.990   116620565.28748     -2663.266    22192155.781    90873166.05649
     -2075.277  
  21589004.689   113450986.87248     -2474.136    21589004.222    88403365.43949
     -1927.902  
  23749155.135   124802648.30345        16.984    23749158.280    97248835.88445
        13.230  
  23918011.210   125689997.52747      3251.261    23918014.509    97940269.60242
      2533.440  
  20496772.643   107711268.19849       517.663    20496772.085    83930855.60948
       403.370  
  22605765.269   121052864.40505     -3781.229    22605773.723    94152247.64007
     -2940.973  
  20872066.616   111377345.75807      2917.336           0.000           0.0000 
         0.000  
  19366274.450   103523837.52909     -1222.585    19366277.896    80518557.69608
      -950.897  
  20236804.016   108215290.64306     -2792.816    20236809.652    84167466.41708
     -2172.190  
  20037394.178   107224138.24209      1946.905    20037396.942    83396570.43608
      1514.258  
 20 10 02 04 54 40.0000000  0 13G15G 2G18G29G 5G30G20G13R 4R 6R 5R20
                                R21
  20945896.712   110071430.51949      2463.772    20945896.910    85769947.00249
      1919.823  
  24249460.620   127431773.43546     -3255.175    24249458.163    99297483.89644
     -2536.504  
  21480343.644   112879965.91549      2403.179    21480343.921    87958419.01447
      1872.608  
  22194691.429   116633889.08048     -2665.851    22194691.173    90883548.24949
     -2077.288  
  21591359.625   113463361.98548     -2475.891    21591359.220    88413008.38549
     -1929.270  
  23749140.308   124802571.69545        13.836    23749143.952    97248776.18246
        10.777  
  23914918.343   125673744.18447      3250.613    23914921.027    97927604.68543
      2532.944  
  20496281.836   107708689.46249       513.973    20496281.438    83928846.20948
       400.496  
  22609296.960   121071776.41804     -3782.862    22609305.245    94166956.99107
     -2942.226  
  20869334.112   111362764.84307      2915.137           0.000           0.0000 
         0.000  
  19367419.662   103529959.59109     -1225.897    19367423.215    80523319.30308
      -953.480  
  20239417.647   108229266.68206     -2796.956    20239423.203    84178336.66708
     -2175.410  
  20035577.006   107214414.37709      1942.887    20035579.852    83389007.43808
      1511.129  
 20 10 02 04 54 45.0000000  0 13G15G 2G18G29G 5G30G20G13R 4R 6R 5R20
                                R21
  20943553.999   110059119.60249      2460.058    20943554.199    85760354.08749
      1916.930  
  24252558.650   127448053.69346     -3257.315    24252556.356    99310169.79344
     -2538.176  
  21478058.446   112867956.02549      2400.183    21478058.407    87949060.65547
      1870.270  
  22197229.386   116647226.35148     -2669.461    22197228.975    90893940.90849
     -2080.102  
  21593716.274   113475745.38849     -2478.147    21593715.648    88422657.78349
     -1931.026  
  23749128.756   124802511.86745         9.371    23749132.516    97248729.57346
         7.301  
  23911826.110   125657494.29547      3248.948    23911828.752    97914942.43243
      2531.647  
  20495794.654   107706129.26949       509.495    20495794.188    83926851.25448
       397.011  
  22612829.394   121090692.35105     -3783.976    22612837.795    94181669.43907
     -2943.086  
  20866604.149   111348196.17807      2911.995           0.000           0.0000 
         0.000  
  19368567.852   103536097.60409     -1229.776    19368571.485    80528093.30308
      -956.495  
  20242034.847   108243261.46306     -2801.413    20242040.323    84189221.50808
     -2178.878  
  20033763.747   107204711.13708      1938.008    20033766.568    83381460.46408
      1507.336  
 20 10 02 04 54 50.0000000  0 14G15G 2G18G29G 5G30G 7G20G13R 4R 6R 5
                                R20R21
  20941214.705   110046826.93749      2457.680    20941214.877    85750775.39149
      1915.074  
  24255658.428   127464343.35045     -3258.468    24255656.387    99322863.02645
     -2539.069  
  21475775.725   112855960.55849      2398.539    21475775.831    87939713.54047
      1868.987  
  22199770.613   116660580.62148     -2671.699    22199770.207    90904346.82949
     -2081.847  
  21596075.000   113488140.70049     -2479.437    21596074.513    88432316.47349
     -1932.026  
  23749121.266   124802472.47746         6.503    23749125.074    97248698.91146
         5.070  
  24950276.628   131114595.13155     -1432.390    24950276.661   102167212.77253
     -1115.906  
  23908735.180   125641251.53747      3248.929    23908737.880    97902285.76343
      2531.633  
  20495311.684   107703591.24549       506.332    20495311.060    83924873.58348
       394.543  
  22616363.350   121109616.05205     -3784.496    22616371.574    94196387.81507
     -2943.507  
  20863876.940   111333643.29707      2909.944           0.000           0.0000 
         0.000  
  19369719.812   103542255.11609     -1232.488    19369723.346    80532882.48108
      -958.605  
  20244656.143   108257278.49205     -2804.551    20244661.532    84200123.63708
     -2181.315  
  20031954.981   107195032.28108      1934.313    20031957.858    83373932.46808
      1504.461  
 20 10 02 04 54 55.0000000  0 15G15G 2G18G29G 5G30G 7G20G13R14R 4R 6
                                R 5R20R21
  20938877.112   110034542.05349      2456.133    20938877.003    85741202.74849
      1913.867  
  24258757.823   127480632.15644     -3257.819    24258755.970    99335555.61346
     -2538.566  
  21473493.989   112843969.04649      2397.804    21473493.959    87930369.50247
      1868.417  
  22202313.130   116673941.41848     -2672.960    22202312.720    90914757.83549
     -2082.832  
  21598434.117   113500537.41049     -2479.672    21598433.617    88441976.23449
     -1932.215  
  23749115.874   124802443.01745         4.758    23749119.494    97248675.96945
         3.711  
  24951639.635   131121758.37206     -1433.229           0.000           0.0000 
         0.000  
  23905643.621   125625005.31646      3249.367    23905646.285    97889626.35644
      2531.972  
  20494830.807   107701064.93749       503.948    20494830.375    83922905.03948
       392.688  
  23202285.939   123681236.10515      2149.219    23202295.310    96196566.46012
      1671.609  
  22619896.476   121128536.69205     -3784.147    22619904.904    94211103.85507
     -2943.234  
  20861150.645   111319095.79607      2908.988           0.000           0.0000 
         0.000  
  19370873.263   103548421.66109     -1234.344    19370876.827    80537678.67908
      -960.051  
  20247279.660   108271307.36706     -2807.051    20247284.965    84211034.98408
     -2183.266  
  20030148.826   107185367.15308      1931.332    20030151.788    83366415.14708
      1502.147  
 20 10 02 04 55  0.0000000  0 15G15G 2G18G29G 5G30G 7G20G13R14R 4R 6
                                R 5R20R21
  20936541.643   110022269.26849      2453.215    20936541.647    85731639.54449
      1911.597  
  24261857.851   127496924.32045     -3259.160    24261856.352    99348250.81545
     -2539.604  
  21471213.570   112831985.83149      2395.645    21471213.517    87921031.94047
      1866.734  
  22204857.756   116687313.05248     -2675.473    22204857.443    90925177.30049
     -2084.784  
  21600794.170   113512939.85448     -2481.211    21600793.707    88451640.47149
     -1933.413  
  23749112.881   124802427.72646         1.702    23749116.852    97248664.05845
         1.331  
  24953006.054   131128933.42146     -1436.515    24953005.176   102178366.39853
     -1119.370  
  23902552.279   125608760.01747      3248.758    23902554.633    97876967.74543
      2531.499  
  20494353.162   107698554.64549       500.242    20494352.393    83920948.97047
       389.796  
  23200272.967   123670502.74105      2144.792    23200280.608    96188218.26903
      1668.167  
  22623430.210   121147458.70405     -3784.422    22623438.439    94225820.96407
     -2943.440  
  20858426.371   111304558.04707      2906.523           0.000           0.0000 
         0.000  
  19372029.345   103554601.55109     -1237.343    19372032.948    80542485.25908
      -962.378  
  20249906.127   108285352.32706     -2810.933    20249911.546    84221958.83208
     -2186.285  
  20028346.006   107175720.14608      1927.370    20028348.782    83358911.92208
      1499.062  
 20 10 02 04 55  5.0000000  0 15G15G 2G18G29G 5G30G 7G20G13R14R 4R 6
                                R 5R20R21
  20934208.662   110010009.74449      2450.570    20934208.776    85722086.67049
      1909.535  
  24264958.518   127513220.99844     -3259.503    24264957.619    99360949.48645
     -2539.878  
  21468935.275   112820012.06149      2393.761    21468935.021    87911701.72547
      1865.265  
  22207404.486   116700696.71048     -2677.800    22207404.340    90935606.10849
     -2086.602  
  21603155.696   113525349.13248     -2482.550    21603155.227    88461310.03249
     -1934.461  
  23749113.046   124802427.93446        -1.422    23749116.874    97248664.24345
        -1.104  
  24954374.522   131136121.33646     -1439.297    24954368.808   102183967.40143
     -1121.535  
  23899461.171   125592516.75947      3248.520    23899463.116    97864310.59443
      2531.308  
  20493878.783   107696061.48649       496.960    20493878.083    83919006.24748
       387.237  
  23198262.905   123659786.16505      2141.867    23198269.033    96179883.01201
      1665.878  
  22626964.502   121166383.21006     -3785.215    22626972.733    94240540.01807
     -2944.055  
  20855704.072   111290031.21107      2904.280           0.000           0.0000 
         0.000  
  19373188.048   103560795.95009     -1240.379    19373191.700    80547303.12008
      -964.742  
  20252535.780   108299414.51306     -2814.222    20252541.485    84232896.08608
     -2188.844  
  20026546.739   107166092.40508      1923.663    20026549.593    83351423.67808
      1496.180  
 20 10 02 04 55 10.0000000  0 15G15G 2G18G29G 5G30G 7G20G13R14R 4R 6
                                R 5R20R21
  20931878.531   109997764.26149      2447.480    20931878.578    85712544.74349
      1907.128  
  24268060.337   127529522.95044     -3261.351    24268059.696    99373652.31745
     -2541.320  
  21466658.685   112808048.53449      2391.542    21466658.475    87902379.49447
      1863.535  
  22209953.848   116714093.13348     -2680.637    22209953.351    90946044.88049
     -2088.812  
  21605518.570   113537766.02548     -2484.101    21605517.963    88470985.54149
     -1935.663  
  23749116.468   124802444.26346        -5.156    23749119.903    97248676.92645
        -4.022  
  24955745.333   131143322.93245     -1442.082    24955733.502   102189579.06441
     -1123.695  
  23896370.757   125576276.39747      3247.645    23896371.971    97851655.78043
      2530.629  
  20493407.817   107693586.29349       493.016    20493406.947    83917077.52748
       384.164  
  23196255.494   123649087.31405      2138.132    23196261.782    96171561.80403
      1663.004  
  22630499.366   121185311.15406     -3786.085    22630507.248    94255261.77507
     -2944.733  
  20852983.746   111275515.90707      2901.789           0.000           0.0000 
         0.000  
  19374349.727   103567005.57008     -1243.473    19374353.189    80552132.83108
      -967.144  
  20255168.731   108313494.83706     -2817.804    20255174.464    84243847.44608
     -2191.628  
  20024751.199   107156484.79608      1919.406    20024754.287    83343951.09408
      1492.870  
 20 10 02 04 55 15.0000000  0 15G15G 2G18G29G 5G30G 7G20G13R14R 4R 6
                                R 5R20R21
  20929550.839   109985532.53149      2444.859    20929551.067    85703013.53649
      1905.086  
  24271162.723   127545829.97244     -3262.097    24271163.023    99386359.04747
     -2541.901  
  21464383.970   112796094.98149      2389.594    21464383.843    87893065.03647
      1862.019  
  22212505.320   116727501.98948     -2683.191    22212505.038    90956493.33149
     -2090.801  
  21607882.806   113550190.23348     -2485.632    21607882.194    88480666.73449
     -1936.859  
  23749122.737   124802476.45546        -7.934    23749126.291    97248702.02046
        -6.188  
  24957118.774   131150537.88205     -1444.684           0.000           0.0000 
         0.000  
  23893280.679   125560038.58746      3246.940    23893281.271    97839002.97242
      2530.094  
  20492940.057   107691128.73149       489.660    20492939.274    83915162.54548
       381.550  
  23194251.615   123638405.88505      2134.347    23194256.914    96163253.98004
      1660.038  
  22634034.854   121204242.00105     -3786.898    22634042.457    94269985.73107
     -2945.375  
  20850265.912   111261012.05807      2899.344           0.000           0.0000 
         0.000  
  19375514.210   103573230.05808     -1246.500    19375517.805    80556974.10608
      -969.500  
  20257805.095   108327592.85006     -2821.211    20257810.737    84254812.57208
     -2194.276  
  20022959.366   107146896.99108      1915.445    20022962.414    83336493.92408
      1489.862  
 20 10 02 04 55 20.0000000  0 15G15G 2G18G29G 5G30G 7G20G13R14R 4R 6
                                R 5R20R21
  20927226.039   109973315.74849      2442.215    20927226.186    85693493.97649
      1903.023  
  24274266.776   127562143.03745     -3263.628    24274267.044    99399070.49345
     -2543.093  
  21462111.519   112784152.57648      2387.641    21462111.140    87883759.26147
      1860.495  
  22215059.670   116740924.46948     -2685.598    22215059.227    90966952.40149
     -2092.675  
  21610248.538   113562622.92648     -2487.090    21610248.151    88490354.55849
     -1937.996  
  23749132.210   124802525.76947       -11.293    23749135.702    97248740.46245
        -8.805  
  24958494.232   131157767.36905     -1446.718           0.000           0.0000 
         0.000  
  23890191.309   125543804.49446      3246.840    23890192.104    97826353.03944
      2530.008  
  20492475.925   107688689.95149       486.145    20492475.273    83913262.19748
       378.812  
  23192251.445   123627743.07406      2130.848    23192255.280    96154960.68703
      1657.324  
  22637570.754   121223176.99205     -3786.706    22637578.338    94284712.95907
     -2945.215  
  20847550.221   111246520.85707      2896.879           0.000           0.0000 
         0.000  
  19376681.510   103579470.78909     -1249.460    19376685.351    80561828.00108
      -971.808  
  20260444.971   108341709.88906     -2824.737    20260450.641    84265792.49008
     -2197.046  
  20021171.670   107137330.23408      1911.605    20021174.951    83329053.10608
      1486.800  
 20 10 02 04 55 25.0000000  0 15G15G 2G18G29G 5G30G 7G20G13R14R 4R 6
                                R 5R20R21
  20924903.867   109961112.55949      2439.312    20924903.965    85683984.99549
      1900.758  
  24277371.228   127578460.73343     -3263.519    24277372.347    99411785.62645
     -2542.996  
  21459840.773   112772219.88049      2385.655    21459840.467    87874461.04847
      1858.953  
  22217616.285   116754359.16848     -2688.031    22217615.873    90977421.00149
     -2094.570  
  21612615.811   113575062.72048     -2488.594    21612615.322    88500047.88449
     -1939.168  
  23749144.691   124802590.69846       -14.835    23749148.323    97248791.05245
       -11.559  
  24959871.964   131165009.99105     -1449.840           0.000           0.0000 
         0.000  
  23887102.353   125527572.85847      3246.293    23887103.126    97813705.03044
      2529.581  
  20492015.204   107686268.62849       482.605    20492014.461    83911375.46648
       376.054  
  23190254.195   123617097.36006      2127.387    23190257.012    96146680.63003
      1654.624  
  22641107.436   121242114.82406     -3788.043    22641114.982    94299442.39207
     -2946.257  
  20844836.722   111232040.66907      2894.839           0.000           0.0000 
         0.000  
  19377851.795   103585726.19709     -1252.578    19377855.525    80566693.32008
      -974.230  
  20263088.335   108355844.36406     -2828.569    20263093.774    84276785.95808
     -2200.004  
  20019387.561   107127783.16909      1907.465    20019390.800    83321627.60908
      1483.577  
 20 10 02 04 55 30.0000000  0 15G15G 2G18G29G 5G30G 7G20G13R14R 4R 6
                                R 5R20R21
  20922584.014   109948921.96549      2436.793    20922584.189    85674485.83849
      1898.800  
  24280476.881   127594782.29545     -3264.953    24280478.316    99424503.73942
     -2544.120  
  21457571.878   112760296.00848      2383.758    21457571.268    87865169.74247
      1857.473  
  22220174.936   116767805.09448     -2690.395    22220174.438    90987898.33549
     -2096.414  
  21614984.219   113587508.59949     -2489.847    21614983.717    88509745.96849
     -1940.144  
  23749160.053   124802670.27047       -17.620    23749163.600    97248853.10945
       -13.722  
  24961252.442   131172264.79845     -1452.741    24961249.242   102212148.84552
     -1132.008  
  23884013.864   125511342.55047      3245.913    23884014.447    97801058.09543
      2529.289  
  20491557.534   107683863.77549       479.042    20491556.861    83909501.54648
       373.277  
  23188260.453   123606468.03106      2124.249    23188262.175    96138413.39303
      1652.194  
  22644644.342   121261054.45305     -3788.141    22644651.787    94314173.18607
     -2946.233  
  20842125.057   111217570.67307      2892.848           0.000           0.0000 
         0.000  
  19379024.558   103591995.31609     -1255.449    19379028.323    80571569.30008
      -976.464  
  20265734.650   108369995.43306     -2832.097    20265740.222    84287792.34508
     -2202.742  
  20017606.800   107118254.70709      1903.797    20017610.203    83314216.58608
      1480.727  
 20 10 02 04 55 35.0000000  0 15G15G 2G18G29G 5G30G 7G20G13R14R 4R 6
                                R 5R20R21
  20920266.228   109936741.53849      2436.593    20920266.401    85664994.60449
      1898.645  
  24283583.168   127611105.13245     -3263.456    24283584.298    99437222.77744
     -2542.960  
  21455303.939   112748378.46949      2384.487    21455303.566    87855883.35247
      1858.043  
  22222735.087   116781259.80848     -2690.238    22222734.715    90998382.52449
     -2096.293  
  21617353.378   113599958.17648     -2488.617    21617352.852    88519446.93049
     -1939.188  
  23749177.718   124802762.10247       -18.012    23749180.962    97248924.67245
       -14.035  
  24962634.388   131179529.09644     -1452.242    24962633.998   102217809.34544
     -1131.613  
  23880925.295   125495111.20047      3247.934    23880925.784    97788410.28743
      2530.854  
  20491102.531   107681472.90249       478.305    20491101.910    83907638.53348
       372.702  
  23186269.087   123595852.42806      2123.659    23186270.245    96130156.80403
      1651.729  
  22648181.169   121279993.24704     -3786.289    22648188.350    94328903.31607
     -2944.894  
  20839414.869   111203108.43507      2893.284           0.000           0.0000 
         0.000  
  19380199.364   103598275.60809     -1255.577    19380203.006    80576453.96108
      -976.565  
  20268383.569   108384160.51506     -2832.862    20268389.007    84298809.63108
     -2203.339  
  20015829.207   107108742.41508      1902.464    20015832.724    83306818.13808
      1479.729  
 20 10 02 04 55 40.0000000  0 15G15G 2G18G29G 5G30G 7G20G13R14R 4R 6
                                R 5R20R21
  20917949.560   109924567.87049      2432.445    20917949.793    85655508.63649
      1895.409  
  24286688.808   127627425.84945     -3265.359    24286690.225    99449940.21944
     -2544.441  
  21453036.622   112736463.88649      2380.979    21453036.313    87846599.26947
      1855.304  
  22225296.416   116794719.87148     -2694.117    22225296.017    91008870.87749
     -2099.315  
  21619722.332   113612407.98848     -2491.562    21619722.176    88529148.07549
     -1941.480  
  23749196.841   124802862.80947       -22.750    23749200.264    97249003.11745
       -17.730  
  24964017.055   131186799.81404     -1457.051           0.000           0.0000 
         0.000  
  23877835.780   125478875.34547      3246.124    23877835.951    97775758.97043
      2529.449  
  20490649.613   107679092.61549       473.391    20490648.880    83905783.76448
       368.875  
  23184279.873   123585247.07605      2118.479    23184280.418    96121908.24402
      1647.706  
  22651717.054   121298927.72205     -3787.909    22651724.197    94343630.14807
     -2946.156  
  20836705.376   111188650.47107      2889.487           0.000           0.0000 
         0.000  
  19381375.649   103604563.62209     -1259.965    19381379.383    80581344.63408
      -979.976  
  20271034.536   108398336.05006     -2837.578    20271039.963    84309835.04508
     -2207.007  
  20014053.899   107099242.82208      1896.969    20014057.376    83299429.55908
      1475.418  
 20 10 02 04 55 45.0000000  0 15G15G 2G18G29G 5G30G 7G20G13R14R 4R 6
                                R 5R20R21
  20915636.902   109912414.51949      2429.336    20915637.102    85646038.48849
      1892.984  
  24289796.849   127643758.12445     -3266.878    24289798.125    99462666.64245
     -2545.629  
  21450772.552   112724565.86849      2378.637    21450772.174    87837328.08847
      1853.483  
  22227861.345   116808198.85448     -2697.047    22227860.993    91019373.99249
     -2101.593  
  21622094.130   113624871.65248     -2493.374    21622093.938    88538860.01149
     -1942.895  
  23749220.450   124802985.91147       -26.015    23749223.592    97249099.04445
       -20.276  
  24965404.297   131194090.28904     -1459.680           0.000           0.0000 
         0.000  
  23874747.976   125462648.66947      3245.034    23874747.768    97763114.78443
      2528.594  
  20490201.279   107676736.57349       469.355    20490200.492    83903947.88048
       365.727  
  23182294.748   123574665.84105      2114.612    23182295.004    96113678.35502
      1644.695  
  22655254.749   121317871.91605     -3789.344    22655261.834    94358364.50007
     -2947.269  
  20833999.302   111174210.49407      2887.026           0.000           0.0000 
         0.000  
  19382556.084   103610873.25108     -1263.534    19382559.852    80586252.13008
      -982.749  
