     2.11           OBSERVATION DATA    G                   RINEX VERSION / TYPE
LEICA GEO OFFICE 8.4                    4-10-20 09:12       PGM / RUN BY / DATE
                                                            OBSERVER / AGENCY
mxb2                                                        MARKER NAME
mxb2                                                        MARKER NUMBER
457569              LEICA GX1220        2.14                REC # / TYPE / VERS
                    LEIAX1202                               ANT # / TYPE
 -1232070.3243  3822163.2518  4939712.4265                  APPROX POSITION XYZ
        1.2960        0.0000        0.0000                  ANTENNA: DELTA H/E/N
L1PhaOff:   0.0648  L2PhaOff:   0.0622                      COMMENT
     1     1                                                WAVELENGTH FACT L1/2
     6    C1    L1    D1    P2    L2    D2                  # / TYPES OF OBSERV
  2020    10     3     8    18   35.0000000     GPS         TIME OF FIRST OBS
  2020    10     3     9    52    5.0000000     GPS         TIME OF LAST OBS
    18                                                      LEAP SECONDS
    13                                                      # OF SATELLITES
          C1    L1    D1    P2    L2    D2                  COMMENT
   G 1   501   501   501   500   500   500                  PRN / # OF OBS
   G 2     0     0     0     0     0     0                  PRN / # OF OBS
   G 3     0     0     0     0     0     0                  PRN / # OF OBS
   G 4     0     0     0     0     0     0                  PRN / # OF OBS
   G 5     0     0     0     0     0     0                  PRN / # OF OBS
   G 6     0     0     0     0     0     0                  PRN / # OF OBS
   G 7     0     0     0     0     0     0                  PRN / # OF OBS
   G 8     0     0     0     0     0     0                  PRN / # OF OBS
   G 9     0     0     0     0     0     0                  PRN / # OF OBS
   G10  1123  1123  1123  1123  1123  1123                  PRN / # OF OBS
   G11  1036  1036  1036  1036  1036  1036                  PRN / # OF OBS
   G12  1023  1023  1023  1022  1022  1022                  PRN / # OF OBS
   G13     0     0     0     0     0     0                  PRN / # OF OBS
   G14     0     0     0     0     0     0                  PRN / # OF OBS
   G15   476   476   476   476   476   476                  PRN / # OF OBS
   G16     0     0     0     0     0     0                  PRN / # OF OBS
   G17     0     0     0     0     0     0                  PRN / # OF OBS
   G18   217   217   217   217   217   217                  PRN / # OF OBS
   G19     0     0     0     0     0     0                  PRN / # OF OBS
   G20  1123  1123  1123  1123  1123  1123                  PRN / # OF OBS
   G21  1123  1123  1123  1123  1123  1123                  PRN / # OF OBS
   G22     0     0     0     0     0     0                  PRN / # OF OBS
   G23  1123  1123  1123  1123  1123  1123                  PRN / # OF OBS
   G24  1123  1123  1123  1123  1123  1123                  PRN / # OF OBS
   G25   605   605   605   605   605   605                  PRN / # OF OBS
   G26     0     0     0     0     0     0                  PRN / # OF OBS
   G27     0     0     0     0     0     0                  PRN / # OF OBS
   G28     0     0     0     0     0     0                  PRN / # OF OBS
   G29     0     0     0     0     0     0                  PRN / # OF OBS
   G30     0     0     0     0     0     0                  PRN / # OF OBS
   G31   382   382   382   381   381   381                  PRN / # OF OBS
   G32  1123  1123  1123  1123  1123  1123                  PRN / # OF OBS
                                                            END OF HEADER
 20 10 03 08 18 35.0000000  0  8G15G21G18G24G32G20G23G10
  23287389.855   122376063.43848     -3328.090    23287390.141    95357975.73846
     -2593.320  
  23471485.165   123343515.04047      1370.976    23471484.352    96111812.28646
      1068.288  
  23802515.602   125083062.38747     -3785.145    23802517.340    97467331.18945
     -2949.464  
  20657062.309   108553628.51549      -860.633    20657064.804    84587269.65249
      -670.624  
  22798833.999   119808705.52348      2864.097    22798836.350    93357449.50949
      2231.761  
  20245719.493   106392000.86448     -1338.570    20245718.801    82902874.88248
     -1043.047  
  20316562.202   106764290.81648      -983.695    20316562.554    83192975.33048
      -766.519  
  20683258.799   108691285.46949      1262.843    20683260.702    84694530.19649
       984.031  
 20 10 03 08 18 40.0000000  0  8G15G21G18G24G32G20G23G10
  23290556.361   122392703.85347     -3328.156    23290556.813    95370942.29246
     -2593.370  
  23470181.638   123336665.40147      1368.776    23470180.780    96106474.91145
      1066.577  
  23806117.154   125101988.98247     -3785.355    23806118.987    97482079.17945
     -2949.629  
  20657882.654   108557939.33549      -863.750    20657885.102    84590628.73349
      -673.054  
  22796109.352   119794387.59648      2863.069    22796111.679    93346292.68549
      2230.960  
  20246994.253   106398699.36748     -1341.233    20246993.561    82908094.49648
     -1045.121  
  20317499.391   106769215.27749      -986.359    20317499.593    83196812.56748
      -768.593  
  20682058.246   108684976.64849      1260.659    20682060.173    84689614.23149
       982.328  
 20 10 03 08 18 45.0000000  0  8G15G21G18G24G32G20G23G10
  23293723.681   122409347.51347     -3329.175    23293723.986    95383911.39646
     -2594.168  
  23468880.584   123329828.09447      1366.098    23468879.889    96101147.13346
      1064.488  
  23809719.398   125120918.77646     -3785.969    23809721.184    97496829.66745
     -2950.108  
  20658706.247   108562267.06348      -867.304    20658708.558    84594000.98849
      -675.824  
  22793385.702   119780074.74948      2862.074    22793387.998    93335139.82549
      2230.183  
  20248271.510   106405411.86848     -1343.918    20248271.022    82913325.01748
     -1047.211  
  20318439.075   106774153.16349      -989.065    20318439.301    83200660.26648
      -770.703  
  20680859.976   108678679.82249      1258.160    20680861.827    84684707.61249
       980.382  
 20 10 03 08 18 50.0000000  0  8G15G21G18G24G32G20G23G10
  23296891.300   122425993.96348     -3329.651    23296891.650    95396882.63946
     -2594.538  
  23467581.655   123323002.73947      1363.839    23467580.931    96095828.68045
      1062.729  
  23813322.223   125139851.40747     -3787.105    23813324.023    97511582.34745
     -2950.996  
  20659532.882   108566611.24749      -870.617    20659535.435    84597386.07149
      -678.406  
  22790662.976   119765766.60248      2861.051    22790665.265    93323990.62549
      2229.387  
  20249551.605   106412138.03248     -1346.780    20249550.915    82918566.18148
     -1049.440  
  20319381.225   106779104.10049      -991.719    20319381.464    83204518.14048
      -772.770  
  20679663.991   108672394.59549      1255.762    20679665.926    84679810.03549
       978.511  
 20 10 03 08 18 55.0000000  0  8G15G21G18G24G32G20G23G10
  23300059.698   122442643.72647     -3330.297    23300060.037    95409856.46746
     -2595.039  
  23466285.182   123316189.79047      1361.586    23466284.392    96090519.88146
      1060.973  
  23816925.679   125158787.22646     -3787.590    23816927.373    97526337.52446
     -2951.370  
  20660362.739   108570972.42448      -873.862    20660365.255    84600784.38749
      -680.937  
  22787941.204   119751463.62748      2860.137    22787943.530    93312845.44949
      2228.675  
  20250834.183   106418878.30648     -1349.297    20250833.488    82923818.32648
     -1051.401  
  20320325.831   106784068.57048      -994.289    20320326.065    83208386.55848
      -774.772  
  20678470.290   108666121.43749      1253.464    20678471.985    84674921.85649
       976.723  
 20 10 03 08 19  0.0000000  0  8G15G21G18G24G32G20G23G10
  23303228.865   122459297.02947     -3331.222    23303229.174    95422833.05246
     -2595.761  
  23464991.184   123309389.53547      1358.602    23464990.307    96085220.97845
      1058.648  
  23820529.654   125177726.52546     -3787.815    23820531.520    97541095.40346
     -2951.547  
  20661195.855   108575350.76249      -877.477    20661198.486    84604196.07749
      -683.749  
  22785220.565   119737166.03848      2858.977    22785222.764    93301704.49049
      2227.769  
  20252119.433   106425632.93548     -1352.496    20252118.777    82929081.67948
     -1053.894  
  20321273.124   106789046.78249      -997.223    20321273.363    83212265.67948
      -777.058  
  20677278.865   108659860.60949      1250.875    20677280.734    84670043.29049
       974.702  
 20 10 03 08 19  5.0000000  0  8G15G21G18G24G32G20G23G10
  23306398.603   122475954.02147     -3331.582    23306398.795    95435812.52646
     -2596.043  
  23463699.654   123302602.09347      1356.585    23463698.895    96079932.07945
      1057.077  
  23824134.379   125196669.48146     -3788.664    23824136.265    97555856.13646
     -2952.206  
  20662032.377   108579746.33749      -880.703    20662034.898    84607621.20349
      -686.266  
  22782500.878   119722874.08348      2858.042    22782502.978    93290567.89349
      2227.042  
  20253407.725   106432402.10848     -1355.167    20253407.006    82934356.35648
     -1055.976  
  20322223.055   106794038.92148      -999.715    20322223.343    83216155.65848
      -779.000  
  20676089.913   108653612.28149      1248.516    20676091.680    84665174.46849
       972.867  
 20 10 03 08 19 10.0000000  0  8G15G21G18G24G32G20G23G10
  23309568.689   122492613.46947     -3332.120    23309568.913    95448793.91446
     -2596.460  
  23462410.231   123295826.25347      1353.832    23462409.478    96074652.19746
      1054.929  
  23827739.498   125215614.82446     -3789.492    23827741.218    97570618.72245
     -2952.858  
  20662871.755   108584157.95748      -883.972    20662874.227    84611058.83449
      -688.812  
  22779781.960   119708586.47848      2857.031    22779784.178    93279434.70549
      2226.254  
  20254698.301   106439184.57048     -1357.944    20254697.642    82939641.39048
     -1058.141  
  20323175.468   106799043.76448     -1002.249    20323175.749    83220055.53948
      -780.977  
  20674903.053   108647375.22749      1246.331    20674904.824    84660314.43049
       971.163  
 20 10 03 08 19 15.0000000  0  8G15G21G18G24G32G20G23G10
  23312739.546   122509276.71447     -3332.746    23312739.974    95461778.25246
     -2596.949  
  23461123.303   123289063.27947      1351.683    23461122.468    96069382.35345
      1053.257  
  23831345.387   125234563.77346     -3790.108    23831347.157    97585384.12846
     -2953.336  
  20663714.542   108588586.92248      -887.511    20663716.986    84614509.97749
      -691.570  
  22777064.176   119694304.49148      2856.077    22777066.362    93268305.88849
      2225.511  
  20255991.744   106445981.56448     -1360.815    20255990.959    82944937.74548
     -1060.378  
  20324130.549   106804062.55948     -1005.030    20324130.854    83223966.28648
      -783.144  
  20673718.473   108641150.71649      1243.707    20673720.408    84655464.16049
       969.120  
 20 10 03 08 19 20.0000000  0  8G15G21G18G24G32G20G23G10
  23315910.945   122525942.09247     -3333.433    23315911.298    95474764.26346
     -2597.484  
  23459838.433   123282311.73947      1349.007    23459837.746    96064121.41445
      1051.172  
  23834951.625   125253514.83646     -3790.312    23834953.415    97600151.18346
     -2953.491  
  20664560.416   108593031.55448      -890.629    20664562.924    84617973.32749
      -693.999  
  22774347.162   119680026.60948      2855.144    22774349.502    93257180.27049
      2224.784  
  20257287.653   106452791.58348     -1363.453    20257287.015    82950244.25148
     -1062.433  
  20325087.916   106809093.77848     -1007.679    20325088.149    83227886.71548
      -785.206  
  20672536.177   108634937.24149      1241.421    20672537.946    84650622.49349
       967.339  
 20 10 03 08 19 25.0000000  0  8G15G21G18G24G32G20G23G10
  23319082.970   122542611.53747     -3334.211    23319083.362    95487753.42746
     -2598.090  
  23458556.233   123275573.48247      1346.348    23458555.412    96058870.81346
      1049.097  
  23838558.627   125272469.91946     -3791.272    23838560.473    97614921.35945
     -2954.246  
  20665409.529   108597493.95248      -894.198    20665412.021    84621450.51749
      -696.781  
  22771631.304   119665754.77348      2853.758    22771633.640    93246059.36349
      2223.703  
  20258586.404   106459616.56548     -1366.492    20258585.742    82955562.41448
     -1064.800  
  20326048.136   106814139.35848     -1010.500    20326048.390    83231818.33548
      -787.405  
  20671356.169   108628736.72849      1238.788    20671357.928    84645790.92049
       965.285  
 20 10 03 08 19 30.0000000  0  8G15G21G18G24G32G20G23G10
  23322255.715   122559284.51947     -3335.102    23322256.120    95500745.37446
     -2598.785  
  23457276.298   123268847.97547      1343.886    23457275.715    96053630.16846
      1047.180  
  23842166.421   125291428.47346     -3792.328    23842168.159    97629694.26145
     -2955.062  
  20666262.048   108601973.62748      -897.805    20666264.552    84624941.17749
      -699.589  
  22768916.575   119651488.43548      2852.664    22768918.740    93234942.73849
      2222.852  
  20259887.830   106466455.95048     -1369.340    20259887.150    82960891.80548
     -1067.019  
  20327010.822   106819198.74448     -1013.218    20327011.075    83235760.71548
      -789.523  
  20670178.623   108622548.64849      1236.363    20670180.590    84640969.04549
       963.398  
 20 10 03 08 19 35.0000000  0  8G15G21G18G24G32G20G23G10
  23325429.066   122575960.34347     -3335.507    23325429.405    95513739.50846
     -2599.102  
  23455998.902   123262134.52447      1341.531    23455997.974    96048398.90645
      1045.348  
  23845774.519   125310389.77746     -3792.796    23845776.357    97644469.29045
     -2955.429  
  20667117.620   108606469.69048      -900.800    20667120.010    84628444.60449
      -701.926  
  22766202.613   119637226.90348      2851.815    22766204.809    93223829.86649
      2222.190  
  20261192.140   106473309.01648     -1371.870    20261191.245    82966231.85648
     -1068.991  
  20327976.178   106824271.25748     -1015.726    20327976.433    83239713.32048
      -791.477  
  20669003.362   108616372.29649      1234.194    20669005.201    84636156.30249
       961.706  
 20 10 03 08 19 40.0000000  0  8G15G21G18G24G32G20G23G10
  23328602.803   122592638.91047     -3335.874    23328603.164    95526735.79946
     -2599.387  
  23454723.732   123255433.08647      1339.074    23454723.000    96043177.00945
      1043.430  
  23849383.273   125329353.75546     -3793.070    23849384.980    97659246.40445
     -2955.640  
  20667976.429   108610982.20049      -903.983    20667978.636    84631960.84749
      -704.405  
  22763489.774   119622970.09048      2851.176    22763491.875    93212720.66549
      2221.691  
  20262498.720   106480175.70748     -1374.586    20262498.015    82971582.52048
     -1071.108  
  20328943.827   106829356.81948     -1018.414    20328944.260    83243676.09548
      -793.574  
  20667830.190   108610207.64349      1231.792    20667832.014    84631352.67549
       959.835  
 20 10 03 08 19 45.0000000  0  8G15G21G18G24G32G20G23G10
  23331777.291   122609320.20747     -3336.792    23331777.665    95539734.19746
     -2600.102  
  23453450.657   123248743.56147      1336.464    23453449.928    96037964.39645
      1041.397  
  23852992.601   125348320.24346     -3793.941    23852994.203    97674025.47845
     -2956.320  
  20668838.085   108615510.98149      -907.530    20668840.443    84635489.76949
      -707.171  
  22760777.546   119608717.95148      2849.640    22760779.913    93201615.10449
      2220.495  
  20263807.952   106487055.92048     -1377.621    20263807.238    82976943.72648
     -1073.472  
  20329914.143   106834455.33148     -1021.226    20329914.269    83247648.96448
      -795.765  
  20666659.315   108604054.56349      1229.253    20666661.282    84626558.06749
       957.855  
 20 10 03 08 19 50.0000000  0  8G15G21G18G24G32G20G23G10
  23334952.353   122626005.71047     -3337.015    23334952.657    95552735.88346
     -2600.272  
  23452180.266   123242067.54947      1334.214    23452179.524    96032762.30545
      1039.645  
  23856602.438   125367290.90746     -3794.211    23856604.203    97688807.79346
     -2956.534  
  20669703.350   108620057.57549      -910.875    20669705.677    84639032.57149
      -709.776  
  22758066.802   119594472.05548      2848.831    22758068.912    93190514.41349
      2219.867  
  20265120.226   106493951.25048     -1380.289    20265119.361    82982316.70948
     -1075.554  
  20330887.128   106839568.37349     -1023.835    20330887.454    83251633.14948
      -797.796  
  20665490.897   108597914.67249      1226.976    20665492.725    84621773.73849
       956.082  
 20 10 03 08 19 55.0000000  0  8G15G21G18G24G32G20G23G10
  23338128.148   122642694.43847     -3338.289    23338128.629    95565740.08246
     -2601.265  
  23450912.322   123235404.05147      1331.508    23450911.296    96027569.96745
      1037.534  
  23860213.016   125386264.65446     -3795.284    23860214.821    97703592.54445
     -2957.367  
  20670571.842   108624621.09149      -914.438    20670574.070    84642588.55849
      -712.550  
  22755356.827   119580231.34848      2847.508    22755358.905    93179417.76449
      2218.836  
  20266434.975   106500860.64748     -1383.370    20266434.213    82987700.65448
     -1077.952  
  20331862.589   106844694.92349     -1026.641    20331862.836    83255627.86548
      -799.983  
  20664324.787   108591786.93949      1224.151    20664326.633    84616998.88249
       953.882  
 20 10 03 08 20  0.0000000  0  8G15G21G18G24G32G20G23G10
  23341304.355   122659385.89247     -3338.546    23341304.808    95578746.40846
     -2601.468  
  23449646.490   123228752.56047      1329.276    23449645.607    96022386.99446
      1035.797  
  23863824.191   125405241.00946     -3795.749    23863825.952    97718379.27045
     -2957.734  
  20671443.201   108629200.92449      -917.418    20671445.652    84646157.26149
      -714.874  
  22752647.802   119565995.42248      2846.676    22752649.868    93168324.83449
      2218.187  
  20267752.378   106507783.64548     -1385.753    20267751.753    82993095.19848
     -1079.812  
  20332840.721   106849834.51149     -1029.082    20332840.905    83259632.73748
      -801.887  
  20663160.952   108585670.91549      1222.229    20663162.968    84612233.14749
       952.382  
 20 10 03 08 20  5.0000000  0  8G15G21G18G24G32G20G23G10
  23344481.291   122676080.33547     -3339.164    23344481.737    95591755.06046
     -2601.948  
  23448383.093   123222113.36447      1326.668    23448382.210    96017213.59445
      1033.766  
  23867435.822   125424220.22446     -3795.961    23867437.652    97733168.26545
     -2957.895  
  20672317.992   108633797.51649      -920.926    20672320.401    84649739.02249
      -717.609  
  22749939.719   119551764.47548      2845.729    22749941.827    93157235.79549
      2217.448  
  20269072.468   106514720.54648     -1388.766    20269071.733    82998500.57548
     -1082.160  
  20333821.294   106854987.39149     -1031.827    20333821.412    83263647.96948
      -804.023  
  20661999.394   108579566.85549      1219.633    20662001.252    84607476.73949
       950.358  
 20 10 03 08 20 10.0000000  0  8G15G21G18G24G32G20G23G10
  23347658.804   122692778.30947     -3340.059    23347659.185    95604766.46046
     -2602.644  
  23447122.218   123215487.01747      1323.746    23447121.364    96012050.20446
      1031.488  
  23871047.986   125443202.77446     -3796.965    23871049.837    97747959.84246
     -2958.675  
  20673196.034   108638411.21849      -924.461    20673198.336    84653334.11349
      -720.363  
  22747232.754   119537539.09248      2844.340    22747234.979    93146151.08249
      2216.367  
  20270395.205   106521671.82548     -1391.723    20270394.615    83003917.15048
     -1084.460  
  20334804.540   106860154.10448     -1034.776    20334804.604    83267673.97748
      -806.324  
  20660840.317   108573475.30049      1216.977    20660842.227    84602730.07049
       948.289  
 20 10 03 08 20 15.0000000  0  8G15G21G18G24G32G20G23G10
  23350836.876   122709479.28347     -3340.073    23350837.344    95617780.20646
     -2602.659  
  23445863.427   123208872.96247      1321.690    23445862.723    96006896.40645
      1029.886  
  23874660.952   125462188.19546     -3797.098    23874662.659    97762753.67945
     -2958.780  
  20674077.097   108643041.39449      -927.526    20674079.446    84656942.04949
      -722.749  
  22744526.575   119523318.74348      2843.604    22744528.885    93135070.29749
      2215.792  
  20271720.592   106528636.97148     -1394.132    20271719.955    83009344.53948
     -1086.340  
  20335790.267   106865334.10148     -1036.996    20335790.485    83271710.33648
      -808.051  
  20659683.325   108567395.73749      1214.897    20659685.157    84597992.75049
       946.671  
 20 10 03 08 20 20.0000000  0  8G15G21G18G24G32G20G23G10
  23354015.354   122726182.92847     -3341.011    23354015.995    95630796.03546
     -2603.391  
  23444607.119   123202270.92747      1319.262    23444606.245    96001751.96245
      1027.991  
  23878274.254   125481176.13346     -3797.594    23878275.984    97777549.45745
     -2959.168  
  20674961.203   108647687.81049      -930.922    20674963.491    84660562.63049
      -725.397  
  22741821.555   119509103.11148      2842.644    22741823.771    93123993.18549
      2215.042  
  20273048.688   106535615.69348     -1396.969    20273047.992    83014782.50348
     -1088.550  
  20336778.470   106870527.11548     -1039.909    20336778.553    83275756.84148
      -810.323  
  20658528.618   108561327.86349      1212.413    20658530.533    84593264.53749
       944.734  
 20 10 03 08 20 25.0000000  0  8G15G21G18G24G32G20G23G10
  23357194.604   122742889.40447     -3341.687    23357195.106    95643814.05546
     -2603.913  
  23443353.266   123195681.01147      1316.796    23443352.232    95996616.96045
      1026.074  
  23881887.960   125500166.72246     -3798.722    23881889.835    97792347.32245
     -2960.046  
  20675848.551   108652350.66449      -934.477    20675850.954    84664196.01849
      -728.167  
  22739117.268   119494892.36148      2841.305    22739119.389    93112919.87949
      2213.999  
  20274379.403   106542608.11448     -1400.022    20274378.702    83020231.13548
     -1090.929  
  20337769.152   106875733.24648     -1042.745    20337769.314    83279813.56348
      -812.531  
  20657376.198   108555271.82849      1209.804    20657378.092    84588545.54749
       942.702  
 20 10 03 08 20 30.0000000  0  8G15G21G18G24G32G20G23G10
  23360374.396   122759599.85447     -3342.266    23360374.954    95656835.18946
     -2604.366  
  23442101.687   123189104.41947      1314.309    23442100.925    95991492.34545
      1024.133  
  23885502.619   125519161.10446     -3799.065    23885504.440    97807148.12045
     -2960.316  
  20676739.325   108657031.12349      -937.729    20676741.602    84667843.13449
      -730.702  
  22736414.128   119480687.61048      2840.621    22736416.462    93101851.24949
      2213.469  
  20275712.786   106549615.40248     -1402.770    20275712.091    83025691.35748
     -1093.070  
  20338762.493   106880953.66248     -1045.305    20338762.772    83283881.41848
      -814.526  
  20656226.242   108549228.80049      1207.542    20656228.119    84583836.69649
       940.937  
 20 10 03 08 20 35.0000000  0  8G15G21G18G24G32G20G23G10
  23363554.766   122776312.77847     -3343.164    23363555.292    95669858.23646
     -2605.066  
  23440852.396   123182539.72647      1311.578    23440851.505    95986376.99446
      1022.003  
  23889117.464   125538157.80646     -3799.949    23889119.280    97821950.72246
     -2961.004  
  20677632.941   108661727.72749      -940.999    20677635.153    84671502.82649
      -733.249  
  22733711.953   119466487.49148      2839.390    22733714.269    93090786.22349
      2212.508  
  20277048.837   106556636.11848     -1405.512    20277048.180    83031162.04248
     -1095.207  
  20339758.288   106886186.94449     -1048.035    20339758.656    83287959.30148
      -816.652  
  20655078.576   108543197.36649      1205.031    20655080.323    84579136.87849
       938.980  
 20 10 03 08 20 40.0000000  0  8G15G21G18G24G32G20G23G10
  23366735.900   122793029.03347     -3343.773    23366736.158    95682883.88047
     -2605.539  
  23439605.598   123175987.72347      1309.159    23439604.839    95981271.54245
      1020.121  
  23892733.041   125557157.69546     -3800.238    23892734.752    97836755.82045
     -2961.229  
  20678529.975   108666441.36549      -944.477    20678532.136    84675175.79249
      -735.957  
  22731010.737   119452292.78748      2838.425    22731013.055    93079725.42249
      2211.758  
  20278387.574   106563671.04348     -1408.438    20278386.706    83036643.80248
     -1097.488  
  20340756.750   106891433.89849     -1050.753    20340756.987    83292047.83248
      -818.772  
  20653933.201   108537178.31849      1202.526    20653934.982    84574446.71149
       937.030  
 20 10 03 08 20 45.0000000  0  8G15G21G18G24G32G20G23G10
  23369917.406   122809748.52347     -3344.444    23369917.960    95695912.04746
     -2606.066  
  23438361.285   123169448.34647      1306.602    23438360.353    95976175.92445
      1018.129  
  23896349.150   125576160.63446     -3801.219    23896350.956    97851563.28945
     -2961.992  
  20679430.068   108671171.75649      -947.976    20679432.292    84678861.80949
      -738.688  
  22728310.643   119438103.41548      2837.229    22728312.816    93068668.77049
      2210.824  
  20279728.966   106570720.07448     -1411.460    20279728.166    83042136.54548
     -1099.844  
  20341757.897   106896694.42949     -1053.688    20341758.009    83296146.94348
      -821.059  
  20652790.110   108531171.58349      1199.996    20652792.083    84569766.13949
       935.059  
 20 10 03 08 20 50.0000000  0  8G15G21G18G24G32G20G23G10
  23373099.495   122826470.91947     -3344.715    23373099.991    95708942.49546
     -2606.272  
  23437119.253   123162921.23947      1304.211    23437118.280    95971089.87346
      1016.266  
  23899965.894   125595166.15846     -3801.124    23899967.450    97866372.79045
     -2961.918  
  20680333.403   108675918.53449      -950.836    20680335.628    84682560.60149
      -740.914  
  22725611.332   119423918.99848      2836.483    22725613.561    93057615.98849
      2210.245  
  20281072.815   106577782.85748     -1413.867    20281072.315    83047640.01448
     -1101.718  
  20342761.509   106901968.16649     -1056.031    20342761.714    83300256.35448
      -822.883  
  20651649.288   108525176.80849      1197.831    20651651.133    84565094.88749
       933.370  
 20 10 03 08 20 55.0000000  0  8G15G21G18G24G32G20G23G10
  23376282.909   122843199.21647     -3345.397    23376283.293    95721977.52246
     -2606.808  
  23435880.081   123156409.46947      1301.351    23435879.140    95966015.77245
      1014.034  
  23903583.567   125614177.44146     -3802.101    23903585.196    97881186.76045
     -2962.680  
  20681240.333   108680684.88949      -954.609    20681242.613    84686274.64549
      -743.855  
  22722913.728   119409742.61948      2835.261    22722916.009    93046569.46449
      2209.293  
  20282420.106   106584862.48148     -1416.949    20282419.384    83053156.60148
     -1104.120  
  20343768.149   106907258.15849     -1058.987    20343768.349    83304378.42148
      -825.187  
  20650511.531   108519197.04049      1195.144    20650513.358    84560435.32849
       931.277  
 20 10 03 08 21  0.0000000  0  8G15G21G18G24G32G20G23G10
  23379466.124   122859927.31447     -3345.796    23379466.589    95735012.39946
     -2607.116  
  23434642.602   123149906.87947      1299.496    23434641.713    95960948.80846
      1012.589  
  23907201.268   125633188.27546     -3802.098    23907202.906    97896000.39545
     -2962.676  
  20682149.941   108685464.66449      -957.331    20682152.296    84689999.14649
      -745.976  
  22720216.504   119395568.14548      2834.641    22720218.705    93035524.42349
      2208.809  
  20283769.293   106591952.78948     -1419.214    20283768.655    83058681.51648
     -1105.886  
  20344776.707   106912558.28748     -1061.015    20344776.930    83308508.39148
      -826.769  
  20649375.285   108513226.18449      1193.113    20649377.035    84555782.71449
       929.695  
 20 10 03 08 21  5.0000000  0  8G15G21G18G24G32G20G23G10
  23382650.119   122876659.81647     -3346.651    23382650.569    95748050.70246
     -2607.785  
  23433407.983   123143418.19447      1296.586    23433406.988    95955892.69045
      1010.323  
  23910819.724   125652203.35746     -3803.761    23910821.404    97910817.32345
     -2963.977  
  20683062.974   108690262.56049      -961.113    20683065.152    84693737.76549
      -748.921  
  22717520.425   119381400.28148      2833.124    22717522.621    93024484.53549
      2207.625  
  20285121.516   106599058.48648     -1422.520    20285120.877    83064218.41948
     -1108.460  
  20345788.105   106917873.25549     -1064.160    20345788.197    83312649.92248
      -829.219  
  20648241.524   108507268.91649      1190.444    20648243.412    84551140.68749
       927.616  
 20 10 03 08 21 10.0000000  0  9G11G15G21G18G24G32G20G23G10
  24339517.607   127905037.49855      1684.792    24339520.659    99666258.82455
      1312.823  
  23385834.503   122893393.74347     -3347.188    23385835.037    95761090.12846
     -2608.202  
  23432175.239   123136940.36047      1294.297    23432174.498    95950845.03545
      1008.538  
  23914438.303   125671219.62046     -3803.136    23914440.260    97925635.18345
     -2963.488  
  20683978.871   108695075.47149      -964.141    20683981.172    84697488.08749
      -751.280  
  22714824.901   119367235.98748      2832.500    22714827.277    93013447.42949
      2207.141  
  20286476.020   106606176.51748     -1424.945    20286475.263    83069764.93648
     -1110.351  
  20346801.801   106923200.01349     -1066.733    20346801.907    83316800.64348
      -831.227  
  20647110.033   108501322.23349      1188.233    20647111.743    84546506.90849
       925.894  
 20 10 03 08 21 15.0000000  0  9G11G15G21G18G24G32G20G23G10
  24337917.374   127896621.97046      1681.737    24337916.952    99659701.25944
      1310.440  
  23389019.464   122910130.23547     -3347.483    23389019.785    95774131.54746
     -2608.433  
  23430944.826   123130474.59047      1292.003    23430943.942    95945806.77145
      1006.754  
  23918057.494   125690238.22246     -3804.112    23918059.166    97940454.87445
     -2964.245  
  20684897.805   108699904.47449      -967.495    20684899.894    84701250.94549
      -753.895  
  22712130.510   119353076.39648      2831.363    22712132.660    93002413.98549
      2206.253  
  20287833.201   106613308.05048     -1427.629    20287832.354    83075321.96648
     -1112.441  
  20347817.769   106928539.71049     -1069.293    20347818.070    83320961.44348
      -833.219  
  20645980.633   108495387.26249      1185.879    20645982.515    84541882.25449
       924.059  
 20 10 03 08 21 20.0000000  0  9G11G15G21G18G24G32G20G23G10
  24336317.981   127888222.04245      1678.746    24336320.323    99653155.82845
      1308.105  
  23392204.980   122926870.26547     -3348.175    23392205.299    95787175.72346
     -2608.972  
  23429716.862   123124021.81847      1289.487    23429716.037    95940778.64346
      1004.793  
  23921677.218   125709260.12246     -3804.676    23921679.015    97955277.11345
     -2964.687  
  20685819.970   108704750.54649      -970.948    20685822.277    84705027.10649
      -756.585  
  22709437.091   119338922.51048      2830.519    22709439.267    92991384.98949
      2205.597  
  20289193.048   106620454.03548     -1430.413    20289192.366    83080890.26848
     -1114.613  
  20348836.611   106933893.32148     -1071.969    20348836.912    83325133.08948
      -835.304  
  20644853.708   108489465.01249      1183.250    20644855.481    84537267.51949
       922.011  
 20 10 03 08 21 25.0000000  0  9G11G15G21G18G24G32G20G23G10
  24334722.245   127879837.85845      1675.316    24334724.687    99646622.74544
      1305.438  
  23395391.034   122943613.71447     -3348.867    23395391.479    95800222.56646
     -2609.511  
  23428491.358   123117581.90647      1286.733    23428490.583    95935760.52245
      1002.648  
  23925297.567   125728285.18646     -3805.448    23925299.127    97970101.83546
     -2965.288  
  20686745.355   108709613.75649      -974.320    20686747.586    84708816.62349
      -759.215  
  22706744.809   119324774.19148      2829.238    22706747.093    92980360.33449
      2204.597  
  20290555.557   106627614.34948     -1433.391    20290554.829    83086469.73048
     -1116.929  
  20349857.918   106939260.70049     -1074.772    20349858.199    83329315.46248
      -837.488  
  20643729.048   108483555.32149      1180.788    20643730.897    84532662.56649
       920.093  
 20 10 03 08 21 30.0000000  0  9G11G15G21G18G24G32G20G23G10
  24333130.183   127871469.23345      1672.098    24333131.119    99640101.72644
      1302.930  
  23398577.878   122960360.38147     -3349.699    23398578.154    95813271.90546
     -2610.160  
  23427268.331   123111154.69647      1284.105    23427267.549    95930752.31046
      1000.598  
  23928918.476   125747313.15746     -3805.862    23928919.987    97984928.80745
     -2965.609  
  20687674.000   108714493.75949      -977.730    20687676.318    84712619.21849
      -761.870  
  22704053.460   119310631.27748      2828.077    22704055.665    92969339.88249
      2203.695  
  20291920.723   106634788.81348     -1436.305    20291920.213    83092060.22148
     -1119.202  
  20350881.897   106944641.68449     -1077.569    20350882.172    83333508.43148
      -839.668  
  20642606.878   108477658.05949      1178.121    20642608.746    84528067.29349
       918.011  
 20 10 03 08 21 35.0000000  0  9G11G15G21G18G24G32G20G23G10
  24331540.904   127863116.32845      1668.745    24331540.858    99633592.96944
      1300.320  
  23401765.281   122977110.61247     -3350.362    23401765.865    95826324.01846
     -2610.676  
  23426047.774   123104740.53347      1281.434    23426047.005    95925754.25846
       998.516  
  23932539.886   125766344.45646     -3806.418    23932541.629    97999758.38845
     -2966.043  
  20688605.869   108719390.85849      -981.078    20688608.228    84716435.13949
      -764.480  
  22701363.275   119296494.09948      2827.016    22701365.442    92958323.90049
      2202.866  
  20293288.751   106641977.75648     -1439.194    20293288.047    83097661.98948
     -1121.452  
  20351908.545   106950036.60349     -1080.316    20351908.838    83337712.26648
      -841.809  
  20641486.991   108471773.54449      1175.762    20641488.792    84523481.95849
       916.176  
 20 10 03 08 21 40.0000000  0  9G11G15G21G18G24G32G20G23G10
  24329954.410   127854780.06146      1664.195    24329955.036    99627097.23244
      1296.780  
  23404953.648   122993865.18847     -3352.878    23404954.024    95839379.52846
     -2612.637  
  23424829.898   123098340.24347      1277.484    23424829.102    95920767.02545
       995.438  
  23936162.135   125785379.84646     -3809.093    23936164.036    98014591.13146
     -2968.129  
  20689541.145   108724305.92349      -986.180    20689543.534    84720265.06149
      -768.453  
  22698674.212   119282363.51148      2824.097    22698676.689    92947313.06449
      2200.594  
  20294659.642   106649181.99448     -1443.746    20294659.059    83103275.68148
     -1124.999  
  20352938.024   106955446.30248     -1084.808    20352938.171    83341927.62048
      -845.309  
  20640369.776   108465902.63449      1171.417    20640371.778    84518907.22349
       912.789  
 20 10 03 08 21 45.0000000  0  9G11G15G21G18G24G32G20G23G10
  24328371.891   127846463.52445      1662.449    24328372.261    99620616.75045
      1295.406  
  23408143.388   123010627.22847     -3351.585    23408143.666    95852440.85846
     -2611.628  
  23423615.060   123091956.94047      1276.250    23423614.420    95915793.01345
       994.476  
  23939785.907   125804422.36246     -3807.445    23939787.696    98029429.44545
     -2966.844  
  20690480.624   108729242.16749      -987.968    20690482.765    84724111.49149
      -769.847  
  22695987.058   119268242.54548      2824.613    22695989.400    92936309.72049
      2200.996  
  20296034.151   106656404.58448     -1445.086    20296033.472    83108903.67248
     -1126.042  
  20353970.762   106960873.81149     -1085.960    20353970.936    83346156.84048
      -846.207  
  20639255.773   108460048.38349      1170.460    20639257.683    84514345.47249
       912.043  
 20 10 03 08 21 50.0000000  0  9G11G15G21G18G24G32G20G23G10
  24326790.970   127838155.19446      1660.628    24326791.199    99614142.75345
      1293.991  
  23411332.299   123027385.16047     -3351.684    23411332.579    95865498.98746
     -2611.702  
  23422401.561   123085579.05647      1274.688    23422400.690    95910823.24145
       993.261  
  23943408.735   125823460.51646     -3807.835    23943410.535    98044264.36545
     -2967.148  
  20691421.628   108734187.89449      -990.628    20691423.943    84727965.30249
      -771.921  
  22693299.526   119254119.72248      2824.339    22693301.864    92925304.92849
      2200.780  
  20297409.978   106663634.04548     -1446.979    20297409.353    83114537.01848
     -1127.519  
  20355004.810   106966307.64849     -1087.909    20355005.160    83350391.00148
      -847.726  
  20638142.741   108454199.29649      1168.784    20638144.556    84509787.74349
       910.738  
 20 10 03 08 21 55.0000000  0  9G11G15G21G18G24G32G20G23G10
  24325212.840   127829862.35045      1656.801    24325213.041    99607680.80244
      1291.012  
  23414521.829   123044146.18947     -3352.738    23414522.263    95878559.52447
     -2612.526  
  23421190.152   123079213.84247      1271.632    23421189.384    95905863.33345
       990.878  
  23947032.141   125842501.48846     -3808.828    23947033.831    98059101.46845
     -2967.921  
  20692366.045   108739150.27749      -994.522    20692368.299    84731832.09549
      -774.957  
  22690613.146   119240002.23048      2822.863    22690615.549    92914304.29149
      2199.629  
  20298788.288   106670877.54548     -1450.468    20298787.698    83120181.29648
     -1130.238  
  20356041.351   106971754.98549     -1091.159    20356041.586    83354635.68048
      -850.258  
  20637031.986   108448362.58249      1165.746    20637033.881    84505239.65549
       908.370  
 20 10 03 08 22  0.0000000  0  9G11G15G21G18G24G32G20G23G10
  24323637.632   127821585.29446      1653.573    24323637.990    99601231.16944
      1288.499  
  23417711.921   123060910.70947     -3353.132    23417712.444    95891622.78346
     -2612.831  
  23419981.432   123072861.78847      1269.266    23419980.554    95900913.68845
       989.034  
  23950656.069   125861545.67246     -3809.195    23950657.946    98073941.08345
     -2968.206  
  20693313.510   108744129.80049      -997.573    20693315.832    84735712.24349
      -777.332  
  22687927.706   119225890.49148      2822.055    22687930.214    92903308.13849
      2198.999  
  20300169.419   106678135.50248     -1452.851    20300168.719    83125836.84648
     -1132.093  
  20357080.723   106977216.26749     -1093.616    20357080.962    83358891.22048
      -852.171  
  20635923.709   108442538.64549      1163.652    20635925.646    84500701.52349
       906.738  
 20 10 03 08 22  5.0000000  0  9G11G15G21G18G24G32G20G23G10
  24322065.397   127813323.76745      1650.940    24322065.749    99594793.60444
      1286.445  
  23420902.785   123077678.34047     -3353.918    23420903.277    95904688.46146
     -2613.445  
  23418775.149   123066522.38347      1266.737    23418774.135    95895973.88645
       987.065  
  23954280.588   125880592.64646     -3809.309    23954282.288    98088782.87845
     -2968.297  
  20694264.398   108749126.03149     -1000.730    20694266.537    84739605.40749
      -779.793  
  22685243.414   119211784.12848      2820.742    22685245.855    92892316.17149
      2197.976  
  20301553.241   106685407.50748     -1455.675    20301552.656    83131503.33848
     -1134.297  
  20358122.600   106982691.05549     -1096.210    20358122.763    83363157.28148
      -854.195  
  20634817.907   108436727.11349      1161.184    20634819.862    84496173.05349
       904.816  
 20 10 03 08 22 10.0000000  0  9G11G15G21G18G24G32G20G23G10
  24320496.155   127805077.15745      1647.870    24320496.727    99588367.66245
      1284.050  
  23424093.983   123094448.57647     -3354.468    23424094.576    95917756.17146
     -2613.874  
  23417571.173   123060195.13147      1264.269    23417570.178    95891043.57145
       985.141  
  23957905.553   125899641.93546     -3810.309    23957907.267    98103626.46644
     -2969.073  
  20695218.154   108754138.49349     -1004.324    20695220.432    84743511.22749
      -782.593  
  22682559.898   119197682.62448      2819.762    22682562.224    92881327.99349
      2197.215  
  20302939.718   106692693.05248     -1458.526    20302939.072    83137180.38748
     -1136.520  
  20359166.739   106988178.88849     -1098.891    20359167.010    83367433.51848
      -856.280  
  20633714.203   108430927.48849      1158.523    20633716.025    84491653.87149
       902.742  
 20 10 03 08 22 15.0000000  0  9G11G15G21G18G24G32G20G23G10
  24318929.899   127796846.64846      1644.723    24318930.342    99581954.32644
      1281.602  
  23427285.947   123111222.46047     -3354.836    23427286.393    95930826.72046
     -2614.159  
  23416369.663   123053881.15547      1261.569    23416368.627    95886123.57645
       983.038  
  23961531.264   125918694.55146     -3810.565    23961532.901    98118472.64445
     -2969.277  
  20696175.340   108759168.19349     -1007.636    20696177.491    84747430.47549
      -785.175  
  22679877.680   119183587.06748      2818.688    22679880.061    92870344.45149
      2196.374  
  20304328.850   106699993.27148     -1461.387    20304328.142    83142868.86648
     -1138.745  
  20360213.728   106993680.81949     -1101.612    20360213.968    83371720.73248
      -858.401  
  20632612.972   108425140.85249      1156.194    20632614.865    84487144.80349
       900.930  
 20 10 03 08 22 20.0000000  0  9G11G15G21G18G24G32G20G23G10
  24317366.790   127788631.17245      1641.909    24317366.976    99575552.63546
      1279.405  
  23430478.489   123127999.10147     -3355.703    23430479.001    95943899.41846
     -2614.835  
  23415170.425   123047579.49247      1259.370    23415169.521    95881213.18846
       981.324  
  23965157.364   125937749.61546     -3810.972    23965158.974    98133320.74645
     -2969.594  
  20697135.547   108764214.17849     -1010.698    20697137.717    84751362.40849
      -787.563  
  22677196.238   119169496.52748      2817.730    22677198.637    92859364.81149
      2195.633  
  20305720.646   106707307.17648     -1464.034    20305720.167    83148568.00448
     -1140.808  
  20361263.189   106999195.92848     -1104.152    20361263.573    83376018.21848
      -860.383  
  20631514.210   108419366.28849      1153.871    20631516.154    84482645.14249
       899.116  
 20 10 03 08 22 25.0000000  0  9G11G15G21G18G24G32G20G23G10
  24315806.107   127780430.44445      1638.292    24315806.427    99569162.44845
      1276.590  
  23433671.211   123144777.96947     -3356.141    23433671.754    95956973.86146
     -2615.176  
  23413973.489   123041289.64547      1256.910    23413972.651    95876312.01845
       979.406  
  23968783.817   125956806.56846     -3811.707    23968785.512    98148170.31045
     -2970.164  
  20698098.618   108769275.99549     -1014.206    20698100.889    84755306.68749
      -790.293  
  22674515.739   119155410.50648      2816.680    22674518.188    92848388.69849
      2194.812  
  20307114.915   106714634.27048     -1466.945    20307114.368    83154277.43148
     -1143.078  
  20362315.134   107004723.72249     -1106.941    20362315.401    83380325.58948
      -862.555  
  20630417.546   108413603.31149      1151.293    20630419.405    84478154.51349
       897.108  
 20 10 03 08 22 30.0000000  0  9G11G15G21G18G24G32G20G23G10
  24314248.738   127772246.72646      1634.855    24314248.928    99562785.59343
      1273.913  
  23436865.069   123161561.36447     -3357.050    23436865.526    95970051.82646
     -2615.886  
  23412779.414   123035014.01847      1253.855    23412778.209    95871421.91446
       977.026  
  23972410.966   125975867.70446     -3812.394    23972412.799    98163023.13145
     -2970.699  
  20699065.298   108774355.83949     -1017.687    20699067.719    84759265.00849
      -793.008  
  22671836.583   119141331.34948      2815.335    22671838.948    92837417.93749
      2193.766  
  20308512.041   106721976.86848     -1469.913    20308511.494    83159998.92948
     -1145.391  
  20363369.926   107010266.50248     -1109.987    20363370.156    83384644.63548
      -864.930  
  20629323.543   108407854.22549      1148.491    20629325.337    84473674.70649
       894.926  
 20 10 03 08 22 35.0000000  0  9G11G15G21G18G24G32G20G23G10
  24312694.331   127764077.60745      1632.862    24312694.439    99556419.97045
      1272.354  
  23440059.334   123178347.03147     -3357.312    23440059.836    95983131.55346
     -2616.089  
  23411587.389   123028750.29347      1251.480    23411586.438    95866541.09145
       975.176  
  23976038.543   125994930.78346     -3812.719    23976040.279    98177877.46445
     -2970.953  
  20700035.036   108779451.78449     -1020.819    20700037.239    84763235.87249
      -795.448  
  22669158.201   119127256.76448      2814.261    22669160.690    92826450.73149
      2192.930  
  20309911.833   106729332.70148     -1472.565    20309911.331    83165730.74548
     -1147.457  
  20364426.993   107015821.98948     -1112.469    20364427.353    83388973.58648
      -866.863  
  20628231.625   108402116.77849      1146.305    20628233.461    84469203.97049
       893.222  
 20 10 03 08 22 40.0000000  0  9G11G15G21G18G24G32G20G23G10
  24311142.678   127755923.58446      1629.438    24311142.986    99550066.24945
      1269.690  
  23443253.994   123195135.23747     -3357.672    23443254.571    95996213.27346
     -2616.370  
  23410397.675   123022498.83447      1249.046    23410396.620    95861669.83245
       973.281  
  23979666.661   126013996.08046     -3813.309    23979668.230    98192733.53345
     -2971.413  
  20701007.807   108784563.79449     -1023.816    20701010.182    84767219.25749
      -797.780  
  22666480.942   119113187.07948      2813.390    22666483.403    92815487.34849
      2192.249  
  20311314.292   106736702.07848     -1475.210    20311313.821    83171473.11648
     -1149.519  
  20365486.739   107021390.52148     -1114.938    20365486.985    83393312.69848
      -868.785  
  20627142.190   108396391.29149      1144.039    20627144.037    84464742.55249
       891.456  
 20 10 03 08 22 45.0000000  0  9G11G15G21G18G24G32G20G23G10
  24309593.877   127747784.98845      1626.108    24309594.213    99543724.43944
      1267.089  
  23446449.219   123211926.38247     -3358.601    23446449.825    96009297.27046
     -2617.094  
  23409210.428   123016259.93347      1246.348    23409209.571    95856808.34545
       971.176  
  23983295.010   126033063.93046     -3813.781    23983296.783    98207591.57045
     -2971.780  
  20701983.823   108789692.29049     -1027.313    20701986.057    84771215.48749
      -800.508  
  22663804.441   119099122.62748      2812.293    22663807.105    92804528.03949
      2191.395  
  20312719.217   106744085.35448     -1478.081    20312718.773    83177226.31548
     -1151.754  
  20366548.949   107026972.41048     -1117.594    20366549.313    83397662.22048
      -870.854  
  20626055.036   108390678.10649      1141.402    20626056.801    84460290.72049
       889.402  
 20 10 03 08 22 50.0000000  0  9G11G15G21G18G24G32G20G23G10
  24308048.079   127739661.63946      1622.999    24308048.225    99537394.59445
      1264.672  
  23449645.017   123228720.41647     -3358.758    23449645.647    96022383.53346
     -2617.219  
  23408025.626   123010033.60247      1243.983    23408024.664    95851956.66145
       969.336  
  23986924.068   126052134.35146     -3814.429    23986925.702    98222451.63846
     -2972.284  
  20702962.872   108794837.32249     -1030.602    20702965.108    84775224.60249
      -803.069  
  22661129.050   119085063.44848      2811.375    22661131.520    92793572.84049
      2190.679  
  20314126.804   106751482.52648     -1480.628    20314126.407    83182990.34148
     -1153.737  
  20367613.637   107032567.69748     -1120.249    20367614.083    83402022.18348
      -872.926  
  20624970.166   108384977.26049      1139.059    20624972.019    84455848.50349
       887.573  
 20 10 03 08 22 55.0000000  0  9G11G15G21G18G24G32G20G23G10
  24306505.161   127731553.86646      1619.565    24306505.297    99531076.84245
      1261.995  
  23452841.358   123245517.45447     -3359.926    23452842.107    96035472.13146
     -2618.129  
  23406843.127   123003819.90547      1241.362    23406842.114    95847114.81646
       967.293  
  23990553.546   126071207.36046     -3815.180    23990555.151    98237313.71945
     -2972.871  
  20703945.165   108799999.02649     -1034.500    20703947.325    84779246.71049
      -806.105  
  22658454.634   119071009.57748      2809.910    22658457.158    92782621.77849
      2189.539  
  20315537.064   106758893.64948     -1483.957    20315536.743    83188765.24248
     -1156.331  
  20368680.994   107038176.41448     -1123.387    20368681.288    83406392.61448
      -875.371  
  20623887.584   108379288.81749      1136.043    20623889.430    84451415.95049
       885.226  
 20 10 03 08 23  0.0000000  0  9G11G15G21G18G24G32G20G23G10
  24304965.478   127723462.83946      1616.839    24304965.756    99524772.18244
      1259.875  
  23456038.466   123262318.78047     -3360.469    23456039.369    96048564.06846
     -2618.551  
  23405663.492   122997620.22347      1238.812    23405662.316    95842283.89745
       965.304  
  23994183.817   126090284.27946     -3815.555    23994185.349    98252178.83544
     -2973.163  
  20704930.686   108805178.62749     -1037.531    20704932.971    84783282.76549
      -808.468  
  22655781.542   119056962.38548      2808.804    22655784.030    92771675.92149
      2188.676  
  20316950.379   106766320.04148     -1486.604    20316949.991    83194552.03948
     -1158.398  
  20369751.011   107043799.92548     -1125.979    20369751.444    83410774.56948
      -877.390  
  20622807.843   108373614.11449      1133.706    20622809.769    84446994.10649
       883.406  
 20 10 03 08 23  5.0000000  0  9G11G15G21G18G24G32G20G23G10
  24303428.455   127715385.91546      1613.788    24303428.511    99518478.48344
      1257.495  
  23459236.004   123279121.67347     -3360.847    23459236.842    96061657.21946
     -2618.844  
  23404485.726   122991431.83447      1236.547    23404484.728    95837461.77646
       963.538  
  23997814.271   126109362.38146     -3815.711    23997815.826    98267044.87445
     -2973.285  
  20705919.260   108810373.33749     -1040.597    20705921.544    84787330.58849
      -810.859  
  22653109.197   119042919.11548      2808.156    22653111.870    92760733.12249
      2188.171  
  20318365.763   106773758.99848     -1489.090    20318365.417    83200348.62648
     -1160.331  
  20370823.502   107049435.46748     -1128.409    20370823.767    83415165.89648
      -879.285  
  20621730.028   108367950.40549      1131.593    20621731.825    84442580.82649
       881.757  
 20 10 03 08 23 10.0000000  0  9G11G15G21G18G24G32G20G23G10
  24301894.544   127707324.50045      1610.836    24301894.519    99512196.85345
      1255.195  
  23462434.098   123295927.61247     -3361.222    23462434.784    96074752.75546
     -2619.136  
  23403310.644   122985256.23847      1233.999    23403309.575    95832649.62945
       961.554  
  24001445.292   126128443.11646     -3816.168    24001446.934    98281912.96645
     -2973.641  
  20706910.877   108815584.63649     -1043.800    20706913.291    84791391.34449
      -813.355  
  22650437.845   119028881.28348      2807.176    22650440.454    92749794.55849
      2187.406  
  20319784.022   106781211.97048     -1491.723    20319783.792    83206156.13648
     -1162.382  
  20371898.469   107055084.54648     -1131.019    20371898.797    83419567.77648
      -881.316  
  20620654.684   108362299.21649      1129.249    20620656.563    84438177.30449
       879.933  
 20 10 03 08 23 15.0000000  0  9G11G15G21G18G24G32G20G23G10
  24300363.304   127699277.81245      1607.800    24300363.374    99505926.66445
      1252.824  
  23465632.567   123312735.59047     -3361.992    23465633.150    96087849.87546
     -2619.738  
  23402137.660   122979092.41047      1231.479    23402136.651    95827846.63845
       959.593  
  24005076.580   126147525.51146     -3816.730    24005078.374    98296782.35745
     -2974.077  
  20707905.537   108820811.63849     -1047.266    20707907.964    84795464.33249
      -816.055  
  22647767.257   119014847.90548      2805.901    22647770.008    92738859.46449
      2186.413  
  20321204.939   106788678.03048     -1494.839    20321204.344    83211973.84148
     -1164.812  
  20372975.911   107060746.16848     -1133.800    20372976.243    83423979.42748
      -883.483  
  20619581.422   108356659.56149      1126.409    20619583.257    84433782.76649
       877.719  
 20 10 03 08 23 20.0000000  0  9G11G15G21G18G24G32G20G23G10
  24298835.301   127691247.91245      1604.488    24298835.399    99499669.64545
      1250.246  
  23468831.816   123329547.82047     -3362.625    23468832.509    96100950.30646
     -2620.229  
  23400967.336   122972942.60247      1228.840    23400966.361    95823054.59145
       957.534  
  24008708.511   126166611.81146     -3817.234    24008710.289    98311654.78745
     -2974.473  
  20708903.626   108826056.41349     -1050.547    20708906.072    84799551.16749
      -818.608  
  22645098.147   119000821.17248      2804.863    22645100.780    92727929.55049
      2185.605  
  20322628.532   106796159.34548     -1497.629    20322628.090    83217803.43648
     -1166.987  
  20374056.013   107066422.54848     -1136.566    20374056.385    83428402.58248
      -885.640  
  20618510.829   108351033.65449      1124.000    20618512.645    84429398.94449
       875.840  
 20 10 03 08 23 25.0000000  0  9G11G15G21G18G24G32G20G23G10
  24297310.111   127683232.26846      1601.734    24297310.081    99493423.69044
      1248.102  
  23472031.398   123346361.73447     -3362.944    23472032.162    96114052.04246
     -2620.480  
  23399799.335   122966804.24447      1226.340    23399798.307    95818271.44946
       955.586  
  24012340.800   126185699.36846     -3817.414    24012342.576    98326528.20745
     -2974.613  
  20709904.555   108831316.48549     -1053.508    20709906.855    84803649.92749
      -820.917  
  22642429.660   118986798.55148      2804.113    22642432.296    92717002.83449
      2185.019  
  20324054.579   106803653.36348     -1500.059    20324054.032    83223642.92948
     -1168.879  
  20375138.581   107072111.13848     -1139.117    20375138.971    83432835.24748
      -887.629  
  20617442.327   108345418.95249      1121.866    20617444.218    84425023.85249
       874.180  
 20 10 03 08 23 30.0000000  0  9G11G15G21G18G24G32G20G23G10
  24295787.969   127675233.20446      1598.429    24295788.067    99487190.67144
      1245.530  
  23475231.773   123363179.57047     -3363.956    23475232.257    96127156.86146
     -2621.270  
  23398633.797   122960679.52047      1223.698    23398632.728    95813498.94045
       953.526  
  24015973.706   126204790.38646     -3818.285    24015975.463    98341404.30445
     -2975.288  
  20710908.735   108836593.98649     -1057.163    20710911.313    84807762.26449
      -823.766  
  22639762.498   118972782.23948      2802.680    22639765.282    92706081.04349
      2183.901  
  20325483.466   106811162.27848     -1503.234    20325483.137    83229494.03148
     -1171.355  
  20376223.793   107077814.09048     -1142.074    20376224.229    83437279.10448
      -889.930  
  20616376.492   108339817.63749      1119.042    20616378.483    84420659.19249
       871.977  
 20 10 03 08 23 35.0000000  0  9G11G15G21G18G24G32G20G23G10
  24294268.736   127667249.14245      1595.375    24294268.947    99480969.28645
      1243.141  
  23478432.553   123379999.90447     -3364.289    23478433.162    96140263.59746
     -2621.526  
  23397470.722   122954567.11147      1221.327    23397469.811    95808736.02245
       951.679  
  24019606.989   126223883.50946     -3818.999    24019608.868    98356282.05345
     -2975.847  
  20711916.146   108841887.59449     -1060.331    20711918.699    84811887.15549
      -826.233  
  22637096.107   118958770.88548      2801.688    22637098.987    92695163.10749
      2183.129  
  20326914.861   106818684.71648     -1505.772    20326914.455    83235355.66448
     -1173.332  
  20377311.505   107083530.08948     -1144.499    20377311.940    83441733.12948
      -891.819  
  20615312.933   108334228.37749      1116.628    20615314.699    84416303.92449
       870.098  
 20 10 03 08 23 40.0000000  0  9G11G15G21G18G24G32G20G23G10
  24292752.285   127659280.19746      1591.914    24292752.358    99474759.76445
      1240.448  
  23481633.871   123396822.66747     -3365.078    23481634.548    96153372.23546
     -2622.140  
  23396309.718   122948466.90447      1218.585    23396308.814    95803982.61946
       949.543  
  24023240.651   126242978.59946     -3819.902    24023242.510    98371161.33544
     -2976.551  
  20712926.585   108847197.23649     -1063.866    20712929.007    84816024.53849
      -828.992  
  22634430.843   118944764.38948      2800.492    22634433.405    92684248.96249
      2182.199  
  20328348.905   106826220.57748     -1508.726    20328348.452    83241227.76748
     -1175.632  
  20378401.706   107089259.00948     -1147.305    20378402.102    83446197.22348
      -894.007  
  20614251.659   108328651.09749      1113.934    20614253.356    84411957.99349
       867.995  
 20 10 03 08 23 45.0000000  0  9G11G15G21G18G24G32G20G23G10
  24291238.877   127651327.62746      1589.074    24291239.009    99468562.94645
      1238.238  
  23484835.980   123413649.23547     -3365.535    23484836.414    96166483.84346
     -2622.499  
  23395151.583   122942380.26847      1215.964    23395150.487    95799239.77746
       947.499  
  24026875.083   126262077.00946     -3819.937    24026876.820    98386043.19245
     -2976.582  
  20713940.274   108852524.23949     -1067.187    20713942.746    84820175.44549
      -831.577  
  22631766.733   118930764.11848      2799.429    22631769.327    92673339.66349
      2181.370  
  20329785.789   106833771.23648     -1511.758    20329785.384    83247111.39048
     -1177.996  
  20379494.561   107095002.25248     -1150.187    20379494.957    83450672.47048
      -896.254  
  20613192.868   108323087.14249      1111.276    20613194.699    84407622.44149
       865.926  
