     2.11           OBSERVATION DATA    G                   RINEX VERSION / TYPE
LEICA GEO OFFICE 8.4                    4-10-20 09:12       PGM / RUN BY / DATE
                                                            OBSERVER / AGENCY
mxbr                                                        MARKER NAME
mxbr                                                        MARKER NUMBER
457569              LEICA GX1220        2.14                REC # / TYPE / VERS
                    LEIAX1202                               ANT # / TYPE
 -1232071.3288  3822163.4894  4939711.7410                  APPROX POSITION XYZ
        1.2230        0.0000        0.0000                  ANTENNA: DELTA H/E/N
L1PhaOff:   0.0648  L2PhaOff:   0.0622                      COMMENT
     1     1                                                WAVELENGTH FACT L1/2
     6    C1    L1    D1    P2    L2    D2                  # / TYPES OF OBSERV
  2020    10     3     4    17    5.0000000     GPS         TIME OF FIRST OBS
  2020    10     3     8    16   20.0000000     GPS         TIME OF LAST OBS
    18                                                      LEAP SECONDS
    16                                                      # OF SATELLITES
          C1    L1    D1    P2    L2    D2                  COMMENT
   G 1     0     0     0     0     0     0                  PRN / # OF OBS
   G 2   558   558   558   558   558   558                  PRN / # OF OBS
   G 3     0     0     0     0     0     0                  PRN / # OF OBS
   G 4     0     0     0     0     0     0                  PRN / # OF OBS
   G 5  1498  1498  1498  1498  1498  1498                  PRN / # OF OBS
   G 6     0     0     0     0     0     0                  PRN / # OF OBS
   G 7   469   469   469   468   468   468                  PRN / # OF OBS
   G 8   543   543   543   541   541   541                  PRN / # OF OBS
   G 9     0     0     0     0     0     0                  PRN / # OF OBS
   G10  1730  1730  1730  1729  1729  1729                  PRN / # OF OBS
   G11     0     0     0     0     0     0                  PRN / # OF OBS
   G12     0     0     0     0     0     0                  PRN / # OF OBS
   G13  2422  2422  2422  2422  2422  2422                  PRN / # OF OBS
   G14     0     0     0     0     0     0                  PRN / # OF OBS
   G15  2872  2872  2872  2872  2872  2872                  PRN / # OF OBS
   G16     0     0     0     0     0     0                  PRN / # OF OBS
   G17     0     0     0     0     0     0                  PRN / # OF OBS
   G18  2872  2872  2872  2872  2872  2872                  PRN / # OF OBS
   G19     0     0     0     0     0     0                  PRN / # OF OBS
   G20  2714  2714  2714  2714  2714  2714                  PRN / # OF OBS
   G21   801   801   801   800   800   800                  PRN / # OF OBS
   G22     0     0     0     0     0     0                  PRN / # OF OBS
   G23  2610  2610  2610  2609  2609  2609                  PRN / # OF OBS
   G24  1910  1910  1910  1910  1910  1910                  PRN / # OF OBS
   G25     0     0     0     0     0     0                  PRN / # OF OBS
   G26     0     0     0     0     0     0                  PRN / # OF OBS
   G27  1567  1567  1567  1567  1567  1567                  PRN / # OF OBS
   G28     0     0     0     0     0     0                  PRN / # OF OBS
   G29  1213  1213  1213  1213  1213  1213                  PRN / # OF OBS
   G30  1261  1261  1261  1261  1261  1261                  PRN / # OF OBS
   G31     0     0     0     0     0     0                  PRN / # OF OBS
   G32   604   604   604   604   604   604                  PRN / # OF OBS
                                                            END OF HEADER
 20 10 03 04 17  5.0000000  0  8G13G 2G29G15G 5G18G 7G30
  20958634.157   110138366.08749      1839.702    20958633.901    85822103.88147
      1433.531  
  23102396.203   121403911.11448     -2778.065    23102394.961    94600445.08746
     -2164.730  
  21360722.935   112251356.03448     -1492.191    21360723.300    87468590.00349
     -1162.749  
  22057984.991   115915494.17848      3376.113    22057985.866    90323765.15349
      2630.734  
  20784034.360   109220837.20949     -1838.168    20784033.990    85107144.46649
     -1432.343  
  22504923.442   118264170.81248      3001.437    22504923.878    92153900.12946
      2338.777  
  24648604.918   129529293.84747      -299.101    24648605.059   100931940.36945
      -233.070  
  24025102.093   126252764.35547      1197.933    24025104.892    98378792.53745
       933.452  
 20 10 03 04 17 10.0000000  0  8G13G 2G29G15G 5G18G 7G30
  20956884.960   110129174.49649      1836.647    20956884.846    85814941.60447
      1431.151  
  23105039.954   121417804.11548     -2778.937    23105038.550    94611270.79946
     -2165.409  
  21362144.035   112258824.52448     -1495.402    21362144.367    87474409.60149
     -1165.249  
  22054773.588   115898618.45748      3374.496    22054774.493    90310615.24349
      2629.473  
  20785784.126   109230032.75949     -1840.077    20785783.761    85114309.82749
     -1433.832  
  22502068.259   118249166.10048      3000.253    22502068.591    92142208.14347
      2337.854  
  24648891.039   129530796.04545      -302.019    24648890.874   100933110.92144
      -235.339  
  24023963.563   126246781.08645      1195.156    24023966.289    98374130.27544
       931.288  
 20 10 03 04 17 15.0000000  0  8G13G 2G29G15G 5G18G 7G30
  20955138.823   110119998.23449      1833.519    20955138.728    85807791.26447
      1428.715  
  23107684.866   121431703.84748     -2780.805    23107683.609    94622101.74946
     -2166.863  
  21363568.366   112266309.12248     -1498.620    21363568.602    87480241.75849
     -1167.762  
  22051563.914   115881751.94148      3372.117    22051564.841    90297472.50349
      2627.620  
  20787535.771   109239237.46749     -1841.944    20787535.461    85121482.34049
     -1435.284  
  22499213.856   118234166.79848      2999.226    22499214.230    92130520.38847
      2337.054  
  24649179.486   129532311.97247      -304.655    24649180.105   100934292.17845
      -237.395  
  24022827.740   126240809.04857      1192.641    24022829.579    98369471.29155
       929.327  
 20 10 03 04 17 20.0000000  0  8G13G 2G29G15G 5G18G 7G30
  20953395.357   110110836.91449      1830.797    20953395.289    85800652.57847
      1426.590  
  23110331.081   121445609.77148     -2781.547    23110329.895    94632937.53646
     -2167.441  
  21364995.582   112273809.56848     -1501.741    21364996.025    87486086.25649
     -1170.191  
  22048356.140   115864894.13148      3370.777    22048356.886    90284336.55649
      2626.551  
  20789288.951   109248450.92849     -1843.656    20789288.629    85128661.64849
     -1436.616  
  22496360.551   118219172.54747      2998.473    22496360.919    92118836.55746
      2336.469  
  24649470.636   129533841.84847      -307.676    24649470.993   100935484.28645
      -239.750  
  24021694.167   126234851.86047      1190.206    24021696.800    98364829.34545
       927.430  
 20 10 03 04 17 25.0000000  0  8G13G 2G29G15G 5G18G 7G30
  20951655.301   110101692.26649      1827.223    20951655.054    85793526.88747
      1423.808  
  23112978.825   121459523.75948     -2783.761    23112977.652    94643779.59247
     -2169.167  
  21366426.199   112281327.45048     -1505.313    21366426.615    87491944.34649
     -1172.973  
  22045150.070   115848046.90548      3368.187    22045150.891    90271208.85749
      2624.559  
  20791044.228   109257674.75449     -1845.902    20791044.011    85135849.04749
     -1438.366  
  22493508.589   118204185.07448      2996.737    22493509.028    92107158.00846
      2335.116  
  24649764.860   129535387.12947      -310.944    24649764.981   100936688.39745
      -242.296  
  24020563.184   126228909.25847      1187.042    24020565.481    98360198.75246
       924.965  
 20 10 03 04 17 30.0000000  0  8G13G 2G29G15G 5G18G 7G30
  20949918.107   110092563.43349      1824.159    20949918.002    85786413.51247
      1421.421  
  23115627.897   121473444.85248     -2785.000    23115626.855    94654627.19846
     -2170.132  
  21367859.875   112288861.87448     -1508.555    21367860.398    87497815.32249
     -1175.499  
  22041946.076   115831209.30148      3366.582    22041946.836    90258088.66149
      2623.324  
  20792801.402   109266908.14049     -1847.745    20792800.867    85143043.89049
     -1439.805  
  22490657.623   118189203.51848      2995.640    22490658.116    92095484.06147
      2334.261  
  24650061.459   129536946.95747      -313.272    24650061.501   100937903.85045
      -244.112  
  24019434.973   126222980.40747      1184.344    24019437.107    98355578.87445
       922.862  
 20 10 03 04 17 35.0000000  0  8G13G 2G29G15G 5G18G 7G30
  20948183.757   110083449.61449      1821.148    20948183.617    85779311.84047
      1419.074  
  23118278.327   121487372.20448     -2786.246    23118277.037    94665479.66046
     -2171.104  
  21369296.777   112296412.03348     -1511.651    21369297.092    87503698.56049
     -1177.913  
  22038743.612   115814380.55048      3364.789    22038744.499    90244975.34449
      2621.910  
  20794560.093   109276150.24849     -1849.394    20794559.651    85150245.53849
     -1441.090  
  22487807.740   118174227.06748      2994.762    22487808.175    92083814.12646
      2333.582  
  24650360.949   129538520.54047      -316.015    24650361.158   100939130.02045
      -246.249  
  24018309.332   126217064.46447      1181.784    24018311.745    98350969.05146
       920.867  
 20 10 03 04 17 40.0000000  0  8G13G 2G29G15G 5G18G 7G30
  20946452.670   110074352.31549      1817.683    20946452.665    85772223.03947
      1416.375  
  23120930.086   121501307.29248     -2787.711    23120928.905    94676338.17546
     -2172.245  
  21370736.742   112303979.41448     -1515.012    21370737.199    87509595.21549
     -1180.531  
  22035543.244   115797562.15848      3362.729    22035544.121    90231870.11349
      2620.304  
  20796320.698   109285402.57349     -1851.543    20796320.416    85157455.13849
     -1442.766  
  22484959.035   118159257.20648      2993.520    22484959.465    92072149.29146
      2332.609  
  24650663.216   129540109.37047      -319.289    24650663.349   100940368.06545
      -248.801  
  24017186.215   126211162.91347      1178.707    24017188.789    98346370.45045
       918.469  
 20 10 03 04 17 45.0000000  0  8G13G 2G29G15G 5G18G 7G30
  20944724.423   110065270.25249      1814.667    20944724.392    85765146.11147
      1414.023  
  23123582.965   121515248.86048     -2789.090    23123581.779    94687201.72346
     -2173.319  
  21372179.725   112311562.71248     -1518.473    21372180.237    87515504.27749
     -1183.230  
  22032344.393   115780752.83648      3360.617    22032345.199    90218771.94049
      2618.659  
  20798083.008   109294663.82149     -1853.453    20798082.636    85164671.69649
     -1444.254  
  22482111.308   118144292.70747      2992.038    22482111.749    92060488.65046
      2331.456  
  24650968.240   129541712.15747      -322.262    24650968.107   100941617.00045
      -251.117  
  24016065.791   126205274.48747      1176.202    24016068.228    98341782.06545
       916.519  
 20 10 03 04 17 50.0000000  0  8G13G 2G29G15G 5G18G 7G30
  20942999.219   110056204.71549      1811.683    20942999.301    85758082.05747
      1411.699  
  23126237.581   121529198.21048     -2790.542    23126236.365    94698071.33646
     -2174.453  
  21373626.152   112319163.21148     -1521.652    21373626.456    87521426.74149
     -1185.707  
  22029147.632   115763953.80748      3359.086    22029148.482    90205681.79349
      2617.465  
  20799847.415   109303935.21949     -1855.168    20799847.038    85171896.15849
     -1445.589  
  22479264.870   118129334.79047      2991.319    22479265.467    92048833.13146
      2330.895  
  24651276.061   129543330.17347      -325.159    24651276.120   100942877.79246
      -253.374  
  24014947.950   126199400.50547      1173.660    24014950.098    98337204.94755
       914.539  
 20 10 03 04 17 55.0000000  0  8G13G 2G29G15G 5G18G 7G30
  20941276.894   110047153.24249      1808.602    20941276.642    85751028.96247
      1409.297  
  23128892.953   121543152.81548     -2791.582    23128891.949    94708945.04346
     -2175.262  
  21375075.251   112326778.43248     -1524.519    21375075.599    87527360.67649
     -1187.940  
  22025952.404   115747162.73648      3357.164    22025953.219    90192597.85149
      2615.969  
  20801613.130   109313214.30449     -1856.812    20801612.682    85179126.61449
     -1446.870  
  22476419.398   118114381.05048      2990.226    22476419.682    92037180.86746
      2330.042  
  24651586.295   129544960.96447      -327.527    24651586.562   100944148.53045
      -255.219  
  24013832.401   126193538.47047      1170.902    24013834.805    98332637.13546
       912.386  
 20 10 03 04 18  0.0000000  0  8G13G 2G29G15G 5G18G 7G30
  20939557.590   110038118.61249      1805.351    20939557.387    85743988.99547
      1406.766  
  23131550.032   121557115.45448     -2793.109    23131548.957    94719825.01646
     -2176.453  
  21376527.766   112334411.13548     -1528.233    21376528.176    87533308.23449
     -1190.836  
  22022759.254   115730382.33948      3355.085    22022760.155    90179522.22349
      2614.347  
  20803380.769   109322503.87049     -1858.945    20803380.512    85186365.23749
     -1448.530  
  22473575.059   118099434.25848      2988.863    22473575.571    92025534.02247
      2328.979  
  24651899.723   129546607.31647      -330.648    24651900.027   100945431.40045
      -257.651  
  24012719.744   126187691.19947      1167.945    24012721.925    98328080.82656
       910.085  
 20 10 03 04 18  5.0000000  0  8G13G 2G29G15G 5G18G 7G30
  20937841.139   110029098.97449      1802.480    20937841.100    85736960.71247
      1404.526  
  23134208.280   121571084.32848     -2794.269    23134206.961    94730709.84746
     -2177.354  
  21377983.135   112342059.49748     -1531.202    21377983.427    87539267.99449
     -1193.147  
  22019567.633   115713610.82348      3353.434    22019568.559    90166453.51549
      2613.062  
  20805150.315   109331802.08649     -1860.417    20805149.827    85193610.59949
     -1449.679  
  22470731.678   118084492.56848      2987.948    22470732.248    92013891.15046
      2328.270  
  24652215.646   129548267.38047      -333.168    24652215.608   100946724.96145
      -259.613  
  24011609.396   126181856.81647      1165.859    24011611.700    98323534.55045
       908.457  
 20 10 03 04 18 10.0000000  0  8G13G 2G29G15G 5G18G 7G30
  20936127.922   110020095.05249      1799.020    20936127.717    85729944.66547
      1401.832  
  23136867.837   121585060.11547     -2796.019    23136866.684    94741600.06246
     -2178.718  
  21379441.755   112349724.18948     -1534.710    21379442.105    87545240.47649
     -1195.882  
  22016377.921   115696848.89648      3351.237    22016378.901    90153392.27649
      2611.352  
  20806921.384   109341109.61549     -1862.660    20806921.068    85200863.22349
     -1451.426  
  22467889.448   118069556.70348      2986.309    22467889.879    92002252.81546
      2326.992  
  24652534.122   129549941.82647      -336.511    24652534.405   100948029.72746
      -262.219  
  24010501.780   126176036.03647      1162.874    24010503.981    98318998.90445
       906.132  
 20 10 03 04 18 15.0000000  0  8G13G 2G29G15G 5G18G 7G30
  20934417.557   110011107.62049      1796.022    20934417.513    85722941.47647
      1399.496  
  23139528.724   121599043.57948     -2797.179    23139527.633    94752496.26446
     -2179.624  
  21380903.415   112357405.98348     -1537.718    21380903.948    87551226.28949
     -1198.227  
  22013190.330   115680097.30748      3349.511    22013191.205    90140339.09849
      2610.007  
  20808694.552   109350427.26849     -1864.390    20808694.035    85208123.72849
     -1452.772  
  22465048.517   118054627.44848      2985.378    22465048.967    91990619.62946
      2326.266  
  24652855.724   129551631.41847      -339.238    24652856.074   100949346.28545
      -264.343  
  24009396.722   126170229.72947      1159.909    24009399.215    98314474.51146
       903.823  
 20 10 03 04 18 20.0000000  0  8G13G 2G29G15G 5G18G 7G30
  20932710.256   110002135.38249      1792.926    20932710.222    85715950.12547
      1397.082  
  23142190.955   121613033.38348     -2798.577    23142189.763    94763397.40046
     -2180.715  
  21382368.288   112365103.59948     -1540.977    21382368.716    87557224.42849
     -1200.765  
  22010004.257   115663354.81648      3347.664    22010005.232    90127293.00949
      2608.566  
  20810469.232   109359753.71549     -1866.229    20810468.937    85215391.08949
     -1454.206  
  22462208.565   118039703.52548      2984.160    22462209.054    91978990.59546
      2325.316  
  24653179.764   129553334.85447      -341.765    24653180.153   100950673.64645
      -266.312  
  24008294.366   126164436.49447      1157.453    24008296.685    98309960.30445
       901.910  
 20 10 03 04 18 25.0000000  0  8G13G 2G29G15G 5G18G 7G30
  20931005.585   109993177.74049      1789.844    20931005.640    85708970.14647
      1394.680  
  23144854.127   121627028.94648     -2799.746    23144853.082    94774303.02646
     -2181.624  
  21383836.034   112372816.40848     -1544.219    21383836.429    87563234.40449
     -1203.288  
  22006819.898   115646620.76948      3345.925    22006820.727    90114253.49449
      2607.210  
  20812245.637   109369088.25349     -1867.843    20812245.087    85222664.75549
     -1455.465  
  22459369.568   118024784.27848      2982.929    22459370.073    91967365.22646
      2324.359  
  24653506.502   129555051.55947      -345.034    24653506.931   100952011.33946
      -268.862  
  24007194.243   126158655.74747      1154.862    24007196.494    98305455.83245
       899.891  
 20 10 03 04 18 30.0000000  0  8G13G 2G29G15G 5G18G 7G30
  20929304.179   109984236.45149      1786.578    20929303.979    85702002.91147
      1392.136  
  23147518.853   121641031.98748     -2801.288    23147517.702    94785214.48046
     -2182.824  
  21385307.008   112380546.11648     -1547.698    21385307.304    87569257.54849
     -1206.003  
  22003637.423   115629896.94148      3343.816    22003638.182    90101221.94249
      2605.565  
  20814023.726   109378432.70349     -1869.949    20814023.414    85229946.14349
     -1457.104  
  22456531.709   118009871.47348      2981.918    22456532.136    91955744.84946
      2323.569  
  24653836.064   129556783.23247      -347.824    24653836.394   100953360.68446
      -271.034  
  24006097.018   126152889.26147      1151.956    24006099.262    98300962.47345
       897.625  
 20 10 03 04 18 35.0000000  0  8G13G 2G29G15G 5G18G 7G30
  20927605.811   109975311.55749      1783.410    20927605.735    85695048.44647
      1389.668  
  23150185.083   121655042.55848     -2802.809    23150183.761    94796131.79646
     -2184.012  
  21386781.029   112388292.83648     -1550.933    21386781.356    87575293.95149
     -1208.522  
  22000457.066   115613183.39248      3341.809    22000457.831    90088198.40349
      2603.995  
  20815803.925   109387787.11849     -1871.788    20815803.454    85237235.29749
     -1458.538  
  22453695.210   117994965.19948      2980.507    22453695.630    91944129.58046
      2322.469  
  24654168.282   129558529.92747      -350.750    24654168.704   100954721.75445
      -273.316  
  24005002.387   126147137.05947      1149.354    24005004.762    98296480.24345
       895.598  
 20 10 03 04 18 40.0000000  0  8G13G 2G29G15G 5G18G 7G30
  20925910.295   109966401.59249      1780.473    20925910.158    85688105.62647
      1387.379  
  23152852.482   121669059.21348     -2804.027    23152851.025    94807053.85946
     -2184.961  
  21388258.300   112396055.06948     -1554.074    21388258.574    87581342.44149
     -1210.968  
  21997278.213   115596478.69148      3340.112    21997278.950    90075181.76249
      2602.684  
  20817585.651   109397150.02849     -1873.503    20817585.211    85244531.07449
     -1459.875  
  22450859.450   117980063.96148      2979.754    22450860.125    91932518.22246
      2321.883  
  24654503.404   129560290.22347      -353.440    24654503.807   100956093.41046
      -275.409  
  24003910.058   126141397.73847      1146.183    24003912.674    98292008.04245
       893.124  
 20 10 03 04 18 45.0000000  0  8G13G 2G29G15G 5G18G 7G30
  20924217.835   109957507.43949      1777.210    20924217.779    85681175.11347
      1384.835  
  23155521.014   121683082.75148     -2805.449    23155519.790    94817981.28646
     -2186.065  
  21389738.410   112403833.59948     -1557.323    21389738.725    87587403.63049
     -1213.503  
  21994101.280   115579783.69948      3337.948    21994101.992    90062172.68049
      2600.996  
  20819369.083   109406522.34049     -1875.473    20819368.664    85251834.17449
     -1461.410  
  22448025.022   117965168.66048      2978.418    22448025.553    91920911.50146
      2320.843  
  24654840.992   129562064.94846      -356.515    24654841.429   100957476.29444
      -277.813  
  24002820.646   126135672.09347      1143.816    24002823.100    98287546.51355
       891.281  
 20 10 03 04 18 50.0000000  0  8G13G 2G29G15G 5G18G 7G30
  20922528.417   109948629.39049      1774.085    20922528.328    85674257.16047
      1382.401  
  23158191.069   121697113.48548     -2806.785    23158189.740    94828914.31646
     -2187.108  
  21391221.765   112411628.71648     -1560.648    21391222.047    87593477.74549
     -1216.093  
  21990926.266   115563098.70048      3335.983    21990927.011    90049171.38349
      2599.526  
  20821154.424   109415904.30549     -1877.406    20821153.846    85259144.78849
     -1462.918  
  22445191.727   117950279.59248      2977.148    22445192.229    91909309.63546
      2319.851  
  24655181.614   129563854.33746      -359.043    24655181.924   100958870.62344
      -279.777  
  24001733.701   126129960.49947      1141.313    24001736.073    98283095.91246
       889.331  
 20 10 03 04 18 55.0000000  0  8G13G 2G29G15G 5G18G 7G30
  20920841.842   109939766.44449      1771.055    20920841.574    85667350.96447
      1380.038  
  23160862.268   121711150.44948     -2808.124    23160860.922    94839852.20546
     -2188.151  
  21392708.148   112419439.43048     -1563.645    21392708.551    87599564.01249
     -1218.426  
  21987752.913   115546422.71348      3334.308    21987753.733    90036177.11949
      2598.160  
  20822941.289   109425294.81549     -1878.933    20822940.963    85266462.07949
     -1464.104  
  22442359.388   117935395.74148      2976.116    22442359.872    91897711.82846
      2319.050  
  24655524.744   129565657.46146      -362.059    24655525.144   100960275.68044
      -282.124  
  24000649.213   126124261.91247      1138.336    24000651.787    98278655.47346
       887.012  
 20 10 03 04 19  0.0000000  0  8G13G 2G29G15G 5G18G 7G30
  20919158.332   109930919.16449      1767.847    20919157.979    85660456.98747
      1377.539  
  23163534.775   121725194.10448     -2809.476    23163533.276    94850795.29946
     -2189.206  
  21394197.581   112427266.20648     -1566.996    21394197.738    87605662.79349
     -1221.039  
  21984581.483   115529756.26748      3332.187    21984582.169    90023190.28349
      2596.508  
  20824730.037   109434694.43449     -1880.938    20824729.551    85273786.45349
     -1465.668  
  22439528.201   117920517.62448      2975.015    22439528.731    91886118.49646
      2318.191  
  24655870.535   129567474.85846      -365.164    24655870.892   100961691.83345
      -284.546  
  23999567.395   126118576.86247      1135.647    23999569.969    98274225.57846
       884.917  
 20 10 03 04 19  5.0000000  0  8G13G 2G29G15G 5G18G 7G30
  20917477.671   109922087.85449      1764.671    20917477.575    85653575.45047
      1375.066  
  23166208.460   121739244.78648     -2810.801    23166206.902    94861743.88146
     -2190.237  
  21395690.064   112435109.44248     -1570.230    21395690.332    87611774.40449
     -1223.559  
  21981411.775   115513099.68548      3330.390    21981412.565    90010211.12949
      2595.105  
  20826520.506   109444103.47949     -1882.719    20826520.094    85281118.17749
     -1467.058  
  22436698.155   117905645.66648      2973.683    22436698.554    91874529.95646
      2317.151  
  24656219.144   129569306.84047      -367.843    24656219.604   100963119.34645
      -286.632  
  23998488.265   126112905.71347      1133.073    23998490.846    98269806.49845
       882.909  
 20 10 03 04 19 10.0000000  0  8G13G 2G29G15G 5G18G 7G30
  20915800.234   109913272.74149      1761.648    20915800.077    85646706.53347
      1372.711  
  23168883.644   121753302.68948     -2812.343    23168882.226    94872698.07346
     -2191.440  
  21397185.769   112442969.33248     -1573.601    21397185.874    87617898.99349
     -1226.187  
  21978244.139   115496453.20548      3328.343    21978244.671    89997239.85049
      2593.512  
  20828312.869   109453522.12949     -1884.574    20828312.351    85288457.38749
     -1468.504  
  22433869.231   117890779.97748      2972.616    22433869.838    91862946.30847
      2316.319  
  24656570.608   129571153.60746      -370.609    24656571.072   100964558.39045
      -288.788  
  23997411.774   126107248.65047      1130.011    23997414.305    98265398.40246
       880.526  
 20 10 03 04 19 15.0000000  0  8G13G 2G29G15G 5G18G 7G30
  20914125.656   109904472.77149      1758.429    20914125.544    85639849.41347
      1370.202  
  23171559.949   121767366.73648     -2813.351    23171558.496    94883657.07746
     -2192.227  
  21398684.342   112450844.78948     -1576.737    21398684.591    87624035.70949
     -1228.629  
  21975078.047   115479815.78248      3326.281    21975078.737    89984275.63149
      2591.901  
  20830106.766   109462949.34049     -1886.367    20830106.318    85295803.26149
     -1469.897  
  22431041.479   117875919.56748      2971.773    22431041.866    91851366.76447
      2315.663  
  24656924.758   129573014.02447      -373.491    24656925.203   100966008.06345
      -291.035  
  23996337.749   126101604.67547      1127.211    23996340.271    98261000.50645
       878.344  
 20 10 03 04 19 20.0000000  0  8G13G 2G29G15G 5G18G 7G30
  20912454.133   109895688.60749      1755.374    20912453.921    85633004.61347
      1367.820  
  23174237.607   121781437.58348     -2814.683    23174236.009    94894621.35846
     -2193.261  
  21400186.158   112458736.44948     -1579.675    21400186.476    87630185.05149
     -1230.918  
  21971914.063   115463188.02448      3324.699    21971914.512    89971318.94049
      2590.671  
  20831902.374   109472385.75949     -1887.956    20831901.994    85303156.31649
     -1471.136  
  22428214.867   117861065.09448      2970.495    22428215.124    91839791.85546
      2314.668  
  24657281.365   129574888.82147      -376.187    24657281.729   100967468.94546
      -293.137  
  23995266.386   126095974.37647      1124.624    23995268.889    98256613.28045
       876.328  
 20 10 03 04 19 25.0000000  0  8G13G 2G29G15G 5G18G 7G30
  20910785.628   109886920.27749      1751.921    20910785.471    85626172.15247
      1365.128  
  23176916.594   121795515.31348     -2816.405    23176915.010    94905591.01046
     -2194.604  
  21401691.000   112466644.35548     -1583.233    21401691.300    87636347.05349
     -1233.690  
  21968751.768   115446570.02448      3322.468    21968752.236    89958369.85649
      2588.933  
  20833699.880   109481831.43449     -1890.214    20833699.378    85310516.58249
     -1472.897  
  22425389.199   117846216.57748      2968.878    22425389.607    91828221.58546
      2313.409  
  24657641.027   129576778.01347      -379.395    24657641.496   100968941.03545
      -295.637  
  23994197.492   126090357.85947      1121.805    23994200.064    98252236.77746
       874.128  
 20 10 03 04 19 30.0000000  0  8G13G 2G29G15G 5G18G 7G30
  20909120.185   109878168.25149      1748.601    20909119.955    85619352.39347
      1362.543  
  23179596.913   121809600.32948     -2817.789    23179595.229    94916566.34046
     -2195.684  
  21403198.894   112474568.92248     -1586.746    21403199.294    87642522.03849
     -1236.430  
  21965591.372   115429962.24948      3320.519    21965591.898    89945428.73649
      2587.413  
  20835499.117   109491286.80449     -1892.180    20835498.720    85317884.39949
     -1474.430  
  22422564.878   117831374.47948      2967.854    22422565.326    91816656.31446
      2312.613  
  24658003.367   129578682.06047      -382.257    24658003.658   100970424.71745
      -297.867  
  23993131.416   126084755.53047      1118.855    23993134.128    98247871.32455
       871.832  
 20 10 03 04 19 35.0000000  0  8G13G 2G29G15G 5G18G 7G30
  20907457.594   109869431.77549      1745.566    20907457.368    85612544.75347
      1360.179  
  23182278.356   121823691.81448     -2818.874    23182276.680    94927546.71646
     -2196.527  
  21404710.013   112482509.37648     -1589.612    21404710.213    87648709.40349
     -1238.664  
  21962432.716   115413363.89848      3318.729    21962433.284    89932494.96149
      2586.020  
  20837300.254   109500751.02949     -1893.578    20837299.771    85325259.12049
     -1475.520  
  22419741.668   117816538.03648      2966.679    22419742.022    91805095.45146
      2311.695  
  24658368.361   129580600.17747      -385.116    24658368.726   100971919.35945
      -300.093  
  23992067.851   126079166.61447      1116.539    23992070.602    98243516.33145
       870.026  
 20 10 03 04 19 40.0000000  0  8G13G 2G29G15G 5G18G 7G30
  20905798.039   109860710.97549      1742.520    20905797.961    85605749.32347
      1357.805  
  23184961.132   121837789.96448     -2820.477    23184959.542    94938532.27646
     -2197.776  
  21406224.000   112490465.86848     -1592.910    21406224.312    87654909.26149
     -1241.229  
  21959276.147   115396775.17548      3316.621    21959276.616    89919568.68349
      2584.375  
  20839102.891   109510224.32649     -1895.586    20839102.287    85332640.90649
     -1477.081  
  22416919.433   117801707.40248      2965.379    22416919.907    91793539.11247
      2310.684  
  24658736.017   129582532.47547      -387.929    24658736.512   100973425.03845
      -302.284  
  23991006.919   126073591.31947      1113.269    23991009.454    98239171.95046
       867.480  
 20 10 03 04 19 45.0000000  0  8G13G 2G29G15G 5G18G 7G30
  20904141.725   109852006.30149      1739.352    20904141.488    85598966.46647
      1355.335  
  23187645.433   121851895.18648     -2821.690    23187643.652    94949523.35046
     -2198.722  
  21407741.226   112498438.85048     -1596.222    21407741.344    87661121.97149
     -1243.812  
  21956121.279   115380196.51348      3314.929    21956121.903    89906650.25349
      2583.058  
  20840907.448   109519707.11949     -1897.425    20840907.002    85340030.09749
     -1478.515  
  22414098.532   117786883.03448      2964.319    22414098.795    91781987.66046
      2309.854  
  24659106.507   129584479.44147      -391.097    24659107.017   100974942.16145
      -304.754  
  23989948.647   126068030.03047      1110.866    23989951.375    98234838.48146
       865.609  
 20 10 03 04 19 50.0000000  0  8G13G 2G29G15G 5G18G 7G30
  20902488.249   109843317.03549      1736.172    20902487.923    85592195.61147
      1352.859  
  23190330.685   121866006.77948     -2823.082    23190328.974    94960519.39045
     -2199.808  
  21409261.485   112506427.58648     -1599.430    21409261.541    87667346.95749
     -1246.313  
  21952968.293   115363627.24048      3312.937    21952968.915    89893739.13849
      2581.508  
  20842713.519   109529198.70849     -1899.258    20842713.191    85347426.13949
     -1479.944  
  22411278.571   117772064.25448      2963.112    22411278.906    91770440.56046
      2308.917  
  24659479.705   129586440.39347      -393.852    24659480.151   100976470.17745
      -306.901  
  23988892.882   126062482.13347      1108.352    23988895.616    98230515.45245
       863.648  
 20 10 03 04 19 55.0000000  0  8G13G 2G29G15G 5G18G 7G30
  20900837.646   109834643.55749      1733.324    20900837.536    85585437.05647
      1350.641  
  23193017.458   121880125.11548     -2824.358    23193015.510    94971520.68046
     -2200.800  
  21410784.769   112514432.40348     -1602.457    21410784.929    87673584.47349
     -1248.671  
  21949817.062   115347067.68848      3311.004    21949817.615    89880835.59249
      2580.000  
  20844521.492   109538699.39349     -1901.082    20844521.080    85354829.26649
     -1481.366  
  22408459.718   117757251.39748      2962.085    22408460.243    91758898.07846
      2308.116  
  24659855.558   129588415.57547      -396.496    24659855.948   100978009.28545
      -308.960  
  23987839.582   126056947.94147      1105.324    23987842.643    98226203.10945
       861.289  
 20 10 03 04 20  0.0000000  0  8G13G 2G29G15G 5G18G 7G30
  20899190.093   109825985.76449      1729.828    20899189.847    85578690.73247
      1347.913  
  23195705.390   121894250.07748     -2825.785    23195703.491    94982527.13746
     -2201.914  
  21412311.120   112522453.21548     -1605.772    21412311.230    87679834.45449
     -1251.253  
  21946667.710   115330517.79648      3308.894    21946668.278    89867939.58149
      2578.355  
  20846331.187   109548209.06049     -1903.004    20846330.702    85362239.39849
     -1482.863  
  22405642.047   117742444.37448      2960.676    22405642.562    91747360.14346
      2307.016  
  24660234.061   129590404.99547      -399.194    24660234.415   100979559.47945
      -311.065  
  23986789.122   126051427.33147      1102.727    23986792.002    98221901.31645
       859.266  
 20 10 03 04 20  5.0000000  0  8G13G 2G29G15G 5G18G 7G30
  20897545.750   109817344.56049      1726.815    20897545.565    85571957.32747
      1345.566  
  23198394.657   121908382.54948     -2827.085    23198392.757    94993539.45046
     -2202.926  
  21413840.521   112530490.89648     -1608.934    21413840.710    87686097.57749
     -1253.719  
  21943520.445   115313978.46148      3306.933    21943520.909    89855051.79049
      2576.879  
  20848142.573   109557728.64449     -1904.816    20848142.249    85369657.25449
     -1484.276  
  22402825.727   117727644.10248      2959.573    22402826.071    91735827.46046
      2306.160  
  24660615.576   129592409.52847      -402.512    24660615.857   100981121.45446
      -313.648  
  23985741.354   126045921.24347      1100.328    23985744.058    98217610.88046
       857.395  
 20 10 03 04 20 10.0000000  0  8G13G 2G29G15G 5G18G 7G30
  20895904.265   109808718.62149      1723.383    20895903.959    85565235.81747
      1342.890  
  23201085.216   121922521.15648     -2828.613    23201083.194    95004556.53046
     -2204.117  
  21415373.153   112538544.11748     -1612.511    21415373.126    87692372.81149
     -1256.503  
  21940374.901   115297448.33248      3304.901    21940375.469    89842171.17449
      2575.246  
  20849955.698   109567256.86849     -1906.741    20849955.287    85377081.84449
     -1485.777  
  22400010.347   117712849.21348      2958.245    22400010.592    91724298.98047
      2305.124  
  24660999.616   129594427.79747      -405.339    24660999.982   100982694.13045
      -315.852  
  23984696.021   126040428.29547      1097.273    23984698.801    98213330.66545
       855.015  
 20 10 03 04 20 15.0000000  0  8G13G 2G29G15G 5G18G 7G30
  20894265.824   109800108.55549      1720.362    20894265.527    85558526.68047
      1340.538  
  23203776.961   121936666.53048     -2829.703    23203774.901    95015578.89946
     -2204.964  
  21416908.626   112546613.48948     -1615.569    21416908.729    87698660.63049
     -1258.891  
  21937231.244   115280928.05148      3303.261    21937231.741    89829298.22949
      2573.969  
  20851770.717   109576794.26549     -1908.460    20851770.261    85384513.57849
     -1487.117  
  22397196.087   117698060.36648      2957.160    22397196.566    91712775.20146
      2304.277  
  24661386.511   129596460.41247      -408.188    24661386.607   100984277.98445
      -318.069  
  23983653.382   126034949.18946      1094.179    23983656.287    98209061.24145
       852.605  
 20 10 03 04 20 20.0000000  0  8G13G 2G29G15G 5G18G 7G30
  20892630.436   109791514.91049      1717.137    20892630.288    85551830.33847
      1338.027  
  23206470.232   121950819.16948     -2830.930    23206468.102    95026606.92146
     -2205.922  
  21418447.372   112554699.49748     -1618.820    21418447.491    87704961.41549
     -1261.421  
  21934089.483   115264418.14048      3301.011    21934089.972    89816433.36649
      2572.214  
  20853587.462   109586341.32149     -1910.270    20853586.953    85391952.84449
     -1488.523  
  22394383.174   117683278.09748      2955.796    22394383.472    91701256.55346
      2303.214  
  24661776.022   129598507.93347      -410.878    24661776.419   100985873.44845
      -320.167  
  23982613.391   126029484.40547      1091.788    23982616.219    98204802.96345
       850.742  
 20 10 03 04 20 25.0000000  0  8G13G 2G29G15G 5G18G 7G30
  20890998.091   109782936.84949      1714.210    20890997.983    85545146.13547
      1335.746  
  23209164.607   121964978.23648     -2832.288    23209162.488    95037639.95046
     -2206.979  
  21419989.134   112562801.26048     -1621.770    21419989.188    87711274.47249
     -1263.719  
  21930949.436   115247917.71048      3299.284    21930949.901    89803575.89349
      2570.867  
  20855405.908   109595897.13149     -1911.987    20855405.347    85399398.92849
     -1489.863  
  22391571.204   117668501.50148      2954.718    22391571.597    91689742.33146
      2302.374  
  24662168.422   129600569.44847      -413.559    24662168.641   100987479.81345
      -322.257  
  23981576.053   126024033.06547      1089.121    23981579.086    98200555.16946
       848.663  
 20 10 03 04 20 30.0000000  0  8G13G 2G29G15G 5G18G 7G30
  20889368.802   109774374.28249      1710.804    20889368.597    85538474.00847
      1333.090  
  23211860.124   121979143.61648     -2833.563    23211858.085    95048677.90446
     -2207.972  
  21421533.751   112570918.71648     -1625.004    21421533.819    87717599.75949
     -1266.238  
  21927811.290   115231426.73448      3297.105    21927811.796    89790725.78349
      2569.167  
  20857225.886   109605461.65049     -1913.788    20857225.445    85406851.80149
     -1491.265  
  22388760.402   117653730.54148      2953.542    22388760.768    91678232.48846
      2301.456  
  24662563.295   129602644.89247      -416.309    24662563.757   100989097.06145
      -324.398  
  23980541.223   126018595.12147      1086.261    23980544.173    98196317.81344
       846.434  
 20 10 03 04 20 35.0000000  0  8G13G 2G29G15G 5G18G 7G30
  20887742.549   109765828.10749      1707.655    20887742.147    85531814.65647
      1330.637  
  23214557.159   121993316.31948     -2835.211    23214555.141    95059721.55745
     -2209.257  
  21423081.593   112579052.80348     -1628.410    21423081.868    87723938.00849
     -1268.895  
  21924675.238   115214946.16948      3295.112    21924675.634    89777883.78749
      2567.616  
  20859047.756   109615035.82949     -1915.722    20859047.502    85414312.19649
     -1492.772  
  22385950.885   117638966.17948      2952.305    22385951.159    91666727.79546
      2300.492  
  24662961.188   129604735.24147      -419.226    24662961.309   100990725.90446
      -326.672  
  23979509.062   126013171.51646      1083.461    23979512.188    98192091.63246
       844.254  
 20 10 03 04 20 40.0000000  0  8G13G 2G29G15G 5G18G 7G30
  20886119.120   109757297.87149      1704.663    20886118.874    85525167.71947
      1328.304  
  23217255.334   122007495.76348     -2836.387    23217253.397    95070770.46246
     -2210.175  
  21424632.502   112587202.97848     -1631.519    21424632.602    87730288.78949
     -1271.315  
  21921540.900   115198475.52048      3293.156    21921541.444    89765049.52249
      2566.094  
  20860871.532   109624619.11849     -1917.520    20860871.042    85421779.69249
     -1494.175  
  22383142.336   117624207.90348      2950.906    22383142.736    91655227.83747
      2299.401  
  24663361.584   129606839.93047      -422.147    24663361.816   100992365.91546
      -328.948  
  23978479.540   126007761.78047      1080.546    23978482.836    98187876.26346
       841.979  
 20 10 03 04 20 45.0000000  0  8G13G 2G29G15G 5G18G 7G30
  20884498.939   109748783.13749      1701.276    20884498.537    85518532.86747
      1325.668  
  23219954.859   122021681.52048     -2837.800    23219952.886    95081824.29446
     -2211.277  
  21426186.443   112595368.80948     -1634.874    21426186.515    87736651.77149
     -1273.934  
  21918408.467   115182014.34648      3291.145    21918408.964    89752222.63549
      2564.495  
  20862696.827   109634211.11049     -1919.339    20862696.277    85429253.97249
     -1495.593  
  22380335.131   117609455.25748      2949.890    22380335.569    91643732.26946
      2298.613  
  24663764.813   129608958.53647      -425.215    24663765.067   100994016.78445
      -331.339  
  23977452.701   126002365.45247      1077.913    23977455.894    98183671.32645
       839.930  
 20 10 03 04 20 50.0000000  0  8G13G 2G29G15G 5G18G 7G30
  20882881.611   109740284.70649      1698.358    20882881.385    85511910.71147
      1323.395  
  23222655.701   122035874.32348     -2838.843    23222653.562    95092883.61146
     -2212.089  
  21427743.620   112603551.07748     -1637.816    21427743.602    87743027.56249
     -1276.222  
  21915277.952   115165563.44148      3289.465    21915278.440    89739403.75349
      2563.215  
  20864523.844   109643812.58649     -1921.019    20864523.467    85436735.63849
     -1496.901  
  22377529.046   117594709.08848      2948.827    22377529.354    91632241.75546
      2297.784  
  24664170.742   129611091.86547      -428.011    24664171.210   100995679.12346
      -333.519  
  23976428.519   125996983.31047      1075.641    23976431.646    98179477.45146
       838.160  
 20 10 03 04 20 55.0000000  0  8G13G 2G29G15G 5G18G 7G30
  20881267.348   109731801.19849      1695.070    20881267.174    85505300.19347
      1320.831  
  23225357.475   122050072.83548     -2840.379    23225355.524    95103947.38246
     -2213.284  
  21429303.465   112611748.40048     -1640.999    21429303.615    87749415.08649
     -1278.703  
  21912149.129   115149121.46248      3287.370    21912149.628    89726591.82249
      2561.585  
  20866352.569   109653422.10149     -1922.773    20866352.120    85444223.57149
     -1498.270  
  22374723.743   117579967.99648      2947.480    22374724.324    91620755.18946
      2296.733  
  24664579.319   129613238.51547      -430.688    24664579.503   100997351.82846
      -335.604  
  23975406.836   125991614.08047      1072.440    23975409.848    98175293.64245
       835.663  
 20 10 03 04 21  0.0000000  0  8G13G 2G29G15G 5G18G 7G30
  20879655.914   109723333.71349      1692.093    20879655.850    85498702.15547
      1318.511  
  23228060.770   122064278.15148     -2841.491    23228058.702    95115016.44546
     -2214.152  
  21430866.355   112619961.88048     -1644.050    21430866.565    87755815.19849
     -1281.081  
  21909022.202   115132689.50548      3285.589    21909022.769    89713787.70449
      2560.194  
  20868182.810   109663040.83349     -1924.569    20868182.481    85451718.68549
     -1499.667  
  22371919.955   117565233.08448      2946.652    22371920.318    91609273.44346
      2296.089  
  24664990.544   129615399.64247      -433.620    24664990.693   100999035.83045
      -337.891  
  23974387.647   125986258.73247      1069.293    23974390.769    98171120.65046
       833.211  
 20 10 03 04 21  5.0000000  0  8G13G 2G29G15G 5G18G 7G30
  20878047.743   109714882.50049      1688.616    20878047.478    85492116.79647
      1315.801  
  23230765.198   122078490.51547     -2843.309    23230763.331    95126091.00946
     -2215.566  
  21432432.492   112628191.70348     -1647.563    21432432.693    87762228.04349
     -1283.816  
  21905897.182   115116267.81748      3283.363    21905897.842    89700991.58749
      2558.461  
  20870014.961   109672668.97549     -1926.586    20870014.808    85459221.13349
     -1501.237  
  22369117.122   117550504.62948      2945.141    22369117.518    91597796.72746
      2294.909  
  24665404.631   129617575.43147      -436.516    24665404.853   101000731.24946
      -340.144  
  23973371.264   125980917.57547      1066.679    23973374.373    98166958.71245
       831.175  
 20 10 03 04 21 10.0000000  0  8G13G 2G29G15G 5G18G 7G30
  20876442.782   109706448.02949      1685.270    20876442.514    85485544.48447
      1313.195  
  23233471.163   122092710.36648     -2844.593    23233469.192    95137171.40146
     -2216.569  
  21434001.865   112636438.34448     -1650.871    21434001.738    87768653.99149
     -1286.395  
  21902774.228   115099856.89848      3281.227    21902774.872    89688203.86049
      2556.797  
  20871849.197   109682307.01349     -1928.526    20871848.842    85466731.29249
     -1502.750  
  22366315.828   117535783.10448      2943.727    22366316.166    91586325.40847
      2293.809  
  24665821.564   129619766.33747      -439.577    24665821.736   101002438.43745
      -342.530  
  23972357.764   125975591.09647      1063.984    23972360.893    98162808.21145
       829.074  
 20 10 03 04 21 15.0000000  0  8G13G 2G29G15G 5G18G 7G30
  20874840.694   109698029.34149      1682.292    20874840.476    85478984.47147
      1310.874  
  23236178.263   122106936.73648     -2845.948    23236176.301    95148256.87146
     -2217.624  
  21435574.076   112644700.84148     -1654.011    21435574.215    87775092.30349
     -1288.844  
  21899653.231   115083455.76248      3279.285    21899653.863    89675423.75749
      2555.285  
  20873684.775   109691953.97749     -1930.184    20873684.590    85474248.40349
     -1504.042  
  22363515.447   117521067.49948      2942.667    22363515.781    91574858.70747
      2292.984  
  24666241.176   129621971.41347      -442.531    24666241.259   101004156.69145
      -344.831  
  23971346.739   125970278.34347      1061.805    23971349.912    98158668.41145
       827.379  
 20 10 03 04 21 20.0000000  0  8G13G 2G29G15G 5G18G 7G30
  20873241.456   109689625.75949      1679.141    20873241.374    85472436.22847
      1308.417  
  23238886.503   122121168.88348     -2847.027    23238884.556    95159346.85146
     -2218.465  
  21437149.342   112652978.44748     -1657.273    21437149.383    87781542.38249
     -1291.386  
  21896533.911   115067063.71848      3277.347    21896534.553    89662650.73649
      2553.772  
  20875522.259   109701609.11749     -1932.008    20875521.803    85481771.89049
     -1505.465  
  22360716.238   117506357.15448      2941.320    22360716.657    91563396.10547
      2291.933  
  24666663.207   129624189.95347      -445.184    24666663.517   101005885.42145
      -346.897  
  23970338.184   125964978.56747      1058.296    23970341.302    98154538.72846
       824.644  
 20 10 03 04 21 25.0000000  0  8G13G 2G29G15G 5G18G 7G30
  20871645.443   109681238.74649      1676.004    20871645.204    85465900.89847
      1305.972  
  23241596.280   122135408.39348     -2848.456    23241594.343    95170442.56646
     -2219.582  
  21438727.639   112661272.70848     -1660.285    21438727.705    87788005.44049
     -1293.730  
  21893416.681   115050682.27948      3275.391    21893417.202    89649885.98349
      2552.250  
  20877361.268   109711273.92249     -1933.769    20877360.961    85489302.90349
     -1506.835  
  22357918.171   117491653.58448      2940.452    22357918.456    91551938.78146
      2291.258  
  24667088.326   129626423.43247      -447.867    24667088.399   101007625.80746
      -348.991  
  23969332.497   125959693.33647      1055.573    23969335.644    98150420.35245
       822.522  
 20 10 03 04 21 30.0000000  0  8G13G 2G29G15G 5G18G 7G30
  20870052.499   109672867.11449      1672.647    20870052.243    85459377.55247
      1303.358  
  23244307.003   122149653.99148     -2849.792    23244305.289    95181543.03146
     -2220.620  
  21440308.996   112669582.38848     -1663.695    21440308.984    87794480.51449
     -1296.390  
  21890301.156   115034310.30548      3273.230    21890301.803    89637128.60249
      2550.512  
  20879202.170   109720947.17549     -1935.702    20879201.834    85496840.50349
     -1508.343  
  22355121.224   117476955.59148      2938.929    22355121.527    91540485.79546
      2290.069  
  24667515.912   129628670.69647      -450.746    24667516.064   101009376.92846
      -351.234  
  23968329.300   125954421.37747      1052.957    23968332.384    98146312.35846
       820.484  
 20 10 03 04 21 35.0000000  0  8G13G 2G29G15G 5G18G 7G30
  20868462.603   109664512.37349      1669.358    20868462.436    85452867.37047
      1300.796  
  23247019.422   122163907.13248     -2851.249    23247017.461    95192649.36146
     -2221.757  
  21441893.390   112677908.93548     -1667.065    21441893.419    87800968.73149
     -1299.015  
  21887187.731   115017949.21048      3271.203    21887188.368    89624379.69849
      2548.984  
  20881044.799   109730630.35449     -1937.609    20881044.413    85504385.83549
     -1509.828  
  22352325.618   117462264.64548      2937.577    22352326.056    91529038.30846
      2289.020  
  24667946.537   129630933.17447      -454.101    24667946.600   101011139.87245
      -353.847  
  23967328.924   125949164.24147      1049.789    23967331.915    98142215.88645
       818.016  
 20 10 03 04 21 40.0000000  0  8G13G 2G29G15G 5G18G 7G30
  20866875.752   109656173.35049      1666.222    20866875.572    85446369.42747
      1298.351  
  23249732.809   122178166.64048     -2852.508    23249730.902    95203760.66546
     -2222.737  
  21443481.004   112686251.18248     -1670.034    21443481.033    87807469.18149
     -1301.327  
  21884076.021   115001597.84448      3269.387    21884076.883    89611638.37849
      2547.570  
  20882889.121   109740322.26949     -1939.124    20882888.699    85511937.97249
     -1511.007  
  22349531.147   117447579.57148      2936.496    22349531.542    91517595.39746
      2288.176  
  24668379.635   129633209.68647      -456.793    24668379.822   101012913.77845
      -355.945  
  23966331.051   125943920.69547      1047.457    23966334.330    98138130.00646
       816.194  
 20 10 03 04 21 45.0000000  0  8G13G 2G29G15G 5G18G 7G30
  20865291.938   109647850.28849      1663.144    20865291.641    85439883.92947
      1295.952  
  23252447.507   122192432.78748     -2853.788    23252445.764    95214877.13345
     -2223.734  
  21445071.490   112694609.37048     -1673.066    21445071.580    87813982.04949
     -1303.690  
  21880966.420   114985256.46948      3267.183    21880967.117    89598904.84249
      2545.854  
  20884735.183   109750023.16949     -1940.984    20884734.933    85519497.11649
     -1512.456  
  22346737.845   117432900.63948      2935.250    22346738.249    91506157.26646
      2287.202  
  24668815.613   129635500.51247      -459.543    24668815.728   101014698.83445
      -358.089  
  23965336.040   125938691.03047      1044.332    23965338.970    98134054.95246
       813.762  
 20 10 03 04 21 50.0000000  0  8G13G 2G29G15G 5G18G 7G30
  20863711.162   109639543.22649      1659.933    20863710.860    85433410.89747
      1293.452  
  23255163.555   122206705.62447     -2855.219    23255161.631    95225998.81246
     -2224.847  
  21446665.029   112702983.56748     -1676.367    21446665.060    87820507.39549
     -1306.261  
  21877858.709   114968925.11948      3265.440    21877859.533    89586179.11649
      2544.495  
  20886582.936   109759733.14849     -1942.863    20886582.634    85527063.33049
     -1513.921  
  22343945.677   117418227.91348      2933.921    22343945.962    91494723.97547
      2286.167  
  24669254.212   129637805.62047      -462.258    24669254.615   101016495.03546
      -360.202  
  23964343.424   125933475.30147      1042.246    23964346.518    98129990.74646
       812.136  
 20 10 03 04 21 55.0000000  0  8G13G 2G29G15G 5G18G 7G30
  20862133.244   109631251.70749      1656.597    20862133.022    85426949.97747
      1290.852  
  23257880.734   122220984.64848     -2856.699    23257879.005    95237125.31846
     -2226.004  
  21448261.606   112711373.26148     -1679.538    21448261.474    87827044.81849
     -1308.733  
  21874752.729   114952603.36348      3263.180    21874753.407    89573460.86349
      2542.734  
  20888432.231   109769451.66549     -1944.671    20888432.051    85534636.19949
     -1515.332  
  22341154.652   117403560.92048      2932.582    22341155.157    91483295.15846
      2285.124  
  24669695.495   129640124.60847      -465.147    24669695.852   101018302.04845
      -362.456  
  23963353.507   125928273.06347      1039.015    23963356.689    98125937.06245
       809.621  
 20 10 03 04 22  0.0000000  0  8G13G 2G29G15G 5G18G 7G30
  20860558.567   109622976.25949      1653.542    20860558.364    85420501.57847
      1288.472  
  23260599.244   122235270.32848     -2857.801    23260597.539    95248257.01146
     -2226.858  
  21449861.032   112719778.92648     -1682.761    21449861.048    87833594.68049
     -1311.246  
  21871648.627   114936291.69648      3261.468    21871649.485    89560750.47649
      2541.402  
  20890283.416   109779179.26949     -1946.343    20890283.161    85542216.15149
     -1516.633  
  22338364.956   117388900.15348      2931.647    22338365.298    91471871.18147
      2284.397  
  24670139.427   129642457.95447      -467.940    24670139.855   101020120.22546
      -364.633  
  23962366.088   125923084.79547      1036.320    23962369.321    98121894.27145
       807.519  
 20 10 03 04 22  5.0000000  0  8G13G 2G29G15G 5G18G 7G30
  20858986.734   109614716.43649      1650.355    20858986.641    85414065.35547
      1285.988  
  23263318.902   122249562.25847     -2859.047    23263317.079    95259393.57046
     -2227.831  
  21451463.679   112728200.14348     -1685.972    21451463.559    87840156.66649
     -1313.750  
  21868546.449   114919989.73848      3259.347    21868547.265    89548047.65449
      2539.750  
  20892136.124   109788915.53149     -1948.219    20892135.749    85549802.84549
     -1518.098  
  22335576.208   117374245.24848      2930.104    22335576.434    91460451.78047
      2283.194  
  24670586.240   129644805.25247      -470.862    24670586.475   101021949.28045
      -366.910  
  23961381.544   125917910.07647      1033.375    23961384.628    98117862.02345
       805.223  
 20 10 03 04 22 10.0000000  0  8G13G 2G29G15G 5G18G 7G30
  20857418.147   109606473.77349      1647.133    20857418.086    85407642.50647
      1283.476  
  23266039.870   122263861.91748     -2860.362    23266038.350    95270536.15946
     -2228.859  
  21453069.390   112736638.36848     -1689.183    21453069.240    87846731.90849
     -1316.249  
  21865446.360   114903698.93748      3257.320    21865447.260    89535353.52949
      2538.168  
  20893990.739   109798661.88349     -1950.015    20893990.532    85557397.40349
     -1519.496  
  22332788.790   117359597.64048      2929.011    22332789.254    91449038.05647
      2282.343  
  24671035.688   129647167.95947      -473.776    24671036.054   101023790.35545
      -369.179  
  23960399.627   125912750.41047      1030.679    23960402.638    98113841.49845
       803.125  
 20 10 03 04 22 15.0000000  0  8G13G 2G29G15G 5G18G 7G30
  20855852.580   109598246.72349      1643.972    20855852.478    85401231.82247
      1281.015  
  23268762.172   122278167.80647     -2861.703    23268760.522    95281683.59246
     -2229.902  
  21454678.144   112745092.11148     -1692.383    21454678.092    87853319.23649
     -1318.742  
  21862348.149   114887417.82248      3255.117    21862348.983    89522666.94649
      2536.452  
  20895847.060   109808416.79149     -1951.887    20895846.783    85564998.62949
     -1520.952  
  22330002.521   117344955.85448      2927.730    22330002.809    91437628.87447
      2281.343  
  24671488.012   129649544.56547      -476.762    24671488.351   101025642.25045
      -371.504  
  23959420.397   125907604.30747      1027.875    23959423.332    98109831.56045
       800.938  
 20 10 03 04 22 20.0000000  0  8G13G 2G29G15G 5G18G 7G30
  20854290.084   109590035.46949      1640.594    20854290.027    85394833.44347
      1278.383  
  23271485.816   122292480.08747     -2863.082    23271484.216    95292836.00946
     -2230.977  
  21456289.769   112753561.51248     -1695.559    21456289.643    87859918.76849
     -1321.219  
  21859251.868   114871146.56848      3253.090    21859252.889    89509988.05149
      2534.870  
  20897705.097   109818180.43449     -1953.680    20897704.734    85572606.66049
     -1522.352  
  22327217.560   117330320.07048      2926.452    22327217.843    91426224.37247
      2280.351  
  24671943.011   129651935.28947      -479.687    24671943.337   101027505.15146
      -373.784  
  23958443.642   125902471.89347      1024.871    23958446.704    98105832.27646
       798.598  
 20 10 03 04 22 25.0000000  0  8G13G 2G29G15G 5G18G 7G30
  20852730.808   109581841.19949      1637.417    20852730.749    85388448.30247
      1275.905  
  23274210.594   122306799.95448     -2864.562    23274209.127    95303994.34346
     -2232.129  
  21457904.598   112762047.77548     -1698.805    21457904.616    87866531.43649
     -1323.745  
  21856157.672   114854886.36748      3251.207    21856158.492    89497317.76349
      2533.405  
  20899564.835   109827953.98449     -1955.547    20899564.639    85580222.41049
     -1523.804  
  22324433.762   117315691.48448      2925.266    22324434.084    91414825.46947
      2279.426  
  24672400.856   129654341.25047      -482.633    24672400.981   101029379.94145
      -376.081  
  23957469.918   125897354.43747      1022.305    23957472.855    98101844.65346
       796.597  
 20 10 03 04 22 30.0000000  0  8G13G 2G29G15G 5G18G 7G30
  20851174.197   109573661.74749      1634.171    20851174.160    85382074.70547
      1273.379  
  23276936.698   122321125.23147     -2865.776    23276934.990    95315156.89146
     -2233.078  
  21459522.286   112770548.68848     -1701.858    21459522.255    87873155.52349
     -1326.128  
  21853065.204   114838635.05448      3249.258    21853066.047    89484654.40549
      2531.887  
  20901426.303   109837735.25149     -1957.078    20901426.021    85587844.17549
     -1524.999  
  22321650.903   117301067.92948      2924.063    22321651.290    91403430.48946
      2278.488  
  24672861.166   129656760.32047      -485.276    24672861.394   101031264.91345
      -378.140  
  23956498.487   125892249.72047      1019.574    23956501.297    98097866.97145
       794.468  
 20 10 03 04 22 35.0000000  0  8G13G 2G29G15G 5G18G 7G30
  20849620.823   109565498.55449      1630.960    20849620.749    85375713.77947
      1270.875  
  23279663.979   122335457.37347     -2867.063    23279662.343    95326324.78946
     -2234.078  
  21461143.017   112779065.68748     -1704.910    21461143.085    87879792.14549
     -1328.504  
  21849974.653   114822394.07148      3247.042    21849975.560    89471999.09949
      2530.159  
  20903289.286   109847525.73249     -1959.008    20903289.110    85595473.12049
     -1526.503  
  22318869.403   117286450.86348      2922.664    22318869.734    91392040.57346
      2277.397  
