     2.11           OBSERVATION DATA    G                   RINEX VERSION / TYPE
LEICA GEO OFFICE 8.4                    1-10-20 21:50       PGM / RUN BY / DATE
                                                            OBSERVER / AGENCY
obg2                                                        MARKER NAME
obg2                                                        MARKER NUMBER
457569              LEICA GX1220        2.14                REC # / TYPE / VERS
                    LEIAX1202                               ANT # / TYPE
 -1251311.2004  3776424.0855  4969926.3766                  APPROX POSITION XYZ
        1.2960        0.0000        0.0000                  ANTENNA: DELTA H/E/N
L1PhaOff:   0.0648  L2PhaOff:   0.0622                      COMMENT
     1     1                                                WAVELENGTH FACT L1/2
     6    C1    L1    D1    P2    L2    D2                  # / TYPES OF OBSERV
  2020    10     1     7    26   55.0000000     GPS         TIME OF FIRST OBS
  2020    10     1     9     0   20.0000000     GPS         TIME OF LAST OBS
    18                                                      LEAP SECONDS
    12                                                      # OF SATELLITES
          C1    L1    D1    P2    L2    D2                  COMMENT
   G 1     0     0     0     0     0     0                  PRN / # OF OBS
   G 2     0     0     0     0     0     0                  PRN / # OF OBS
   G 3     0     0     0     0     0     0                  PRN / # OF OBS
   G 4     0     0     0     0     0     0                  PRN / # OF OBS
   G 5     0     0     0     0     0     0                  PRN / # OF OBS
   G 6     0     0     0     0     0     0                  PRN / # OF OBS
   G 7     0     0     0     0     0     0                  PRN / # OF OBS
   G 8   344   344   344   344   344   344                  PRN / # OF OBS
   G 9     0     0     0     0     0     0                  PRN / # OF OBS
   G10  1122  1122  1122  1122  1122  1122                  PRN / # OF OBS
   G11   383   383   383   382   382   382                  PRN / # OF OBS
   G12   302   302   302   301   301   301                  PRN / # OF OBS
   G13    84    84    84    78    78    78                  PRN / # OF OBS
   G14     0     0     0     0     0     0                  PRN / # OF OBS
   G15  1119  1119  1119  1118  1118  1118                  PRN / # OF OBS
   G16     0     0     0     0     0     0                  PRN / # OF OBS
   G17     0     0     0     0     0     0                  PRN / # OF OBS
   G18   920   920   920   920   920   920                  PRN / # OF OBS
   G19     0     0     0     0     0     0                  PRN / # OF OBS
   G20  1122  1122  1122  1122  1122  1122                  PRN / # OF OBS
   G21  1113  1113  1113  1113  1113  1113                  PRN / # OF OBS
   G22     0     0     0     0     0     0                  PRN / # OF OBS
   G23     0     0     0     0     0     0                  PRN / # OF OBS
   G24  1122  1122  1122  1122  1122  1122                  PRN / # OF OBS
   G25     0     0     0     0     0     0                  PRN / # OF OBS
   G26     0     0     0     0     0     0                  PRN / # OF OBS
   G27   296   296   296   296   296   296                  PRN / # OF OBS
   G28     0     0     0     0     0     0                  PRN / # OF OBS
   G29     0     0     0     0     0     0                  PRN / # OF OBS
   G30     0     0     0     0     0     0                  PRN / # OF OBS
   G31     0     0     0     0     0     0                  PRN / # OF OBS
   G32   669   669   669   668   668   668                  PRN / # OF OBS
                                                            END OF HEADER
 20 10 01 07 26 55.0000000  0  8G 8G27G15G21G18G24G20G10
  24636978.646   129468195.78045       140.437    24636981.346   100884311.74049
       109.434  
  24306171.442   127729794.09446     -1657.507    24306174.562    99529721.25949
     -1291.565  
  21229732.091   111563013.40648     -2475.191    21229732.149    86932224.92149
     -1928.722  
  24816676.487   130412506.99247      2696.668    24816676.508   101620135.69944
      2101.296  
  21566006.162   113330135.54548     -2690.460    21566006.754    88309201.83847
     -2096.464  
  20939258.635   110036577.71648      1684.249    20939261.711    85742810.06549
      1312.397  
  20029471.504   105255583.95248       660.012    20029470.908    82017335.75248
       514.293  
  22049101.740   115868810.81648      2586.632    22049103.940    90287395.21449
      2015.550  
 20 10 01 07 27  0.0000000  0  8G 8G27G15G21G18G24G20G10
  24636846.442   129467501.60345       137.766    24636849.300   100883770.81249
       107.348  
  24307749.785   127738088.34646     -1660.055    24307752.835    99536184.30249
     -1293.551  
  21232088.092   111575394.21248     -2476.906    21232088.310    86941872.31649
     -1930.059  
  24814111.726   130399028.11847      2695.347    24814111.596   101609632.69044
      2100.270  
  21568567.281   113343594.50648     -2692.796    21568568.026    88319689.32147
     -2098.285  
  20937657.725   110028164.62849      1681.219    20937660.688    85736254.42449
      1310.039  
  20028844.873   105252290.29648       657.573    20028844.270    82014769.27148
       512.391  
  22046641.443   115855881.21448      2585.476    22046643.455    90277320.21849
      2014.656  
 20 10 01 07 27  5.0000000  0  9G 8G27G13G15G21G18G24G20G10
  24636716.497   129466819.70944       134.382    24636719.728   100883239.42549
       104.706  
  24309330.087   127746392.48246     -1662.484    24309333.117    99542655.04249
     -1295.444  
  23808173.596   125112799.78555     -3476.265    23808169.378    97490470.81153
     -2708.766  
  21234445.054   111587780.32248     -2478.328    21234445.231    86951523.85749
     -1931.167  
  24811547.391   130385552.41547      2693.866    24811547.076   101599132.15944
      2099.112  
  21571129.938   113357061.92148     -2694.816    21571130.779    88330183.39747
     -2099.862  
  20936059.293   110019764.31148      1678.229    20936062.098    85729708.74849
      1307.710  
  20028219.963   105249006.05948       655.319    20028219.315    82012210.12448
       510.637  
  22044181.538   115842954.38748      2584.574    22044183.382    90267247.38048
      2013.948  
 20 10 01 07 27 10.0000000  0  7G27G15G21G18G24G20G10
  24310913.177   127754712.23845     -1666.262    24310916.106    99549137.96349
     -1298.391  
  21236804.122   111600177.37148     -2481.199    21236804.313    86961183.87649
     -1933.406  
  24808984.641   130372085.47747      2691.750    24808983.995   101588638.42444
      2097.465  
  21573695.465   113370543.42248     -2698.414    21573696.236    88340688.44847
     -2102.664  
  20934464.279   110011382.42748      1673.694    20934467.124    85723177.40949
      1304.175  
  20027597.740   105245736.91448       651.750    20027597.040    82009662.73348
       507.854  
  22041723.332   115830036.08648      2582.077    22041725.143    90257181.17848
      2012.003  
 20 10 01 07 27 15.0000000  0  7G27G15G21G18G24G20G10
  24312500.056   127763052.25146     -1668.835    24312503.272    99555636.67449
     -1300.395  
  21239166.238   111612590.06048     -2482.820    21239166.589    86970856.09249
     -1934.667  
  24806424.599   130358632.05547      2690.733    24806423.785   101578155.26444
      2096.672  
  21576264.422   113384043.66048     -2700.741    21576265.369    88351208.11947
     -2104.477  
  20932873.639   110003023.49548      1670.679    20932876.298    85716663.95849
      1301.823  
  20026979.497   105242487.58748       649.030    20026978.684    82007130.79348
       505.734  
  22039267.435   115817130.98048      2581.015    22039269.431    90247125.26249
      2011.180  
 20 10 01 07 27 20.0000000  0  7G27G15G21G18G24G20G10
  24314088.627   127771400.43546     -1670.569    24314091.930    99562141.74349
     -1301.745  
  21241528.951   111625006.29549     -2483.706    21241529.333    86980531.07449
     -1935.352  
  24803864.748   130345180.04247      2690.285    24803864.035   101567673.13944
      2096.320  
  21578834.733   113397550.61248     -2702.375    21578835.702    88361733.01947
     -2105.750  
  20931285.085   109994675.52448      1668.233    20931287.927    85710159.03149
      1299.918  
  20026362.572   105239245.96548       647.340    20026361.795    82004604.86148
       504.418  
  22036811.910   115804226.94948      2580.520    22036813.916    90237070.15249
      2010.793  
 20 10 01 07 27 25.0000000  0  8G27G13G15G21G18G24G20G10
  24315679.479   127779760.48146     -1673.288    24315682.948    99568656.04249
     -1303.862  
  23821409.465   125182354.77615     -3478.660           0.000           0.0000 
         0.000  
  21243892.962   111637429.84748     -2485.605    21243893.307    86990211.77649
     -1936.839  
  24801305.881   130331733.26047      2688.832    24801305.335   101557195.13044
      2095.191  
  21581406.965   113411067.90548     -2704.499    21581407.743    88372265.96846
     -2107.406  
  20929699.405   109986342.21848      1665.258    20929701.976    85703665.54949
      1297.601  
  20025747.938   105236015.82348       644.862    20025747.098    82002087.87148
       502.487  
  22034357.330   115791327.79548      2579.292    22034359.225    90227018.85049
      2009.831  
 20 10 01 07 27 30.0000000  0  8G27G13G15G21G18G24G20G10
  24317272.437   127788131.62445     -1674.488    24317275.889    99575179.02448
     -1304.801  
  23824719.748   125199746.74044     -3477.746    23824718.054    97558201.03151
     -2709.933  
  21246258.336   111649859.82048     -2485.901    21246258.785    86999897.48049
     -1937.070  
  24798747.821   130318290.81446      2688.374    24798747.334   101546720.51143
      2094.835  
  21583981.107   113424594.83148     -2705.625    21583982.027    88382806.42147
     -2108.281  
  20928116.208   109978022.93448      1663.063    20928118.741    85697182.99749
      1295.891  
  20025135.380   105232796.31048       643.530    20025134.629    81999579.16447
       501.449  
  22031903.470   115778432.70648      2579.406    22031905.422    90216970.71948
      2009.921  
 20 10 01 07 27 35.0000000  0  7G27G15G21G18G24G20G10
  24318868.313   127796518.07346     -1680.390    24318871.500    99581713.90849
     -1309.397  
  21248625.773   111662300.40748     -2490.776    21248626.199    87009591.42749
     -1940.866  
  24796191.441   130304856.94846      2684.492    24796190.844   101536252.51944
      2091.804  
  21586557.917   113438135.53148     -2711.043    21586558.700    88393357.62247
     -2112.503  
  20926536.630   109969721.82148      1656.874    20926539.174    85690714.58949
      1291.065  
  20024525.493   105229591.70648       637.871    20024524.835    81997082.06547
       497.039  
  22029451.151   115765545.87048      2574.980    22029453.219    90206929.04447
      2006.479  
 20 10 01 07 27 40.0000000  0  7G27G15G21G18G24G20G10
  24320467.693   127804923.02546     -1681.512    24320471.114    99588263.18649
     -1310.272  
  21250995.721   111674754.85248     -2491.104    21250996.299    87019296.18249
     -1941.124  
  24793637.298   130291434.92646      2684.813    24793636.682   101525793.83944
      2092.062  
  21589137.975   113451693.23048     -2712.038    21589138.843    88403922.06247
     -2113.280  
  20924961.201   109961442.04048      1654.855    20924963.466    85684262.82949
      1289.495  
  20023919.224   105226405.20948       636.706    20023918.464    81994599.07747
       496.132  
  22027001.072   115752670.55648      2575.211    22027002.909    90196896.37547
      2006.715  
 20 10 01 07 27 45.0000000  0  7G27G15G21G18G24G20G10
  24322068.868   127813337.07146     -1683.980    24322072.226    99594819.59648
     -1312.195  
  21253366.627   111687213.79748     -2492.496    21253367.111    87029004.45149
     -1942.206  
  24791083.675   130278015.48746      2683.054    24791082.963   101515337.16043
      2090.691  
  21591719.352   113465258.58448     -2713.992    21591720.168    88414492.47147
     -2114.800  
  20923387.900   109953174.44348      1652.085    20923390.262    85677820.54049
      1287.336  
  20023314.468   105223227.51048       634.293    20023313.563    81992122.95347
       494.249  
  22024551.428   115739797.43648      2574.141    22024553.075    90186865.33847
      2005.797  
 20 10 01 07 27 50.0000000  0  7G27G15G21G18G24G20G10
  24323672.471   127821764.06045     -1686.984    24323676.039    99601386.06949
     -1314.535  
  21255739.269   111699681.05048     -2494.347    21255739.626    87038719.19249
     -1943.652  
  24788531.236   130264602.29846      2681.702    24788530.385   101504885.34444
      2089.641  
  21594302.980   113478835.33048     -2716.555    21594303.696    88425071.74347
     -2116.801  
  20921817.642   109944922.71648      1648.742    20921819.956    85671390.62049
      1284.729  
  20022712.188   105220062.31648       631.781    20022711.332    81989656.57247
       492.292  
  22022102.895   115726930.24548      2572.702    22022104.511    90176839.00448
      2004.702  
 20 10 01 07 27 55.0000000  0  7G27G15G21G18G24G20G10
  24325278.735   127830205.53446     -1689.629    24325282.228    99607963.83248
     -1316.597  
  21258113.629   111712158.20948     -2496.332    21258113.768    87048441.65449
     -1945.194  
  24785980.326   130251197.01646      2680.473    24785979.237   101494439.66244
      2088.675  
  21596889.085   113492425.11948     -2719.125    21596889.939    88435661.19147
     -2118.801  
  20920250.764   109936688.55648      1645.226    20920253.012    85664974.40049
      1281.992  
  20022112.560   105216911.31748       628.909    20022111.748    81987201.25347
       490.059  
  22019655.675   115714070.67348      2571.102    22019657.164    90166818.58947
      2003.457  
 20 10 01 07 28  0.0000000  0  7G27G15G21G18G24G20G10
  24326887.429   127838659.84145     -1692.129    24326891.070    99614551.61449
     -1318.547  
  21260489.500   111724643.55848     -2498.059    21260489.620    87058170.49849
     -1946.542  
  24783430.325   130237797.95446      2679.034    24783429.485   101483998.85642
      2087.559  
  21599477.264   113506026.22148     -2721.668    21599478.094    88446259.44147
     -2120.785  
  20918686.937   109928470.05948      1641.988    20918689.047    85658570.38449
      1279.469  
  20021515.229   105213772.78948       626.284    20021514.384    81984755.64747
       488.011  
  22017209.617   115701216.95848      2570.156    22017211.015    90156802.70347
      2002.714  
 20 10 01 07 28  5.0000000  0  7G27G15G21G18G24G20G10
  24328498.844   127847127.35346     -1695.073    24328502.414    99621149.67449
     -1320.840  
  21262867.048   111737137.37748     -2499.624    21262866.947    87067905.97049
     -1947.758  
  24780881.916   130224405.56747      2677.690    24780881.101   101473563.21343
      2086.507  
  21602067.511   113519638.99648     -2723.801    21602068.445    88456866.77747
     -2122.444  
  20917125.975   109920267.61648      1638.870    20917128.056    85652178.85449
      1277.038  
  20020920.548   105210647.15448       623.698    20020919.723    81982320.07648
       485.996  
  22014764.890   115688369.58148      2568.968    22014766.096    90146791.73148
      2001.785  
 20 10 01 07 28 10.0000000  0  7G27G15G21G18G24G20G10
  24330112.716   127855608.83846     -1697.530    24330116.452    99627758.60649
     -1322.753  
  21265246.291   111749640.66548     -2501.405    21265246.219    87077648.78849
     -1949.151  
  24778334.813   130211020.63846      2676.401    24778334.035   101463133.43144
      2085.507  
  21604660.428   113533264.27248     -2726.331    21604661.257    88467483.87747
     -2124.417  
  20915568.418   109912082.25948      1635.339    20915570.497    85645800.66149
      1274.288  
  20020328.348   105207535.21848       621.030    20020327.511    81979895.19248
       483.918  
  22012321.486   115675529.27848      2567.469    22012322.680    90136786.32048
      2000.625  
 20 10 01 07 28 15.0000000  0  7G27G15G21G18G24G20G10
  24331729.277   127864103.26646     -1700.534    24331732.876    99634377.62549
     -1325.094  
  21267627.251   111762152.25548     -2503.183    21267627.199    87087398.06549
     -1950.534  
  24775789.068   130197642.09446      2675.015    24775788.122   101452708.59545
      2084.425  
  21607255.265   113546900.98448     -2728.570    21607256.267    88478109.88547
     -2126.160  
  20914013.719   109903912.75648      1632.390    20914015.864    85639434.82249
      1271.988  
  20019738.411   105204435.89148       618.569    20019737.743    81977480.12848
       481.999  
  22009879.215   115662695.05948      2566.073    22009880.262    90126785.65448
      1999.539  
 20 10 01 07 28 20.0000000  0  7G27G15G21G18G24G20G10
  24333348.270   127872611.97746     -1702.565    24333351.976    99641007.78849
     -1326.680  
  21270009.918   111774673.59948     -2505.191    21270009.634    87097154.95549
     -1952.102  
  24773244.624   130184271.38846      2673.604    24773243.688   101442289.84544
      2083.323  
  21609852.762   113560550.54648     -2731.026    21609853.706    88488745.90247
     -2128.078  
  20912462.435   109895760.80248      1628.577    20912464.646    85633082.65749
      1269.020  
  20019151.354   105201350.66948       615.827    20019150.652    81975076.06048
       479.863  
  22007438.278   115649868.34948      2564.804    22007439.365    90116790.80448
      1998.546  
 20 10 01 07 28 25.0000000  0  7G27G15G21G18G24G20G10
  24334970.012   127881133.63246     -1705.590    24334973.788    99647648.02348
     -1329.035  
  21272394.319   111787203.27148     -2506.590    21272394.039    87106918.32149
     -1953.190  
  24770701.580   130170907.10246      2671.984    24770701.056   101431876.09743
      2082.058  
  21612452.354   113574211.46548     -2733.203    21612453.307    88499390.77247
     -2129.773  
  20910914.221   109887624.75348      1625.754    20910916.367    85626742.87149
      1266.816  
  20018566.758   105198278.06248       613.206    20018565.765    81972681.82747
       477.819  
  22004998.502   115637047.67548      2563.512    22004999.716    90106800.63347
      1997.534  
 20 10 01 07 28 30.0000000  0  7G27G15G21G18G24G20G10
  24336594.064   127889667.30646     -1707.546    24336597.559    99654297.65748
     -1330.559  
  21274780.048   111799740.39548     -2508.187    21274779.684    87116687.51249
     -1954.433  
  24768159.480   130157548.43446      2671.352    24768158.845   101421466.76244
      2081.569  
  21615054.081   113587883.00748     -2735.453    21615054.919    88510043.90647
     -2131.523  
  20909369.030   109879504.00248      1622.538    20909371.298    85620415.00549
      1264.313  
  20017984.251   105195217.31148       611.007    20017983.317    81970296.83247
       476.105  
  22002559.833   115624232.32348      2562.589    22002560.994    90096814.66147
      1996.820  
 20 10 01 07 28 35.0000000  0  7G27G15G21G18G24G20G10
  24338220.500   127898214.47046     -1711.120    24338224.079    99660957.76748
     -1333.343  
  21277167.513   111812286.29448     -2510.206    21277167.002    87126463.52449
     -1955.999  
  24765618.688   130144196.79646      2669.492    24765618.143   101411062.88544
      2080.121  
  21617657.863   113601566.44548     -2737.895    21617658.907    88520706.33147
     -2133.426  
  20907826.705   109871399.68748      1619.059    20907828.858    85614099.97349
      1261.601  
  20017404.256   105192169.75948       608.164    20017403.562    81967922.11147
       473.890  
  22000122.366   115611423.59848      2560.972    22000123.452    90086833.86647
      1995.558  
 20 10 01 07 28 40.0000000  0  7G27G15G21G18G24G20G10
  24339849.662   127906775.83445     -1713.801    24339853.194    99667628.94048
     -1335.434  
  21279556.655   111824841.85348     -2512.039    21279556.308    87136247.08249
     -1957.437  
  24763079.403   130130852.97845      2668.296    24763079.086   101400665.15543
      2079.190  
  21620264.148   113615262.65548     -2740.457    21620265.109    88531378.69947
     -2135.426  
  20906287.805   109863312.71448      1615.684    20906290.064    85607798.43449
      1258.972  
  20016827.089   105189136.26148       605.449    20016826.248    81965558.35647
       471.776  
  21997686.388   115598622.35148      2559.504    21997687.493    90076858.89547
      1994.418  
 20 10 01 07 28 45.0000000  0  7G27G15G21G18G24G20G10
  24341481.330   127915349.87246     -1716.519    24341485.030    99674310.03549
     -1337.550  
  21281947.504   111837405.34848     -2513.535    21281946.877    87146036.81549
     -1958.602  
  24760541.453   130117515.40047      2666.621    24760540.863   101390272.24444
      2077.883  
  21622872.537   113628969.98748     -2742.840    21622873.544    88542059.71147
     -2137.284  
  20904751.931   109855241.57848      1612.574    20904754.186    85601509.23849
      1256.546  
  20016252.220   105186115.20948       602.898    20016251.367    81963204.28348
       469.789  
  21995251.401   115585826.96948      2558.453    21995252.760    90066888.44448
      1993.594  
 20 10 01 07 28 50.0000000  0  8G 8G27G15G21G18G24G20G10
  24634694.342   129456192.21455        68.168    24634698.124   100874970.60958
        53.113  
  24343115.593   127923937.51546     -1718.945    24343119.022    99681001.70849
     -1339.441  
  21284340.100   111849978.02749     -2515.469    21284339.401    87155833.70549
     -1960.109  
  24758004.820   130104185.11947      2665.223    24758004.137   101379885.02544
      2076.792  
  21625483.411   113642689.47348     -2745.050    21625484.442    88552750.21747
     -2139.003  
  20903219.276   109847187.26348      1609.312    20903221.509    85595233.15149
      1254.008  
  20015679.839   105183107.70048       600.277    20015678.950    81960860.76848
       467.745  
  21992817.930   115573038.52748      2557.250    21992819.232    90056923.43048
      1992.659  
 20 10 01 07 28 55.0000000  0  7G27G15G21G18G24G20G10
  24344752.348   127932538.50045     -1721.602    24344755.785    99687703.72849
     -1341.515  
  21286734.208   111862559.36648     -2517.438    21286733.625    87165637.34049
     -1961.644  
  24755469.357   130090861.76445      2663.929    24755468.627   101369503.25343
      2075.796  
  21628096.371   113656420.70648     -2747.645    21628097.208    88563449.89847
     -2141.023  
  20901689.701   109839149.29648      1605.804    20901691.734    85588969.78749
      1251.273  
  20015110.091   105180113.24848       597.437    20015109.191    81958527.45147
       465.530  
  21990385.625   115560256.64747      2555.737    21990386.888    90046963.54547
      1991.483  
 20 10 01 07 29  0.0000000  0  7G27G15G21G18G24G20G10
  24346391.619   127941152.86545     -1724.347    24346395.194    99694416.20849
     -1343.652  
  21289130.028   111875149.51948     -2518.694    21289129.307    87175447.85149
     -1962.620  
  24752935.445   130077545.52845      2662.507    24752934.609   101359126.90543
      2074.679  
  21630711.600   113670163.88748     -2749.577    21630712.426    88574158.87247
     -2142.531  
  20900163.338   109831128.04648      1602.823    20900165.350    85582719.47249
      1248.949  
  20014542.799   105177132.07948       595.124    20014541.857    81956204.47147
       463.730  
  21987954.611   115547481.51947      2554.546    21987955.882    90037008.91747
      1990.555  
 20 10 01 07 29  5.0000000  0  7G27G15G21G18G24G20G10
  24348033.288   127949779.61145     -1726.753    24348036.817    99701138.35049
     -1345.527  
  21291527.383   111887747.48248     -2520.188    21291526.722    87185264.45849
     -1963.784  
  24750402.640   130064235.32745      2661.160    24750401.544   101348755.36443
      2073.629  
  21633328.913   113683917.96248     -2751.707    21633329.866    88584876.32047
     -2144.190  
  20898639.861   109823122.33748      1599.734    20898641.899    85576481.25849
      1246.542  
  20013977.794   105174163.17648       592.456    20013976.939    81953891.03847
       461.652  
  21985524.716   115534712.05548      2553.577    21985526.079    90027058.65747
      1989.808  
 20 10 01 07 29 10.0000000  0  7G27G15G21G18G24G20G10
  24349677.662   127958420.35845     -1729.503    24349681.114    99707871.40749
     -1347.668  
  21293926.407   111900354.90648     -2522.430    21293925.839    87195088.41249
     -1965.531  
  24747871.165   130050932.83546      2659.878    24747870.093   101338389.80741
      2072.628  
  21635948.726   113697684.57448     -2754.613    21635949.489    88595603.55447
     -2146.456  
  20897119.606   109815133.90748      1596.012    20897121.630    85570256.50949
      1243.641  
  20013415.473   105171208.18948       589.637    20013414.483    81951588.43647
       459.453  
  21983096.186   115521950.01247      2551.684    21983097.720    90017114.21547
      1988.319  
 20 10 01 07 29 15.0000000  0  7G27G15G21G18G24G20G10
  24351324.436   127967074.30745     -1732.015    24351327.809    99714614.69348
     -1349.632  
  21296327.155   111912970.89348     -2524.062    21296326.682    87204919.02549
     -1966.809  
  24745341.259   130037637.25046      2658.444    24745340.135   101328029.61343
      2071.516  
  21638570.589   113711462.84048     -2756.641    21638571.344    88606339.85847
     -2148.081  
  20895602.563   109807161.85648      1592.675    20895604.546    85564044.52349
      1241.043  
  20012855.607   105168266.29448       586.972    20012854.734    81949296.04847
       457.379  
  21980668.804   115509194.49848      2550.374    21980670.358    90007174.85348
      1987.301  
 20 10 01 07 29 20.0000000  0  7G27G15G21G18G24G20G10
  24352973.725   127975741.43946     -1735.054    24352977.191    99721368.32449
     -1351.991  
  21298729.617   111925595.38848     -2525.925    21298728.968    87214756.29849
     -1968.258  
  24742812.407   130024348.66547      2656.680    24742811.438   101317674.80544
      2070.133  
  21641194.741   113725252.82448     -2759.300    21641195.647    88617085.28447
     -2150.109  
  20894088.727   109799206.25148      1589.367    20894090.669    85557845.35449
      1238.465  
  20012298.224   105165337.47548       584.339    20012297.187    81947013.83048
       455.323  
  21978242.778   115496445.52548      2548.757    21978244.469    89997240.58948
      1986.042  
 20 10 01 07 29 25.0000000  0  7G27G15G21G18G24G20G10
  24354625.653   127984422.07046     -1736.987    24354629.007    99728132.45649
     -1353.499  
  21301133.571   111938228.87448     -2527.382    21301132.976    87224600.58749
     -1969.391  
  24740285.125   130011067.33647      2655.530    24740284.152   101307325.71044
      2069.242  
  21643821.184   113739054.80948     -2761.323    21643822.142    88627840.06147
     -2151.684  
  20892577.936   109791267.46148      1586.180    20892580.029    85551659.28549
      1235.979  
  20011743.511   105162422.12748       582.086    20011742.601    81944742.13948
       453.569  
  21975818.083   115483703.47948      2547.750    21975819.705    89987311.70848
      1985.257  
 20 10 01 07 29 30.0000000  0  7G27G15G21G18G24G20G10
  24356279.863   127993115.34345     -1739.867    24356283.188    99734906.42249
     -1355.742  
  21303539.276   111950870.40548     -2529.023    21303538.692    87234451.12349
     -1970.672  
  24737758.957   129997792.41947      2654.410    24737758.052   101296981.62944
      2068.367  
  21646449.693   113752867.93748     -2763.620    21646450.580    88638603.54747
     -2153.391  
  20891070.225   109783344.72748      1583.152    20891072.321    85545485.72449
      1233.621  
  20011191.073   105159519.38648       579.347    20011190.204    81942480.26048
       451.438  
  21973394.518   115470967.49648      2546.397    21973396.240    89977387.55748
      1984.203  
 20 10 01 07 29 35.0000000  0  9G 8G27G13G15G21G18G24G20G10
  24634230.865   129453755.46555        39.340    24634235.804   100873077.54458
        30.651  
  24357936.524   128001821.21946     -1742.831    24357939.826    99741690.23549
     -1358.054  
  23907638.454   125635485.39155     -3492.316    23907639.343    97897789.47254
     -2721.284  
  21305946.487   111963520.01349     -2530.980    21305945.628    87244307.93749
     -1972.195  
  24735233.997   129984523.97646      2652.753    24735233.163   101286642.62744
      2067.082  
  21649080.530   113766692.20348     -2766.297    21649081.255    88649375.68847
     -2155.558  
  20889565.733   109775438.00548      1579.441    20889567.806    85539324.64549
      1230.729  
  20010641.113   105156629.23448       576.698    20010640.242    81940228.19548
       449.371  
  21970972.090   115458237.57948      2545.097    21970974.007    89967468.16848
      1983.190  
 20 10 01 07 29 40.0000000  0  9G 8G27G13G15G21G18G24G20G10
  24634194.845   129453564.46145        36.780    24634199.649   100872928.68648
        28.655  
  24359595.913   128010541.24046     -1745.292    24359599.204    99748485.07949
     -1359.972  
  23910961.277   125652949.34745     -3493.602    23910960.406    97911397.72944
     -2722.293  
  21308355.405   111976179.20948     -2532.848    21308354.765    87254172.26349
     -1973.651  
  24732710.677   129971263.49947      2650.952    24732709.841   101276309.76745
      2065.676  
  21651713.684   113780529.08648     -2768.551    21651714.311    88660157.67747
     -2157.315  
  20888064.343   109767548.77648      1576.245    20888066.732    85533177.18249
      1228.241  
  20010093.822   105153753.23248       573.781    20010092.980    81937987.15548
       447.097  
  21968551.174   115445515.26948      2543.788    21968552.966    89957554.62948
      1982.168  
 20 10 01 07 29 45.0000000  0  9G 8G27G13G15G21G18G24G20G10
  24634161.903   129453389.66244        33.488    24634166.471   100872792.48249
        26.089  
  24361257.887   128019275.03645     -1748.558    24361260.988    99755290.65049
     -1362.516  
  23914284.971   125670416.23045     -3493.477    23914284.328    97925008.32444
     -2722.190  
  21310766.034   111988847.49448     -2534.387    21310765.379    87264043.63849
     -1974.852  
  24730188.746   129958010.56746      2650.151    24730187.899   101265982.80444
      2065.050  
  21654349.067   113794378.20748     -2771.046    21654349.803    88670949.19947
     -2159.270  
  20886566.353   109759676.37849      1572.804    20886568.572    85527042.84249
      1225.558  
  20009549.020   105150890.90648       571.238    20009548.169    81935756.77648
       445.117  
  21966131.605   115432800.09848      2542.340    21966133.424    89947646.69448
      1981.039  
 20 10 01 07 29 50.0000000  0  9G 8G27G13G15G21G18G24G20G10
  24634131.711   129453229.06744        31.183    24634136.049   100872667.31549
        24.292  
  24362922.032   128028020.33645     -1750.848    24362925.246    99762105.10149
     -1364.304  
  23917609.297   125687884.14845     -3493.796    23917606.747    97938619.66741
     -2722.444  
  21313177.982   112001522.80648     -2535.827    21313177.458    87273920.51049
     -1975.972  
  24727667.889   129944763.06147      2648.765    24727667.275   101255660.08244
      2063.968  
  21656986.405   113808237.35748     -2772.819    21656987.041    88681748.53047
     -2160.641  
  20885071.218   109751819.04748      1569.785    20885073.583    85520920.27049
      1223.206  
  20009006.694   105148040.18148       568.819    20009005.791    81933535.42348
       443.234  
  21963712.736   115420089.98048      2541.641    21963714.857    89937742.78448
      1980.503  
 20 10 01 07 29 55.0000000  0  9G 8G27G13G15G21G18G24G20G10
  24634103.995   129453083.85745        27.305    24634108.241   100872554.19649
        21.276  
  24364588.662   128036778.37745     -1753.270    24364591.638    99768929.54549
     -1366.187  
  23920934.179   125705354.20645     -3493.777    23920932.994    97952232.71744
     -2722.421  
  21315591.645   112014206.34448     -2537.359    21315590.991    87283803.77649
     -1977.167  
  24725148.197   129931522.33247      2647.573    24725147.415   101245342.67844
      2063.042  
  21659625.801   113822107.85448     -2775.363    21659626.494    88692556.71247
     -2162.625  
  20883578.926   109743977.93649      1566.683    20883581.498    85514810.30849
      1220.788  
  20008466.649   105145202.28748       566.378    20008465.880    81931324.07748
       441.331  
  21961295.385   115407386.24648      2539.906    21961297.475    89927843.76048
      1979.144  
 20 10 01 07 30  0.0000000  0  7G27G15G21G18G24G20G10
  24366257.870   128045550.87244     -1756.401    24366260.993    99775765.30649
     -1368.625  
  21318007.008   112026899.72748     -2540.082    21318006.505    87293694.71449
     -1979.289  
  24722630.054   129918289.87247      2645.487    24722629.387   101235031.67844
      2061.422  
  21662267.845   113835991.23248     -2778.406    21662268.392    88703374.90347
     -2164.999  
  20882090.259   109736154.50148      1562.453    20882092.843    85508714.10849
      1217.492  
  20007929.243   105142378.91948       562.734    20007928.654    81929124.04248
       438.492  
  21958879.393   115394690.43448      2537.852    21958881.551    89917950.83049
      1977.526  
 20 10 01 07 30  5.0000000  0  9G 8G27G13G15G21G18G24G20G10
  24634058.282   129452842.72355        20.809    24634062.534   100872370.84559
        16.211  
  24367930.188   128054338.12246     -1758.242    24367933.088    99782612.44349
     -1370.074  
  23927584.768   125740309.22555     -3495.562    23927582.362    97979443.04953
     -2723.827  
  21320424.450   112039603.18948     -2541.105    21320423.966    87303593.53049
     -1980.086  
  24720113.814   129905066.06947      2644.460    24720113.043   101224727.36044
      2060.612  
  21664912.180   113849887.80348     -2779.663    21664912.954    88714203.41047
     -2165.977  
  20880605.025   109728349.13748      1559.921    20880607.588    85502632.01949
      1215.520  
  20007394.873   105139570.22548       561.117    20007394.087    81926935.45448
       437.229  
  21956464.934   115382002.80548      2537.433    21956467.330    89908064.43648
      1977.226  
 20 10 01 07 30 10.0000000  0  9G 8G27G13G15G21G18G24G20G10
  24634039.011   129452744.89145        17.977    24634044.464   100872294.60548
        14.003  
  24369604.312   128063135.76545     -1760.679    24369607.179    99789467.75149
     -1371.961  
  23930910.875   125757787.13345     -3495.847    23930912.390    97993062.24041
     -2724.031  
  21322842.859   112052312.57848     -2542.844    21322842.389    87313496.97349
     -1981.440  
  24717598.097   129891846.63746      2643.211    24717597.514   101214426.53444
      2059.641  
  21667558.412   113863793.31448     -2782.241    21667559.007    88725038.87047
     -2167.983  
  20879122.250   109720557.66548      1556.495    20879124.785    85496560.75149
      1212.851  
  20006862.432   105136772.07148       558.308    20006861.726    81924755.08548
       435.042  
  21954051.439   115369319.17948      2535.925    21954053.774    89898181.07948
      1976.043  
 20 10 01 07 30 15.0000000  0  9G 8G27G13G15G21G18G24G20G10
  24634024.913   129452664.11845        15.054    24634029.280   100872231.67749
        11.727  
  24371281.154   128071947.78646     -1763.574    24371284.158    99796334.26449
     -1374.219  
  23934237.468   125775268.87345     -3496.222    23934237.711    98006684.31243
     -2724.336  
  21325263.159   112065031.84248     -2544.409    21325262.995    87323408.07749
     -1982.659  
  24715084.113   129878635.65647      2641.558    24715083.641   101204132.26845
      2058.354  
  21670206.919   113877711.75348     -2784.683    21670207.764    88735884.39947
     -2169.887  
  20877643.082   109712784.14549      1553.163    20877645.625    85490503.46149
      1210.254  
  20006332.655   105133988.44748       555.684    20006332.050    81922586.02848
       432.995  
  21951639.240   115356643.61348      2534.715    21951641.680    89888304.01848
      1975.097  
 20 10 01 07 30 20.0000000  0  9G 8G27G13G15G21G18G24G20G10
  24634013.117   129452597.16245        11.699    24634016.210   100872179.47249
         9.113  
  24372960.380   128080771.08146     -1766.284    24372963.156    99803209.57349
     -1376.327  
  23937564.512   125792751.28945     -3496.355    23937563.213    98020306.96541
     -2724.437  
  21327684.815   112077757.79148     -2546.112    21327684.607    87333324.39349
     -1983.987  
  24712571.111   129865429.86747      2640.457    24712570.866   101193842.06144
      2057.495  
  21672857.342   113891639.97548     -2787.038    21672858.202    88746737.56047
     -2171.723  
  20876166.555   109705025.44348      1550.147    20876169.121    85484457.70449
      1207.905  
  20005805.156   105131216.20148       553.081    20005804.357    81920425.83848
       430.969  
  21949227.995   115343972.90148      2533.480    21949230.291    89878430.69248
      1974.132  
 20 10 01 07 30 25.0000000  0  9G 8G27G13G15G21G18G24G20G10
  24634003.383   129452546.16445         8.492    24634006.431   100872139.74048
         6.613  
  24374641.854   128089607.56845     -1769.390    24374644.787    99810095.13349
     -1378.750  
  23940891.926   125810236.40746     -3497.359    23940889.456    98033931.81341
     -2725.211  
  21330108.202   112090492.34048     -2548.081    21330107.913    87343247.39249
     -1985.526  
  24710059.511   129852231.34846      2639.129    24710059.114   101183557.51145
      2056.461  
  21675510.032   113905579.89148     -2789.405    21675510.852    88757599.81547
     -2173.559  
  20874693.304   109697283.33448      1546.413    20874695.812    85478424.90649
      1204.995  
  20005280.140   105128457.25748       550.156    20005279.590    81918276.00348
       428.690  
  21946818.094   115331308.97747      2531.858    21946820.355    89868562.78248
      1972.882  
 20 10 01 07 30 30.0000000  0  9G 8G27G13G15G21G18G24G20G10
  24633996.696   129452512.21645         5.578    24633999.945   100872113.30648
         4.344  
  24376326.135   128098458.49546     -1771.069    24376328.854    99816991.94849
     -1380.059  
  23944219.945   125827725.35845     -3498.077    23944217.952    98047559.44841
     -2725.784  
  21332533.293   112103236.77648     -2549.695    21332533.198    87353178.12349
     -1986.776  
  24707549.503   129839041.29547      2637.272    24707549.142   101173279.56844
      2055.016  
  21678165.191   113919532.72248     -2791.703    21678166.179    88768472.15347
     -2175.354  
  20873223.471   109689559.18449      1543.148    20873226.176    85472406.08849
      1202.449  
  20004757.803   105125712.91748       547.656    20004757.244    81916137.55448
       426.741  
  21944409.895   115318653.14648      2530.621    21944412.083    89858701.09148
      1971.910  
 20 10 01 07 30 35.0000000  0  9G 8G27G13G15G21G18G24G20G10
  24633992.961   129452494.21245         2.616    24633996.417   100872099.26649
         2.034  
  24378012.850   128107322.64945     -1773.538    24378015.798    99823899.07749
     -1381.979  
  23947548.239   125845216.91145     -3498.487    23947543.310    98061189.29543
     -2726.093  
  21334960.312   112115990.00449     -2551.499    21334959.943    87363115.70949
     -1988.183  
  24705040.873   129825858.51047      2636.023    24705040.656   101163007.26544
      2054.043  
  21680822.628   113933497.30648     -2794.054    21680823.438    88779353.65247
     -2177.187  
  20871756.702   109681851.82448      1539.933    20871759.460    85466400.35149
      1199.945  
  20004238.318   105122982.01048       544.926    20004237.608    81914009.57348
       424.613  
  21942002.813   115306004.22048      2529.042    21942004.854    89848844.79848
      1970.679  
 20 10 01 07 30 40.0000000  0  9G 8G27G13G15G21G18G24G20G10
  24633992.446   129452492.44345        -1.034    24633995.653   100872097.88548
        -0.808  
  24379702.250   128116200.25445     -1776.737    24379704.991    99830816.66849
     -1384.476  
  23950877.074   125862711.27944     -3498.776    23950873.005    98074821.18243
     -2726.332  
  21337388.822   112128752.09749     -2553.062    21337388.691    87373060.18349
     -1989.401  
  24702533.761   129812683.20147      2634.582    24702533.474   101152740.80644
      2052.918  
  21683482.174   113947473.78048     -2796.410    21683483.124    88790244.40447
     -2179.022  
  20870293.354   109674161.44248      1536.555    20870295.886    85460407.85149
      1197.312  
  20003721.106   105120264.66448       542.328    20003720.644    81911892.16348
       422.589  
  21939597.072   115293362.37648      2527.898    21939599.319    89838994.00349
      1969.788  
 20 10 01 07 30 45.0000000  0  9G 8G27G13G15G21G18G24G20G10
  24633995.364   129452506.46445        -4.007    24633998.476   100872108.79048
        -3.124  
  24381394.108   128125091.03145     -1779.727    24381396.816    99837744.56349
     -1386.805  
  23954206.518   125880208.21645     -3500.343    23954203.883    98088455.25841
     -2727.531  
  21339818.868   112141522.82848     -2555.073    21339818.890    87383011.40749
     -1990.969  
  24700027.991   129799515.20147      2633.015    24700027.954   101142480.02944
      2051.698  
  21686143.983   113961461.99248     -2798.855    21686145.021    88801144.30347
     -2180.929  
  20868833.019   109666487.88848      1532.952    20868835.719    85454428.46349
      1194.503  
  20003206.582   105117560.76048       539.363    20003206.123    81909785.22448
       420.280  
  21937192.668   115280727.45848      2525.983    21937194.801    89829148.61948
      1968.296  
 20 10 01 07 30 50.0000000  0  8G 8G27G15G21G18G24G20G10
  24634001.055   129452535.77945        -6.293    24634004.143   100872131.65049
        -4.905  
  24383088.278   128133994.35745     -1781.843    24383091.118    99844682.22649
     -1388.452  
  21342250.636   112154301.53849     -2556.479    21342250.557    87392968.83449
     -1992.066  
  24697523.352   129786353.94947      2631.523    24697523.306   101132224.53845
      2050.538  
  21688808.090   113975461.31548     -2800.996    21688808.866    88812052.86247
     -2182.597  
  20867375.937   109658830.46448      1529.851    20867378.514    85448461.63949
      1192.089  
  20002694.535   105114869.65648       537.069    20002694.039    81907688.26248
       418.491  
  21934789.382   115268098.85548      2525.520    21934791.710    89819308.14748
      1967.933  
 20 10 01 07 30 55.0000000  0  8G 8G27G15G21G18G24G20G10
  24634009.541   129452580.52645       -10.784    24634012.629   100872166.52749
        -8.406  
  24384784.874   128142910.43846     -1784.707    24384787.611    99851629.77149
     -1390.687  
  21344683.938   112167088.40849     -2558.430    21344683.947    87402932.63049
     -1993.585  
  24695020.228   129773199.53847      2629.961    24695020.177   101121974.32944
      2049.315  
  21691474.080   113989471.78048     -2803.339    21691475.167    88822970.11147
     -2184.426  
  20865921.892   109651189.28249      1526.449    20865924.469    85442507.47349
      1189.437  
  20002184.955   105112191.45148       534.147    20002184.386    81905601.35148
       416.214  
  21932387.460   115255476.63948      2523.854    21932389.659    89809472.68248
      1966.640  
 20 10 01 07 31  0.0000000  0  9G 8G27G13G15G21G18G24G20G10
  24634021.069   129452641.63645       -13.617    24634024.419   100872214.14848
       -10.613  
  24386484.225   128151840.11946     -1787.023    24386486.805    99858587.96749
     -1392.488  
  23964199.240   125932703.60554     -3501.320    23964195.810    98129371.77951
     -2728.304  
  21347118.930   112179884.34649     -2559.854    21347119.013    87412903.50349
     -1994.695  
  24692518.441   129760052.90647      2628.707    24692518.321   101111730.20944
      2048.340  
  21694142.569   114003494.43948     -2805.578    21694143.421    88833896.85047
     -2186.147  
  20864471.044   109643565.58848      1523.270    20864473.607    85436566.93649
      1186.960  
  20001678.023   105109527.12848       531.809    20001677.429    81903525.25748
       414.395  
  21929986.872   115242861.87048      2522.499    21929989.056    89799642.95748
      1965.577  
 20 10 01 07 31  5.0000000  0  8G 8G27G15G21G18G24G20G10
  24634035.430   129452716.20146       -17.144    24634038.606   100872272.24249
       -13.362  
  24388185.466   128160780.54446     -1789.968    24388188.222    99865554.54949
     -1394.785  
  21349555.059   112192686.47849     -2561.854    21349555.304    87422879.17849
     -1996.253  
  24690017.804   129746911.15247      2626.808    24690017.400   101101489.88844
      2046.858  
  21696812.743   114017526.26948     -2808.051    21696813.574    88844830.74247
     -2188.094  
  20863023.085   109635956.01048      1519.519    20863025.691    85430637.40149
      1184.038  
  20001173.010   105106873.76948       528.753    20001172.421    81901457.70748
       412.012  
  21927587.238   115230251.58048      2521.051    21927589.423    89789816.76448
      1964.452  
 20 10 01 07 31 10.0000000  0  8G 8G27G15G21G18G24G20G10
  24634053.091   129452809.25846       -20.339    24634056.115   100872344.75049
       -15.852  
  24389889.722   128169736.62645     -1792.445    24389892.595    99872533.35749
     -1396.710  
  21351993.271   112205499.77849     -2563.483    21351993.546    87432863.55749
     -1997.522  
  24687518.916   129733779.31847      2625.594    24687518.587   101091257.29044
      2045.914  
  21699485.609   114031572.33548     -2810.335    21699486.438    88855775.70747
     -2189.875  
  20861578.521   109628365.87348      1516.379    20861581.419    85424723.00649
      1181.589  
  20000671.208   105104236.34348       526.484    20000670.581    81899402.57048
       410.246  
  21925189.321   115217650.75847      2519.348    21925191.534    89779997.90448
      1963.124  
 20 10 01 07 31 15.0000000  0  8G 8G27G15G21G18G24G20G10
  24634073.492   129452917.00146       -23.101    24634076.527   100872428.70748
       -18.003  
  24391596.316   128178704.61946     -1794.776    24391599.188    99879521.38249
     -1398.530  
  21354433.027   112218320.46649     -2564.977    21354433.265    87442853.70749
     -1998.688  
  24685021.112   129720653.64047      2624.316    24685020.809   101081029.49744
      2044.918  
  21702160.388   114045628.80148     -2812.433    21702161.249    88866728.79847
     -2191.511  
  20860137.151   109620791.32948      1513.288    20860139.813    85418820.77649
      1179.184  
  20000171.693   105101611.18448       523.636    20000170.939    81897356.99348
       408.027  
  21922792.545   115205055.70548      2518.226    21922794.841    89770183.59748
      1962.249  
 20 10 01 07 31 20.0000000  0  8G 8G27G15G21G18G24G20G10
  24634096.794   129453040.35945       -26.238    24634099.866   100872524.84248
       -20.448  
  24393305.381   128187685.66046     -1797.448    24393308.196    99886519.57849
     -1400.612  
  21356874.320   112231149.64549     -2566.734    21356874.667    87452850.46549
     -2000.054  
  24682524.841   129707535.14947      2622.816    24682524.601   101070807.31844
      2043.754  
  21704837.427   114059696.80148     -2814.655    21704838.261    88877690.86947
     -2193.241  
  20858698.856   109613233.63048      1509.999    20858701.653    85412931.65549
      1176.621  
  19999674.673   105098999.36248       520.965    19999673.979    81895321.80848
       405.945  
  21920397.133   115192467.45048      2516.905    21920399.368    89760374.56848
      1961.222  
 20 10 01 07 31 25.0000000  0  8G 8G27G15G21G18G24G20G10
  24634123.160   129453179.84745       -29.499    24634126.405   100872633.54348
       -22.988  
  24395016.871   128196679.97746     -1800.395    24395019.890    99893528.12049
     -1402.905  
  21359317.323   112243987.58548     -2568.562    21359317.775    87462854.05349
     -2001.480  
  24680029.868   129694424.22647      2621.565    24680029.896   101060591.04345
      2042.780  
  21707516.734   114073776.58948     -2816.976    21707517.726    88888662.14347
     -2195.051  
  20857263.799   109605692.94648      1506.340    20857266.658    85407055.80949
      1173.770  
  19999180.300   105096401.09948       518.293    19999179.674    81893297.18148
       403.863  
  21918003.066   115179886.35547      2515.585    21918005.407    89750571.13447
      1960.194  
 20 10 01 07 31 30.0000000  0  8G 8G27G15G21G18G24G20G10
  24634152.595   129453334.96945       -32.047    24634155.884   100872754.41348
       -24.976  
  24396731.016   128205687.21246     -1802.476    24396733.838    99900546.75949
     -1404.531  
  21361761.840   112256833.86149     -2569.938    21361762.348    87472864.13849
     -2002.551  
  24677536.264   129681320.50247      2620.152    24677536.325   101050380.31545
      2041.676  
  21710198.157   114087867.78148     -2819.378    21710199.147    88899642.27247
     -2196.921  
  20855832.030   109598168.82748      1503.479    20855834.846    85401192.84449
      1171.539  
  19998688.398   105093816.10748       515.699    19998687.601    81891282.90948
       401.839  
  21915610.343   115167312.04348      2514.292    21915612.471    89740772.93048
      1959.187  
 20 10 01 07 31 35.0000000  0  8G 8G27G15G21G18G24G20G10
  24634185.059   129453505.25645       -35.543    24634188.342   100872887.10348
       -27.698  
  24398447.251   128214706.71446     -1804.976    24398450.158    99907574.93048
     -1406.477  
  21364208.084   112269688.02349     -2571.675    21364208.362    87482880.37449
     -2003.905  
  24675043.949   129668223.45347      2618.683    24675043.801   101040174.84845
      2040.531  
  21712881.670   114101969.79848     -2821.395    21712882.482    88910630.86147
     -2198.491  
  20854403.303   109590660.84348      1499.895    20854406.212    85395342.47949
      1168.746  
  19998198.780   105091243.76948       513.105    19998198.206    81889278.48148
       399.820  
  21913218.586   115154743.93348      2512.843    21913220.975    89730979.62248
      1958.059  
 20 10 01 07 31 40.0000000  0  8G 8G27G15G21G18G24G20G10
  24634220.616   129453692.45145       -38.684    24634223.689   100873032.96949
       -30.144  
  24400166.342   128223740.37746     -1807.948    24400169.422    99914614.15349
     -1408.792  
  21366655.865   112282551.79049     -2573.727    21366656.312    87492904.07149
     -2005.503  
  24672553.226   129655134.83347      2617.168    24672553.173   101029975.92445
      2039.348  
  21715567.684   114116084.43348     -2824.086    21715568.550    88921629.26547
     -2200.589  
  20852978.004   109583170.72349      1496.230    20852980.985    85389506.00749
      1165.891  
  19997712.025   105088685.88948       510.437    19997711.458    81887285.33048
       397.742  
  21910828.528   115142183.87248      2511.438    21910830.915    89721192.54048
      1956.952  
 20 10 01 07 31 45.0000000  0  8G 8G27G15G21G18G24G20G10
  24634259.001   129453894.26145       -41.629    24634262.238   100873190.22749
       -32.440  
  24401887.610   128232785.73346     -1810.031    24401890.634    99921662.47949
     -1410.418  
  21369105.160   112295422.76549     -2574.930    21369105.488    87502933.41249
     -2006.440  
  24670063.792   129642052.30346      2616.233    24670063.754   101019781.73245
      2038.620  
  21718255.608   114130209.31548     -2826.047    21718256.325    88932635.66147
     -2202.116  
  20851555.753   109575696.17948      1493.483    20851558.420    85383681.68549
      1163.750  
  19997227.748   105086140.12248       508.211    19997226.946    81885301.61848
       396.004  
  21908439.604   115129629.43048      2510.394    21908441.834    89711409.84148
      1956.147  
 20 10 01 07 31 50.0000000  0  8G 8G27G15G21G18G24G20G10
  24634300.228   129454111.75445       -45.113    24634303.506   100873359.71348
       -35.155  
  24403611.293   128241843.99845     -1813.352    24403614.242    99928720.83448
     -1413.008  
  21371556.142   112308302.07849     -2576.684    21371556.361    87512969.23549
     -2007.808  
  24667575.502   129628976.99947      2614.559    24667575.703   101009593.20245
      2037.316  
  21720945.574   114144345.56048     -2828.468    21720946.296    88943650.92647
     -2204.003  
  20850136.560   109568238.33649      1489.730    20850139.298    85377870.40249
      1160.827  
  19996745.746   105083607.62048       505.073    19996745.102    81883328.23348
       393.563  
  21906051.807   115117081.78348      2508.727    21906054.216    89701632.54048
      1954.854  
 20 10 01 07 31 55.0000000  0  8G 8G27G15G21G18G24G20G10
  24634344.581   129454344.86146       -47.866    24634347.981   100873541.33049
       -37.301  
  24405337.439   128250914.92945     -1815.487    24405340.487    99935789.14248
     -1414.663  
  21374008.438   112321189.63248     -2578.276    21374008.734    87523011.47849
     -2009.050  
  24665088.739   129615908.81646      2613.065    24665088.888   100999410.23845
      2036.156  
  21723637.895   114158493.05148     -2830.405    21723638.482    88954674.91547
     -2205.520  
  20848720.591   109560797.08649      1486.523    20848723.318    85372072.01249
      1158.327  
  19996266.373   105081088.21548       502.761    19996265.692    81881365.06748
       391.757  
  21903665.319   115104540.86448      2507.734    21903667.832    89691860.32148
      1954.065  
 20 10 01 07 32  0.0000000  0  8G 8G27G15G21G18G24G20G10
  24634391.753   129454592.78545       -51.632    24634395.104   100873734.50848
       -40.237  
  24407065.868   128259997.94746     -1818.059    24407068.743    99942866.78049
     -1416.671  
  21376462.275   112334084.66449     -2580.058    21376462.537    87533059.54949
     -2010.437  
  24662603.294   129602847.08647      2611.316    24662603.390   100989232.25545
      2034.788  
  21726332.092   114172651.05848     -2832.891    21726332.899    88965707.13147
     -2207.449  
  20847307.478   109553371.59448      1483.183    20847310.031    85366285.93049
      1155.723  
  19995789.309   105078581.26248       499.777    19995788.498    81879411.59848
       389.433  
  21901279.975   115092005.94948      2506.203    21901282.395    89682092.88448
      1952.883  
 20 10 01 07 32  5.0000000  0  8G 8G27G15G21G18G24G20G10
  24634442.230   129454857.23145       -54.765    24634445.406   100873940.58049
       -42.676  
  24408796.973   128269094.65346     -1820.313    24408799.898    99949955.13349
     -1418.430  
  21378917.831   112346988.95348     -2581.519    21378918.066    87543114.84149
     -2011.578  
  24660119.165   129589793.52947      2610.183    24660119.291   100979060.66145
      2033.906  
  21729028.602   114186821.31648     -2835.151    21729029.263    88976748.88447
     -2209.211  
  20845897.794   109545963.75249      1479.969    20845900.415    85360513.57249
      1153.219  
  19995314.891   105076088.51948       497.148    19995314.227    81877469.19848
       387.386  
  21898896.142   115079478.79448      2504.886    21898898.674    89672331.44448
      1951.851  
 20 10 01 07 32 10.0000000  0  8G 8G27G15G21G18G24G20G10
  24634495.498   129455137.90446       -58.168    24634498.887   100874159.29449
       -45.328  
  24410530.565   128278204.70545     -1824.026    24410533.321    99957053.86949
     -1421.324  
  21381375.095   112359901.98849     -2583.757    21381375.291    87553176.95449
     -2013.319  
  24657636.545   129576747.67746      2608.191    24657636.937   100968895.05545
      2032.354  
  21731727.387   114201003.33748     -2837.957    21731728.075    88987799.82047
     -2211.397  
  20844491.547   109538573.12449      1476.019    20844493.987    85354754.64049
      1150.141  
  19994843.169   105073609.51248       494.168    19994842.413    81875537.50948
       385.062  
  21896513.623   115066958.88447      2502.897    21896516.186    89662575.68048
      1950.309  
 20 10 01 07 32 15.0000000  0  8G 8G27G15G21G18G24G20G10
  24634551.618   129455432.94345       -60.770    24634555.048   100874389.20449
       -47.354  
  24412266.457   128287326.13045     -1825.866    24412269.196    99964161.42548
     -1422.765  
  21383833.889   112372822.07149     -2584.940    21383833.990    87563244.54249
     -2014.242  
  24655155.085   129563707.82947      2607.238    24655155.494   100958734.18045
      2031.613  
  21734428.080   114215195.39048     -2839.621    21734428.854    88998858.55947
     -2212.694  
  20843087.958   109531197.86848      1473.187    20843090.495    85349007.70149
      1147.933  
  19994373.714   105071142.57148       491.976    19994373.045    81873615.21148
       383.355  
  21894132.280   115054444.56248      2501.988    21894134.901    89652824.27748
      1949.601  
 20 10 01 07 32 20.0000000  0  8G 8G27G15G21G18G24G20G10
  24634610.990   129455744.35045       -63.542    24634614.151   100874631.84648
       -49.515  
  24414004.864   128296461.20846     -1828.535    24414007.533    99971279.65349
     -1424.836  
  21386294.187   112385751.18048     -2586.836    21386294.379    87573319.17449
     -2015.718  
  24652675.126   129550675.99447      2605.335    24652675.515   100948579.51945
      2030.128  
  21737131.010   114229399.47648     -2841.972    21737131.821    89009926.69147
     -2214.526  
  20841687.946   109523840.07048      1469.690    20841690.410    85343274.36749
      1145.211  
  19993906.929   105068689.69348       489.034    19993906.109    81871703.87548
       381.063  
  21891752.317   115041937.80448      2500.711    21891754.806    89643078.81248
      1948.604  
 20 10 01 07 32 25.0000000  0  8G 8G27G15G21G18G24G20G10
  24634673.158   129456071.98345       -67.523    24634676.683   100874887.15349
       -52.616  
  24415745.716   128305609.50845     -1830.562    24415748.604    99978408.20549
     -1426.413  
  21388756.212   112398689.11449     -2588.312    21388756.233    87583400.67749
     -2016.871  
  24650196.687   129537651.98947      2604.034    24650197.040   100938430.92045
      2029.112  
  21739836.264   114243615.39948     -2844.293    21739837.179    89021004.02747
     -2216.336  
  20840291.020   109516499.51448      1466.538    20840293.532    85337554.44849
      1142.753  
  19993442.798   105066250.63448       486.456    19993442.104    81869803.32048
       379.054  
  21889373.883   115029438.51748      2499.187    21889376.437    89633339.07248
      1947.417  
 20 10 01 07 32 30.0000000  0  8G 8G27G15G21G18G24G20G10
  24634738.440   129456414.20045       -69.934    24634741.648   100875153.83049
       -54.496  
  24417488.843   128314769.51746     -1833.237    24417491.572    99985545.89949
     -1428.499  
  21391219.567   112411634.19749     -2589.773    21391219.547    87593487.75749
     -2018.007  
  24647719.602   129524634.19447      2602.733    24647719.990   100928287.19045
      2028.101  
  21742543.408   114257841.47348     -2846.125    21742544.250    89032089.27847
     -2217.761  
  20838897.127   109509174.53048      1463.421    20838899.595    85331846.66449
      1140.323  
  19992980.972   105063823.75448       483.960    19992980.314    81867912.24248
       377.109  
  21886996.403   115016944.96147      2497.854    21886998.780    89623603.83748
      1946.379  
 20 10 01 07 32 35.0000000  0  8G 8G27G15G21G18G24G20G10
  24634806.736   129456773.25145       -73.534    24634809.997   100875433.61448
