     2.11           OBSERVATION DATA    G                   RINEX VERSION / TYPE
LEICA GEO OFFICE 8.4                    1-10-20 21:50       PGM / RUN BY / DATE
                                                            OBSERVER / AGENCY
obgn                                                        MARKER NAME
obgn                                                        MARKER NUMBER
457569              LEICA GX1220        2.14                REC # / TYPE / VERS
                    LEIAX1202                               ANT # / TYPE
 -1251312.0481  3776423.6826  4969927.0200                  APPROX POSITION XYZ
        1.1810        0.0000        0.0000                  ANTENNA: DELTA H/E/N
L1PhaOff:   0.0648  L2PhaOff:   0.0622                      COMMENT
     1     1                                                WAVELENGTH FACT L1/2
     6    C1    L1    D1    P2    L2    D2                  # / TYPES OF OBSERV
  2020    10     1     4    24   20.0000000     GPS         TIME OF FIRST OBS
  2020    10     1     7    22   20.0000000     GPS         TIME OF LAST OBS
    18                                                      LEAP SECONDS
    14                                                      # OF SATELLITES
          C1    L1    D1    P2    L2    D2                  COMMENT
   G 1     0     0     0     0     0     0                  PRN / # OF OBS
   G 2   564   564   564   564   564   564                  PRN / # OF OBS
   G 3     0     0     0     0     0     0                  PRN / # OF OBS
   G 4     0     0     0     0     0     0                  PRN / # OF OBS
   G 5  1514  1514  1514  1514  1514  1514                  PRN / # OF OBS
   G 6     0     0     0     0     0     0                  PRN / # OF OBS
   G 7   507   507   507   506   506   506                  PRN / # OF OBS
   G 8   160   160   160   160   160   160                  PRN / # OF OBS
   G 9     0     0     0     0     0     0                  PRN / # OF OBS
   G10   911   911   911   911   911   911                  PRN / # OF OBS
   G11     0     0     0     0     0     0                  PRN / # OF OBS
   G12     0     0     0     0     0     0                  PRN / # OF OBS
   G13  1938  1938  1938  1934  1934  1934                  PRN / # OF OBS
   G14     0     0     0     0     0     0                  PRN / # OF OBS
   G15  2137  2137  2137  2137  2137  2137                  PRN / # OF OBS
   G16     0     0     0     0     0     0                  PRN / # OF OBS
   G17     0     0     0     0     0     0                  PRN / # OF OBS
   G18  2137  2137  2137  2137  2137  2137                  PRN / # OF OBS
   G19     0     0     0     0     0     0                  PRN / # OF OBS
   G20  1928  1928  1928  1927  1927  1927                  PRN / # OF OBS
   G21    94    94    94    94    94    94                  PRN / # OF OBS
   G22     0     0     0     0     0     0                  PRN / # OF OBS
   G23     0     0     0     0     0     0                  PRN / # OF OBS
   G24  1143  1143  1143  1143  1143  1143                  PRN / # OF OBS
   G25     0     0     0     0     0     0                  PRN / # OF OBS
   G26     0     0     0     0     0     0                  PRN / # OF OBS
   G27  1179  1179  1179  1178  1178  1178                  PRN / # OF OBS
   G28     0     0     0     0     0     0                  PRN / # OF OBS
   G29  1204  1204  1204  1204  1204  1204                  PRN / # OF OBS
   G30  1189  1189  1189  1189  1189  1189                  PRN / # OF OBS
   G31     0     0     0     0     0     0                  PRN / # OF OBS
   G32     0     0     0     0     0     0                  PRN / # OF OBS
                                                            END OF HEADER
 20 10 01 04 24 20.0000000  0  8G29G 2G13G15G 5G18G 7G30
  21379083.709   112347843.30148     -1494.304    21379084.119    87543773.14649
     -1164.394  
  23086855.984   121322243.67648     -2784.000    23086855.531    94536808.53147
     -2169.354  
  20991782.917   110312564.83949      1908.362    20991782.861    85957841.45847
      1487.031  
  22132774.117   116308518.34948      3416.839    22132775.167    90630017.52749
      2662.469  
  20744426.290   109012695.83349     -1798.640    20744426.466    84944956.36749
     -1401.543  
  22537989.440   118437936.14747      3019.788    22537990.593    92289305.14546
      2353.077  
  24589511.360   129218756.79147      -258.386    24589512.135   100689943.94146
      -201.344  
  23995511.158   126097259.81746      1251.191    23995514.971    98257620.72845
       974.949  
 20 10 01 04 24 25.0000000  0  8G29G 2G13G15G 5G18G 7G30
  21380507.098   112355323.13548     -1497.465    21380507.384    87549601.58449
     -1166.859  
  23089505.669   121336167.86848     -2785.438    23089505.192    94547658.51247
     -2170.477  
  20989968.615   110303030.83949      1905.285    20989968.639    85950412.36347
      1484.633  
  22129524.101   116291439.30148      3415.120    22129525.212    90616709.18949
      2661.129  
  20746138.760   109021694.14649     -1800.421    20746138.857    84951968.04149
     -1402.930  
  22535116.800   118422840.38647      3018.628    22535117.968    92277542.22446
      2352.176  
  24589758.558   129220055.85447      -261.323    24589759.589   100690956.19347
      -203.633  
  23994321.941   126091009.31246      1248.851    23994325.665    98252750.21945
       973.129  
 20 10 01 04 24 30.0000000  0  8G29G 2G13G15G 5G18G 7G30
  21381933.356   112362818.70148     -1500.979    21381933.832    87555442.27449
     -1169.597  
  23092156.672   121350098.32748     -2787.188    23092156.128    94558513.43247
     -2171.836  
  20988157.150   110293511.61848      1902.160    20988157.112    85942994.77647
      1482.199  
  22126275.608   116274368.73048      3412.909    22126276.691    90603407.44449
      2659.405  
  20747852.763   109030701.32149     -1802.628    20747852.711    84958986.61349
     -1404.647  
  22532245.112   118407749.59547      3017.355    22532246.255    92265783.16546
      2351.183  
  24590008.394   129221368.62647      -264.808    24590009.454   100691979.16146
      -206.343  
  23993134.816   126084771.64744      1245.637    23993138.649    98247889.67845
       970.620  
 20 10 01 04 24 35.0000000  0  8G29G 2G13G15G 5G18G 7G30
  21383362.862   112370330.55948     -1504.483    21383363.213    87561295.66249
     -1172.327  
  23094808.846   121364035.65748     -2788.754    23094808.261    94569373.69547
     -2173.059  
  20986348.530   110284007.72548      1898.835    20986348.737    85935589.15647
      1479.609  
  22123029.002   116257307.26748      3410.875    22123029.873    90590112.80249
      2657.820  
  20749568.464   109039717.95249     -1804.613    20749568.520    84966012.56249
     -1406.194  
  22529374.558   118392664.48147      3016.241    22529375.554    92254028.53146
      2350.315  
  24590261.223   129222695.75057      -267.293    24590261.786   100693013.26155
      -208.285  
  23991950.258   126078547.25145      1243.430    23991954.057    98243039.50344
       968.901  
 20 10 01 04 24 40.0000000  0  8G29G 2G13G15G 5G18G 7G30
  21384795.775   112377860.00348     -1507.675    21384796.020    87567162.76749
     -1174.815  
  23097462.753   121377981.12448     -2789.934    23097462.072    94580240.26247
     -2173.977  
  20984543.137   110274520.47648      1895.750    20984543.302    85928196.48347
      1477.202  
  22119784.301   116240256.21548      3409.105    22119785.269    90576826.28349
      2656.440  
  20751286.447   109048745.35949     -1806.597    20751286.256    84973046.90549
     -1407.742  
  22526505.343   118377586.30947      3014.992    22526506.345    92242279.31646
      2349.340  
  24590516.420   129224038.53947      -269.949    24590517.295   100694059.62546
      -210.347  
  23990768.433   126072337.47047      1240.578    23990772.413    98238200.74646
       966.683  
 20 10 01 04 24 45.0000000  0  8G29G 2G13G15G 5G18G 7G30
  21386231.564   112385405.44048     -1510.647    21386232.012    87573042.32049
     -1177.133  
  23100117.814   121391933.19048     -2791.085    23100117.070    94591112.00246
     -2174.875  
  20982740.610   110265048.25949      1892.918    20982740.741    85920815.54847
      1474.995  
  22116541.150   116223213.96548      3407.480    22116542.125    90563546.61849
      2655.175  
  20753005.953   109057781.95449     -1808.348    20753005.962    84980088.40849
     -1409.105  
  22523637.045   118362513.49047      3014.062    22523638.102    92230534.27946
      2348.616  
  24590774.995   129225395.30047      -272.480    24590775.260   100695116.85346
      -212.323  
  23989589.278   126066140.78447      1238.098    23989593.498    98233372.15946
       964.750  
 20 10 01 04 24 50.0000000  0  8G29G 2G13G15G 5G18G 7G30
  21387670.419   112392966.86348     -1513.999    21387670.925    87578934.33549
     -1179.742  
  23102774.016   121405891.78348     -2792.473    23102773.059    94601988.83346
     -2175.956  
  20980940.929   110255591.12348      1889.676    20980941.160    85913446.34747
      1472.473  
  22113299.919   116206180.55848      3405.668    22113300.707    90550273.83649
      2653.765  
  20754727.360   109066827.69949     -1810.120    20754727.370    84987137.03849
     -1410.488  
  22520769.719   118347445.96347      3013.129    22520770.839    92218793.34846
      2347.890  
  24591035.815   129226766.16947      -275.723    24591036.315   100696185.04846
      -214.851  
  23988412.721   126059957.21547      1235.148    23988416.660    98228553.80046
       962.449  
 20 10 01 04 24 55.0000000  0  8G29G 2G13G15G 5G18G 7G30
  21389112.502   112400544.68248     -1517.152    21389113.033    87584839.12049
     -1182.198  
  23105431.711   121419857.34448     -2793.695    23105430.830    94612871.08846
     -2176.910  
  20979144.117   110246149.46448      1886.746    20979144.496    85906089.21547
      1470.187  
  22110060.415   116189156.44348      3403.984    22110061.234    90537008.29849
      2652.453  
  20756450.653   109075883.04049     -1811.890    20756450.468    84994193.14949
     -1411.867  
  22517903.742   118332384.28247      3011.546    22517904.535    92207056.96846
      2346.656  
  24591299.427   129228151.48647      -278.332    24591300.078   100697264.51946
      -216.886  
  23987238.736   126053787.13147      1232.867    23987242.563    98223745.94146
       960.671  
 20 10 01 04 25  0.0000000  0  8G29G 2G13G15G 5G18G 7G30
  21390557.638   112408138.51948     -1520.430    21390558.075    87590756.39049
     -1184.754  
  23108090.598   121433829.48748     -2794.918    23108089.546    94623758.46046
     -2177.862  
  20977350.170   110236722.92948      1883.680    20977350.512    85898743.86747
      1467.800  
  22106822.602   116172141.21248      3401.991    22106823.244    90523749.67749
      2650.897  
  20758175.456   109084947.59749     -1813.852    20758175.281    85001256.43549
     -1413.394  
  22515038.670   118317328.00447      3010.722    22515039.486    92195324.82446
      2346.015  
  24591565.656   129229550.94047      -281.710    24591566.337   100698354.99246
      -219.520  
  23986067.071   126047630.20947      1230.184    23986071.178    98218948.35046
       958.581  
 20 10 01 04 25  5.0000000  0  8G29G 2G13G15G 5G18G 7G30
  21392005.818   112415748.84848     -1523.715    21392006.264    87596686.51249
     -1187.312  
  23110750.818   121447808.69148     -2796.440    23110749.757    94634651.33146
     -2179.047  
  20975559.481   110227312.04448      1880.745    20975559.698    85891410.72147
      1465.512  
  22103586.506   116155135.41548      3400.277    22103587.189    90510498.41549
      2649.563  
  20759902.170   109094021.88349     -1815.870    20759902.050    85008327.29849
     -1414.969  
  22512174.576   118302277.68647      3009.375    22512175.613    92183597.30345
      2344.965  
  24591834.777   129230964.93047      -283.941    24591835.539   100699456.80046
      -221.257  
  23984897.976   126041486.98047      1227.226    23984902.182    98214161.41246
       956.277  
 20 10 01 04 25 10.0000000  0  8G29G 2G13G15G 5G18G 7G30
  21393457.028   112423374.60148     -1526.858    21393457.371    87602628.64549
     -1189.766  
  23113412.163   121461793.93248     -2797.824    23113410.950    94645548.90946
     -2180.128  
  20973771.242   110217915.75548      1877.554    20973771.608    85884088.94847
      1463.027  
  22100352.128   116138138.02048      3398.515    22100352.578    90497253.69249
      2648.191  
  20761630.586   109103104.80349     -1817.570    20761630.281    85015404.89549
     -1416.292  
  22509311.638   118287232.25147      3008.530    22509312.502    92171873.59346
      2344.308  
  24592106.520   129232392.53947      -287.124    24592107.224   100700569.24146
      -223.737  
  23983731.458   126035356.32347      1224.723    23983735.718    98209384.27846
       954.324  
 20 10 01 04 25 15.0000000  0  8G29G 2G13G15G 5G18G 7G30
  21394911.475   112431017.80448     -1530.336    21394911.879    87608584.39349
     -1192.472  
  23116075.206   121475787.22948     -2799.304    23116073.794    94656452.77946
     -2181.281  
  20971986.474   110208536.08049      1874.390    20971986.929    85876780.11347
      1460.562  
  22097119.641   116121151.03148      3396.261    22097120.168    90484017.07949
      2646.434  
  20763361.112   109112198.37349     -1819.859    20763360.721    85022490.79049
     -1418.073  
  22506449.825   118272193.72547      3007.195    22506450.867    92160155.27146
      2343.265  
  24592381.052   129233835.71447      -290.223    24592381.737   100701693.79546
      -226.152  
  23982567.625   126029240.28147      1222.023    23982571.864    98204618.55546
       952.222  
 20 10 01 04 25 20.0000000  0  8G29G 2G13G15G 5G18G 7G30
  21396369.156   112438677.59448     -1533.804    21396369.563    87614553.05349
     -1195.176  
  23118739.364   121489787.62648     -2801.035    23118738.144    94667362.18746
     -2182.628  
  20970204.551   110199172.13849      1871.094    20970204.930    85869483.52947
      1457.991  
  22093888.862   116104173.51348      3394.519    22093889.222    90470787.86349
      2645.077  
  20765093.359   109121301.67349     -1821.664    20765093.137    85029584.27649
     -1419.480  
  22503589.327   118257161.20947      3005.624    22503590.215    92148441.62845
      2342.042  
  24592658.368   129235293.52245      -292.723    24592659.421   100702829.77045
      -228.097  
  23981406.402   126023138.01147      1218.733    23981410.679    98199863.53946
       949.659  
 20 10 01 04 25 25.0000000  0  8G29G 2G13G15G 5G18G 7G30
  21397830.064   112446354.15748     -1536.992    21397830.165    87620534.78949
     -1197.659  
  23121405.028   121503795.35048     -2802.296    23121403.695    94678277.29947
     -2183.608  
  20968425.691   110189824.16349      1867.961    20968426.098    85862199.38547
      1455.550  
  22090659.966   116087205.74048      3392.566    22090660.471    90457566.23149
      2643.555  
  20766827.513   109130414.96449     -1823.722    20766827.278    85036685.54449
     -1421.086  
  22500729.792   118242134.97147      3004.684    22500730.726    92136732.87246
      2341.309  
  24592938.559   129236766.15646      -295.945    24592940.050   100703977.27645
      -230.609  
  23980247.619   126017049.75047      1216.332    23980252.172    98195119.43046
       947.788  
 20 10 01 04 25 30.0000000  0  8G29G 2G13G15G 5G18G 7G30
  21399293.992   112454047.30748     -1540.168    21399294.190    87626529.44649
     -1200.132  
  23124071.968   121517810.21548     -2803.534    23124070.516    94689197.95446
     -2184.574  
  20966649.681   110180491.94849      1864.995    20966650.183    85854927.53147
      1453.241  
  22087432.987   116070247.50548      3390.862    22087433.447    90444352.04449
      2642.227  
  20768563.752   109139538.02449     -1825.508    20768563.377    85043794.42349
     -1422.476  
  22497871.592   118227114.77547      3003.526    22497872.434    92125028.83346
      2340.405  
  24593221.395   129238253.52847      -298.836    24593223.048   100705136.22845
      -232.866  
  23979091.718   126010975.26147      1213.520    23979096.297    98190386.03446
       945.593  
 20 10 01 04 25 35.0000000  0  8G29G 2G13G15G 5G18G 7G30
  21400760.974   112461756.85048     -1543.343    21400761.146    87632536.88449
     -1202.608  
  23126740.246   121531832.07848     -2804.722    23126739.016    94700124.07746
     -2185.500  
  20964876.917   110171175.32749      1862.030    20964877.206    85847667.82847
      1450.929  
  22084207.669   116053298.72248      3389.004    22084208.117    90431145.19849
      2640.776  
  20770301.528   109148670.69149     -1827.277    20770301.188    85050910.78149
     -1423.855  
  22495014.524   118212100.53147      3002.374    22495015.373    92113329.42846
      2339.511  
  24593507.242   129239755.38347      -301.538    24593508.648   100706306.52646
      -234.968  
  23977938.343   126004914.39247      1211.038    23977942.831    98185663.31646
       943.667  
 20 10 01 04 25 40.0000000  0  8G29G 2G13G15G 5G18G 7G30
  21402231.002   112469481.73948     -1546.789    21402231.293    87638556.26449
     -1205.292  
  23129409.461   121545859.86448     -2806.547    23129408.277    94711054.81746
     -2186.922  
  20963106.810   110161873.28549      1858.742    20963107.148    85840419.48747
      1448.366  
  22080984.070   116036358.28248      3387.102    22080984.280    90417944.87549
      2639.297  
  20772041.019   109157811.87449     -1829.229    20772040.697    85058033.77949
     -1425.379  
  22492158.371   118197091.13047      3001.284    22492159.006    92101633.80146
      2338.659  
  24593795.459   129241270.72447      -304.617    24593796.856   100707487.31546
      -237.366  
  23976787.473   125998866.09547      1208.086    23976791.824    98180950.35046
       941.363  
 20 10 01 04 25 45.0000000  0  8G29G 2G13G15G 5G18G 7G30
  21403704.265   112477223.72648     -1550.281    21403704.382    87644588.97749
     -1208.016  
  23132080.392   121559895.32648     -2807.828    23132079.233    94721991.53046
     -2187.921  
  20961339.767   110152587.56749      1855.554    20961340.042    85833183.85947
      1445.883  
  22077762.182   116019427.95848      3384.972    22077762.645    90404752.41449
      2637.636  
  20773782.611   109166963.34549     -1831.394    20773782.148    85065164.79049
     -1427.062  
  22489303.394   118182088.37547      2999.977    22489304.101    92089943.34646
      2337.641  
  24594086.743   129242801.30947      -307.484    24594087.788   100708679.97546
      -239.602  
  23975639.251   125992832.14547      1205.257    23975643.526    98176248.57646
       939.160  
 20 10 01 04 25 50.0000000  0  8G29G 2G13G15G 5G18G 7G30
  21405180.595   112484981.86548     -1553.023    21405180.883    87650634.27949
     -1210.151  
  23134752.451   121573937.56348     -2809.125    23134751.363    94732933.52147
     -2188.933  
  20959575.756   110143317.31849      1852.680    20959576.082    85825960.30047
      1443.644  
  22074542.181   116002506.92548      3383.406    22074542.728    90391567.20549
      2636.418  
  20775525.909   109176124.22049     -1833.007    20775525.571    85072303.13149
     -1428.319  
  22486449.577   118167091.37147      2999.063    22486450.203    92078257.36346
      2336.929  
  24594380.712   129244346.21847      -310.374    24594381.704   100709883.79346
      -241.855  
  23974493.511   125986811.71247      1203.012    23974497.916    98171557.34046
       937.410  
 20 10 01 04 25 55.0000000  0  8G29G 2G13G15G 5G18G 7G30
  21406659.960   112492755.20048     -1556.386    21406660.082    87656691.41549
     -1212.773  
  23137425.688   121587985.55048     -2810.288    23137424.528    94743879.99746
     -2189.839  
  20957814.417   110134061.57649      1849.563    20957814.812    85818748.03647
      1441.214  
  22071323.865   115985594.15348      3381.613    22071324.281    90378388.42049
      2635.019  
  20777270.730   109185293.50349     -1834.926    20777270.452    85079448.03249
     -1429.816  
  22483596.705   118152099.14547      2997.718    22483597.308    92066575.14045
      2335.886  
  24594677.198   129245904.41947      -313.082    24594678.026   100711097.96346
      -243.964  
  23973350.195   125980803.73146      1199.555    23973354.514    98166875.79946
       934.714  
 20 10 01 04 26  0.0000000  0  8G29G 2G13G15G 5G18G 7G30
  21408142.572   112500546.06348     -1559.539    21408142.695    87662762.21749
     -1215.227  
  23140100.470   121602041.68748     -2811.789    23140099.315    94754832.83246
     -2191.007  
  20956056.307   110124822.67749      1846.499    20956056.516    85811548.88947
      1438.828  
  22068107.505   115968692.03748      3379.554    22068107.772    90365217.94549
      2633.417  
  20779017.656   109194473.53449     -1836.727    20779017.291    85086601.29649
     -1431.219  
  22480745.169   118137114.03747      2996.534    22480745.604    92054898.42046
      2334.961  
  24594976.608   129247478.36246      -316.073    24594977.577   100712324.42046
      -246.293  
  23972209.693   125974810.57446      1197.320    23972214.063    98162205.81246
       932.972  
 20 10 01 04 26  5.0000000  0  8G29G 2G13G15G 5G18G 7G30
  21409628.024   112508352.76048     -1562.945    21409628.228    87668845.35549
     -1217.883  
  23142776.608   121616104.22948     -2813.254    23142775.264    94765790.64646
     -2192.147  
  20954301.052   110115598.87049      1843.207    20954301.384    85804361.51347
      1436.262  
  22064892.668   115951798.85948      3377.581    22064893.198    90352054.42849
      2631.878  
  20780766.276   109203662.62549     -1838.848    20780765.848    85093761.62449
     -1432.870  
  22477894.571   118122134.38447      2995.140    22477894.926    92043225.96346
      2333.870  
  24595278.701   129249066.24446      -319.203    24595279.615   100713561.71546
      -248.733  
  23971071.733   125968830.55046      1194.749    23971076.194    98157546.05346
       930.972  
 20 10 01 04 26 10.0000000  0  8G29G 2G13G15G 5G18G 7G30
  21411116.679   112516175.50748     -1566.159    21411116.686    87674940.99649
     -1220.387  
  23145453.855   121630173.41548     -2814.179    23145452.523    94776753.63746
     -2192.871  
  20952548.845   110106390.43049      1840.113    20952549.133    85797186.11747
      1433.851  
  22061679.677   115934914.88847      3375.738    22061680.361    90338898.08749
      2630.441  
  20782516.610   109212860.94449     -1840.667    20782516.369    85100929.15549
     -1434.288  
  22475045.108   118107160.35647      2994.328    22475045.438    92031557.91345
      2333.237  
  24595583.466   129250668.26346      -321.805    24595584.638   100714810.04346
      -250.761  
  23969936.291   125962863.92147      1191.827    23969940.578    98152896.73846
       928.694  
 20 10 01 04 26 15.0000000  0  8G29G 2G13G15G 5G18G 7G30
  21412608.374   112524014.41748     -1569.543    21412608.585    87681049.22849
     -1223.022  
  23148132.445   121644249.40548     -2816.047    23148131.005    94787721.94646
     -2194.324  
  20950799.500   110097197.49749      1836.976    20950799.607    85790022.78847
      1431.406  
  22058468.594   115918040.21948      3373.671    22058469.036    90325748.99849
      2628.831  
  20784268.827   109222068.62249     -1842.589    20784268.345    85108103.95449
     -1435.788  
  22472196.814   118092192.15647      2992.879    22472197.209    92019894.36046
      2332.108  
  24595890.895   129252284.66246      -325.077    24595892.096   100716069.59546
      -253.313  
  23968803.505   125956910.80747      1188.976    23968807.689    98148257.96745
       926.473  
 20 10 01 04 26 20.0000000  0  8G29G 2G13G15G 5G18G 7G30
  21414103.123   112531869.71948     -1572.512    21414103.382    87687170.23749
     -1225.336  
  23150812.368   121658332.37148     -2817.164    23150810.946    94798695.67246
     -2195.194  
  20949053.195   110088020.35449      1833.960    20949053.270    85782871.77047
      1429.058  
  22055259.212   115901175.17848      3372.163    22055259.925    90312607.41049
      2627.656  
  20786022.755   109231285.91949     -1844.272    20786022.513    85115286.25749
     -1437.097  
  22469349.665   118077230.06847      2991.789    22469349.866    92008235.62046
      2331.265  
  24596201.235   129253915.63146      -327.395    24596202.537   100717340.45646
      -255.117  
  23967673.291   125950971.49546      1186.789    23967677.566    98143629.95645
       924.770  
 20 10 01 04 26 25.0000000  0  8G29G 2G13G15G 5G18G 7G30
  21415601.128   112539741.06948     -1575.965    21415601.118    87693303.74749
     -1228.027  
  23153493.619   121672422.03148     -2818.730    23153492.146    94809674.61146
     -2196.422  
  20947309.756   110078858.61249      1830.688    20947309.857    85775732.75347
      1426.507  
  22052051.565   115884319.38148      3370.108    22052052.504    90299473.02749
      2626.055  
  20787778.583   109240512.48549     -1846.519    20787778.125    85122475.78949
     -1438.847  
  22466503.423   118062273.68647      2990.663    22466503.801    91996581.30446
      2330.382  
  24596514.187   129255560.92746      -330.781    24596515.687   100718622.50246
      -257.754  
  23966545.535   125945045.59546      1183.961    23966550.051    98139012.37746
       922.562  
 20 10 01 04 26 30.0000000  0  8G29G 2G13G15G 5G18G 7G30
  21417102.149   112547629.30448     -1579.206    21417102.261    87699450.42649
     -1230.555  
  23156176.178   121686519.19248     -2820.276    23156174.757    94820659.39446
     -2197.621  
  20945569.563   110069713.15249      1827.574    20945569.627    85768606.42647
      1424.082  
  22048845.816   115867473.77348      3368.187    22048846.809    90286346.58549
      2624.559  
  20789536.299   109249749.12649     -1848.304    20789535.951    85129673.16849
     -1440.242  
  22463658.506   118047323.91947      2989.327    22463658.930    91984932.12646
      2329.344  
  24596830.252   129257221.23146      -333.480    24596831.775   100719916.23947
      -259.858  
  23965420.711   125939134.01246      1180.820    23965424.879    98134405.95445
       920.116  
 20 10 01 04 26 35.0000000  0  8G29G 2G13G15G 5G18G 7G30
  21418606.044   112555532.97848     -1582.261    21418606.309    87705609.12449
     -1232.933  
  23158859.913   121700622.41048     -2821.219    23158858.364    94831648.90746
     -2198.354  
  20943832.024   110060582.50849      1824.711    20943832.108    85761491.63847
      1421.847  
  22045641.815   115850636.82048      3366.605    22045642.821    90273226.88549
      2623.324  
  20791295.538   109258994.39749     -1849.894    20791295.221    85136877.27449
     -1441.480  
  22460814.782   118032379.27147      2988.379    22460814.827    91973286.94146
      2328.605  
  24597148.743   129258895.16746      -336.132    24597150.201   100721220.61046
      -261.925  
  23964298.160   125933235.28147      1178.495    23964302.534    98129809.57746
       918.308  
 20 10 01 04 26 40.0000000  0  8G29G 2G13G15G 5G18G 7G30
  21420113.179   112563452.46748     -1585.636    21420113.270    87711780.15849
     -1235.562  
  23161544.964   121714732.07248     -2822.750    23161543.426    94842643.44446
     -2199.546  
  20942097.505   110051467.11449      1821.464    20942097.500    85754388.73947
      1419.320  
  22042439.537   115833808.92248      3364.508    22042440.777    90260114.23849
      2621.691  
  20793056.492   109268248.73849     -1851.922    20793056.224    85144088.44249
     -1443.058  
  22457971.975   118017440.18847      2987.176    22457972.230    91961646.10546
      2327.668  
  24597469.914   129260583.11746      -338.785    24597471.335   100722535.91147
      -263.992  
  23963178.056   125927349.84247      1175.621    23963182.565    98125223.52346
       916.065  
 20 10 01 04 26 45.0000000  0  8G29G 2G13G15G 5G18G 7G30
  21421623.374   112571388.65848     -1588.815    21421623.397    87717964.18949
     -1238.043  
  23164231.346   121728849.01348     -2823.930    23164229.737    94853643.65646
     -2200.469  
  20940365.876   110042367.84249      1818.301    20940366.065    85747298.39747
      1416.855  
  22039239.195   115816990.98348      3362.554    22039240.476    90247009.35249
      2620.167  
  20794819.541   109277513.03249     -1853.813    20794819.198    85151307.37049
     -1444.531  
  22455130.330   118002507.55447      2985.672    22455130.532    91950010.29745
      2326.496  
  24597794.022   129262286.00146      -342.000    24597795.417   100723862.81646
      -266.496  
  23962060.896   125921478.50447      1172.977    23962065.338    98120648.44545
       914.004  
 20 10 01 04 26 50.0000000  0  8G29G 2G13G15G 5G18G 7G30
  21423136.618   112579340.24748     -1591.961    21423136.473    87724160.23249
     -1240.491  
  23166918.846   121742972.01648     -2825.358    23166917.215    94864648.58846
     -2201.581  
  20938637.267   110033283.47349      1815.226    20938637.322    85740219.67247
      1414.461  
  22036040.573   115800181.73348      3360.969    22036041.844    90233911.23849
      2618.933  
  20796584.107   109286786.01449     -1855.620    20796583.880    85158533.07449
     -1445.940  
  22452289.820   117987580.10647      2984.867    22452289.862    91938378.50845
      2325.867  
  24598120.561   129264002.54146      -344.726    24598122.122   100725200.40146
      -268.620  
  23960946.211   125915620.07647      1170.328    23960950.480    98116083.41745
       911.940  
 20 10 01 04 26 55.0000000  0  8G29G 2G13G15G 5G18G 7G30
  21424652.911   112587308.32448     -1595.206    21424652.734    87730369.13149
     -1243.023  
  23169607.694   121757102.16148     -2826.684    23169606.212    94875659.08246
     -2202.612  
  20936911.712   110024215.05349      1812.003    20936911.751    85733153.37347
      1411.948  
  22032843.836   115783382.29948      3358.914    22032844.930    90220820.78349
      2617.331  
  20798350.389   109296068.69948     -1857.608    20798350.270    85165766.33349
     -1447.491  
  22449450.264   117972658.95247      2983.285    22449450.367    91926751.62645
      2324.633  
  24598449.995   129265733.81946      -347.871    24598451.606   100726549.45646
      -271.069  
  23959834.030   125909775.64947      1167.507    23959838.351    98111529.33846
       909.742  
 20 10 01 04 27  0.0000000  0  8G29G 2G13G15G 5G18G 7G30
  21426172.236   112595292.89748     -1598.238    21426171.949    87736590.87449
     -1245.382  
  23172297.856   121771239.40548     -2827.769    23172296.363    94886675.08146
     -2203.465  
  20935188.991   110015162.59649      1809.168    20935189.128    85726099.51847
      1409.738  
  22029648.821   115766592.66548      3357.129    22029649.939    90207737.95849
      2615.940  
  20800118.770   109305361.07348     -1859.085    20800118.612    85173007.14949
     -1448.640  
  22446612.234   117957744.03347      2982.687    22446612.112    91915129.63445
      2324.168  
  24598782.161   129267479.80045      -350.624    24598783.716   100727909.98447
      -273.218  
  23958724.646   125903945.20447      1164.999    23958728.944    98106986.12646
       907.788  
 20 10 01 04 27  5.0000000  0  8G29G 2G13G15G 5G18G 7G30
  21427694.772   112603293.31748     -1601.551    21427694.346    87742824.96249
     -1247.964  
  23174989.352   121785383.12248     -2829.519    23174987.851    94897696.17946
     -2204.824  
  20933469.290   110006125.47449      1806.031    20933469.418    85719057.59547
      1407.293  
  22026455.704   115749812.25148      3355.293    22026456.911    90194662.32249
      2614.512  
  20801888.693   109314662.52349     -1860.983    20801888.670    85180255.02149
     -1450.120  
  22443774.943   117942834.81148      2981.331    22443775.104    91903512.03046
      2323.113  
  24599117.046   129269239.94646      -353.550    24599118.746   100729281.50346
      -275.496  
  23957617.773   125898128.07847      1162.387    23957621.920    98102453.29945
       905.753  
 20 10 01 04 27 10.0000000  0  8G29G 2G13G15G 5G18G 7G30
  21429220.168   112611309.63848     -1604.909    21429219.923    87749071.44449
     -1250.582  
  23177682.010   121799533.38648     -2830.984    23177680.576    94908722.34646
     -2205.964  
  20931752.476   109997103.74549      1802.516    20931752.620    85712027.68747
      1404.554  
  22023264.242   115733041.13348      3353.063    22023265.363    90181593.93549
      2612.773  
  20803660.523   109323973.11049     -1863.288    20803660.408    85187510.02249
     -1451.918  
  22440938.986   117927931.32147      2980.098    22440938.824    91891898.93745
      2322.152  
  24599454.781   129271014.19246      -356.305    24599456.097   100730663.99346
      -277.647  
  23956513.367   125892324.41747      1159.031    23956517.312    98097930.98746
       903.136  
 20 10 01 04 27 15.0000000  0  8G29G 2G13G15G 5G18G 7G30
  21430748.981   112619343.13848     -1608.382    21430748.674    87755331.30149
     -1253.288  
  23180376.192   121813691.46848     -2832.245    23180374.661    94919754.57946
     -2206.953  
  20930038.888   109988098.65549      1799.460    20930039.024    85705010.73447
      1402.176  
  22020074.719   115716280.60548      3351.214    22020076.016    90168533.77849
      2611.331  
  20805434.259   109333294.06249     -1865.210    20805434.096    85194773.10349
     -1453.414  
  22438104.144   117913034.87247      2978.628    22438104.256    91880291.32145
      2321.008  
  24599795.174   129272803.87546      -359.265    24599796.662   100732058.54645
      -279.948  
  23955411.760   125886535.43247      1156.066    23955415.856    98093420.08546
       900.827  
 20 10 01 04 27 20.0000000  0  8G29G 2G13G15G 5G18G 7G30
  21432280.636   112627392.54248     -1611.448    21432280.350    87761603.56949
     -1255.680  
  23183071.685   121827856.10248     -2833.581    23183069.998    94930791.97346
     -2207.988  
  20928328.342   109979109.05049      1796.410    20928328.338    85698005.85347
      1399.797  
  22016887.124   115699529.39948      3349.358    22016888.368    90155480.89449
      2609.887  
  20807209.708   109342624.11049     -1866.929    20807209.499    85202043.26949
     -1454.753  
  22435270.656   117898144.16848      2977.758    22435270.636    91868688.18546
      2320.328  
  24600138.421   129274607.77946      -362.226    24600139.900   100733464.17746
      -282.258  
  23954312.672   125880759.96947      1153.866    23954316.635    98088919.74046
       899.113  
 20 10 01 04 27 25.0000000  0  8G29G 2G13G15G 5G18G 7G30
  21433815.135   112635456.54548     -1614.413    21433814.942    87767887.21449
     -1257.988  
  23185767.917   121842025.95648     -2834.585    23185766.550    94941833.40246
     -2208.769  
  20926620.288   109970133.57249      1793.527    20926620.551    85691012.00247
      1397.554  
  22013701.031   115682786.21048      3347.718    22013702.403    90142434.24149
      2608.609  
  20808986.500   109351961.93549     -1868.508    20808986.377    85209319.50749
     -1455.983  
  22432437.751   117883257.96347      2976.695    22432437.762    91857088.54045
      2319.500  
  24600484.207   129276424.49146      -364.358    24600485.406   100734879.77746
      -283.922  
  23953216.164   125874996.65147      1151.233    23953219.747    98084428.85445
       897.062  
 20 10 01 04 27 30.0000000  0  8G29G 2G13G15G 5G18G 7G30
  21435352.833   112643537.35448     -1617.679    21435352.449    87774183.95549
     -1260.530  
  23188465.869   121856203.29047     -2836.241    23188464.332    94952880.64845
     -2210.063  
  20924915.458   109961174.50249      1790.324    20924915.461    85684030.91447
      1395.055  
  22010516.925   115666053.27948      3345.776    22010518.147    90129395.55849
      2607.093  
  20810765.393   109361309.83049     -1870.496    20810765.215    85216603.58149
     -1457.531  
  22429606.376   117868378.49147      2975.188    22429606.408    91845494.14845
      2318.323  
  24600832.818   129278256.32845      -367.542    24600834.001   100736307.15546
      -286.401  
  23952122.340   125869247.72747      1148.742    23952125.842    98079949.18645
       895.121  
 20 10 01 04 27 35.0000000  0  8G29G 2G13G15G 5G18G 7G30
  21436893.597   112651634.84648     -1621.156    21436893.371    87780493.67949
     -1263.241  
  23191164.959   121870387.94947     -2837.690    23191163.550    94963933.62046
     -2211.191  
  20923213.680   109952231.72649      1786.961    20923213.794    85677062.52747
      1392.434  
  22007334.689   115649330.48448      3343.516    22007335.832    90116364.82649
      2605.332  
  20812546.180   109370667.71149     -1872.554    20812546.014    85223895.43649
     -1459.137  
  22426776.125   117853505.60847      2973.895    22426776.003    91833904.89746
      2317.316  
  24601184.181   129280103.15945      -371.167    24601185.417   100737746.29947
      -289.219  
  23951031.357   125863513.16547      1145.429    23951034.380    98075480.70546
       892.538  
 20 10 01 04 27 40.0000000  0  8G29G 2G13G15G 5G18G 7G30
  21438437.614   112659748.86348     -1624.438    21438437.472    87786816.26649
     -1265.796  
  23193865.572   121884579.79448     -2839.027    23193864.239    94974992.20746
     -2212.229  
  20921515.146   109943305.11649      1783.729    20921515.066    85670106.70847
      1389.917  
  22004154.326   115632617.71848      3341.519    22004155.461    90103341.92349
      2603.781  
  20814328.866   109380035.35249     -1874.492    20814328.493    85231194.89149
     -1460.645  
  22423947.187   117838639.19047      2972.597    22423947.022    91822320.69245
      2316.308  
  24601538.315   129281964.76845      -374.343    24601539.587   100739196.87847
      -291.699  
  23949942.731   125857792.70847      1142.449    23949945.871    98071023.19145
       890.219  
 20 10 01 04 27 45.0000000  0  8G29G 2G13G15G 5G18G 7G30
  21439984.669   112667878.16148     -1627.304    21439984.238    87793150.79549
     -1268.030  
  23196567.359   121898777.59447     -2839.859    23196565.856    94986055.40946
     -2212.879  
  20919819.266   109934393.39549      1780.925    20919819.259    85663162.53547
      1387.729  
  22000975.711   115615913.73348      3340.026    22000976.809    90090325.81349
      2602.616  
  20816113.074   109389411.61449     -1876.086    20816112.958    85238501.06849
     -1461.886  
  22421119.183   117823778.02047      2971.960    22421119.075    91810740.56245
      2315.809  
  24601895.254   129283840.02745      -376.473    24601896.630   100740658.12945
      -293.359  
  23948856.787   125852085.19047      1140.585    23948859.556    98066575.78846
       888.765  
 20 10 01 04 27 50.0000000  0  8G29G 2G13G15G 5G18G 7G30
  21441534.803   112676024.10948     -1631.015    21441534.420    87799498.28049
     -1270.925  
  23199270.485   121912982.77548     -2842.129    23199269.047    94997124.40146
     -2214.648  
  20918126.421   109925497.96649      1777.319    20918126.603    85656231.01947
      1384.921  
  21997798.945   115599219.96948      3337.523    21997800.112    90077317.70749
      2600.663  
  20817899.174   109398797.79149     -1878.374    20817898.881    85245814.97049
     -1463.672  
  22418292.369   117808923.51347      2969.984    22418292.329    91799165.60746
      2314.270  
  24602254.837   129285730.17945      -379.512    24602256.322   100742131.00645
      -295.722  
  23947773.475   125846392.00747      1137.168    23947776.230    98062139.53246
       886.101  
 20 10 01 04 27 55.0000000  0  8G29G 2G13G15G 5G18G 7G30
  21443087.795   112684185.72848     -1633.866    21443087.309    87805857.97949
     -1273.144  
  23201974.957   121927194.27648     -2843.008    23201973.358    95008198.25845
     -2215.336  
  20916436.614   109916617.87549      1774.413    20916436.645    85649311.48447
      1382.656  
  21994624.117   115582535.44548      3335.777    21994625.130    90064316.78149
      2599.304  
  20819686.975   109408192.84049     -1880.081    20819686.768    85253135.78949
     -1465.004  
  22415466.666   117794074.62647      2969.257    22415466.897    91787595.05946
      2313.702  
  24602617.162   129287634.40044      -382.710    24602618.409   100743614.81746
      -298.218  
  23946692.632   125840712.13447      1134.711    23946695.365    98057713.66645
       884.187  
 20 10 01 04 28  0.0000000  0  8G29G 2G13G15G 5G18G 7G30
  21444644.047   112692363.70148     -1637.276    21444643.602    87812230.42649
     -1275.805  
  23204680.616   121941412.73748     -2844.675    23204678.889    95019277.58045
     -2216.633  
  20914749.807   109907753.80149      1771.262    20914749.867    85642404.40947
      1380.199  
  21991450.981   115565860.81748      3334.128    21991452.116    90051323.56749
      2598.019  
  20821476.690   109417597.48549     -1881.898    20821476.611    85260464.08149
     -1466.418  
  22412642.311   117779232.13347      2967.921    22412642.389    91776029.48346
      2312.663  
  24602982.341   129289553.30145      -385.195    24602983.791   100745110.06145
      -300.156  
  23945614.490   125835046.33647      1132.066    23945617.171    98053298.76646
       882.125  
 20 10 01 04 28  5.0000000  0  8G29G 2G13G15G 5G18G 7G30
  21446203.122   112700556.88548     -1640.363    21446202.614    87818614.72449
     -1278.207  
  23207387.605   121955637.09348     -2845.722    23207385.744    95030361.51346
     -2217.448  
  20913065.911   109898904.64949      1768.004    20913065.807    85635508.96547
      1377.664  
  21988279.735   115549195.02448      3331.983    21988280.806    90038337.24349
      2596.348  
  20823267.911   109427010.60249     -1883.694    20823267.675    85267798.97249
     -1467.815  
  22409818.696   117764394.84347      2966.519    22409818.805    91764467.97445
      2311.570  
  24603349.978   129291485.77845      -387.722    24603351.315   100746615.91645
      -302.125  
  23944538.828   125829393.47847      1128.871    23944541.443    98048893.96246
       879.641  
 20 10 01 04 28 10.0000000  0  8G29G 2G13G15G 5G18G 7G30
  21447765.440   112708766.79748     -1643.691    21447765.061    87825012.05849
     -1280.801  
  23210095.699   121969868.84948     -2847.144    23210094.037    95041451.17646
     -2218.559  
  20911385.056   109890071.88449      1765.038    20911385.134    85628626.29647
      1375.352  
  21985110.198   115532539.55948      3329.941    21985111.228    90025358.97249
      2594.758  
  20825061.051   109436433.67649     -1885.597    20825060.933    85275141.62749
     -1469.301  
  22406996.612   117749564.31747      2965.491    22406996.676    91752911.73246
      2310.770  
  24603720.791   129293433.38345      -390.922    24603722.031   100748133.49746
      -304.620  
  23943466.007   125823755.01147      1125.979    23943468.710    98044500.33346
       877.382  
 20 10 01 04 28 15.0000000  0  8G29G 2G13G15G 5G18G 7G30
  21449330.796   112716992.54548     -1646.426    21449330.230    87831421.72649
     -1282.933  
  23212805.325   121984107.09148     -2848.035    23212803.278    95052545.90745
     -2219.249  
  20909707.223   109881254.71849      1762.144    20909707.152    85621755.77547
      1373.097  
  21981942.579   115515893.57948      3328.366    21981943.841    90012388.08349
      2593.531  
  20826855.907   109445865.86649     -1887.219    20826855.895    85282491.38349
     -1470.562  
  22404175.495   117734739.74447      2964.766    22404175.781    91741360.10945
      2310.202  
  24604094.298   129295395.20645      -393.894    24604095.495   100749662.17745
      -306.938  
  23942395.598   125818130.16347      1123.854    23942398.310    98040117.37946
       875.729  
 20 10 01 04 28 20.0000000  0  8G29G 2G13G15G 5G18G 7G30
  21450898.983   112725233.02148     -1649.839    21450898.307    87837842.86349
     -1285.594  
  23215515.716   121998350.69848     -2849.520    23215513.759    95063644.81046
     -2220.406  
  20908032.086   109872451.93849      1758.812    20908032.096    85614896.44847
      1370.499  
  21978776.467   115499255.92148      3326.363    21978777.703    89999423.68549
      2591.968  
  20828652.275   109455305.96649     -1889.144    20828652.309    85289847.30549
     -1472.063  
  22401355.340   117719919.91747      2963.012    22401355.642    91729812.20245
      2308.835  
  24604470.023   129297369.99845      -396.914    24604471.074   100751200.98345
      -309.284  
  23941327.453   125812517.77347      1120.827    23941330.381    98035744.07646
       873.371  
 20 10 01 04 28 25.0000000  0  8G29G 2G13G15G 5G18G 7G30
  21452470.404   112733491.23748     -1653.312    21452469.826    87844277.84749
     -1288.297  
  23218227.785   122012602.77648     -2851.054    23218225.925    95074750.33346
     -2221.605  
  20906360.394   109863666.67249      1755.344    20906360.220    85608050.80347
      1367.797  
  21975612.624   115482629.71848      3324.066    21975613.992    89986468.19049
      2590.180  
  20830450.952   109464757.08149     -1891.480    20830450.665    85297211.80249
     -1473.882  
  22398536.734   117705107.94947      2961.644    22398537.009    91718270.40445
      2307.773  
  24604848.880   129299360.97146      -400.188    24604850.189   100752752.42745
      -311.835  
  23940262.401   125806920.88647      1117.773    23940265.154    98031382.86846
       870.988  
 20 10 01 04 28 30.0000000  0  8G29G 2G13G15G 5G18G 7G30
  21454044.861   112741765.16048     -1656.382    21454044.486    87850725.06749
     -1290.690  
  23220941.158   122026861.27647     -2852.398    23220939.163    95085860.84146
     -2222.652  
  20904691.523   109854896.91349      1752.363    20904691.530    85601217.23547
      1365.476  
  21972450.510   115466012.85648      3322.554    21972451.733    89973519.99049
      2589.000  
  20832251.113   109474217.17849     -1892.894    20832250.975    85304583.30349
     -1474.983  
  22395719.260   117690301.80447      2960.680    22395719.503    91706733.15545
      2307.019  
  24605230.664   129301366.00846      -402.449    24605231.659   100754314.73246
      -313.604  
  23939200.008   125801337.50647      1115.211    23939202.827    98027032.19346
       868.991  
 20 10 01 04 28 35.0000000  0  8G29G 2G13G15G 5G18G 7G30
  21455622.374   112750055.26148     -1659.414    21455621.870    87857184.87749
     -1293.054  
  23223655.689   122041126.63648     -2853.854    23223653.830    95096976.69946
     -2223.784  
  20903025.878   109846143.07949      1749.233    20903025.801    85594396.07147
      1363.034  
  21969290.310   115449405.95548      3320.555    21969291.666    89960579.54249
      2587.441  
  20834053.021   109483686.73849     -1894.766    20834053.027    85311962.18749
     -1476.444  
  22392902.908   117675501.96247      2959.444    22392903.017    91695200.80446
      2306.059  
  24605614.912   129303385.55846      -404.987    24605616.099   100755888.41946
      -315.577  
  23938140.302   125795768.08947      1113.219    23938142.950    98022692.39446
       867.441  
 20 10 01 04 28 40.0000000  0  8G29G 2G13G15G 5G18G 7G30
  21457202.729   112758360.67848     -1662.633    21457202.432    87863656.60949
     -1295.562  
  23226371.355   122055397.96448     -2854.957    23226369.746    95108097.20246
     -2224.645  
  20901362.929   109837404.34749      1746.054    20901362.694    85587586.64247
      1360.558  
  21966131.963   115432808.01148      3318.328    21966133.289    89947646.11149
      2585.711  
  20835856.653   109493164.79449     -1896.444    20835856.565    85319347.68249
     -1477.754  
  22390087.703   117660707.55647      2958.323    22390087.792    91683672.70946
      2305.184  
  24606001.805   129305418.75445      -408.007    24606002.941   100757472.75446
      -317.922  
  23937082.867   125790211.85748      1109.672    23937085.503    98018362.85546
       864.676  
 20 10 01 04 28 45.0000000  0  8G29G 2G13G15G 5G18G 7G30
  21458785.569   112766678.49649     -1664.386    21458785.439    87870138.00849
     -1296.930  
  23229087.754   122069672.42448     -2854.839    23229086.072    95119220.13446
     -2224.559  
  20899702.268   109828677.85549      1744.483    20899702.057    85580786.76847
      1359.335  
  21962974.555   115416216.28048      3317.851    21962975.910    89934717.51549
      2585.339  
  20837661.406   109502648.55149     -1896.882    20837661.325    85326737.62549
     -1478.093  
  22387272.849   117645915.74047      2958.616    22387273.081    91672146.62846
      2305.414  
  24606389.476   129307449.85555      -409.875    24606391.745   100759060.53055
      -319.386  
  23936027.497   125784665.78646      1108.555    23936030.302    98014041.26345
       863.804  
 20 10 01 04 28 50.0000000  0  7G29G 2G13G15G 5G18G30
  21460372.599   112775018.14749     -1669.120    21460372.361    87876636.43949
     -1300.616  
  23231806.465   122083959.41248     -2857.519    23231804.576    95130352.85946
     -2226.640  
  20898045.783   109819972.96849      1739.804    20898045.561    85574003.75947
      1355.687  
  21959820.193   115399640.05948      3314.878    21959821.413    89921800.97249
      2583.019  
  20839469.019   109512147.40149     -1900.219    20839469.002    85334139.32149
     -1480.691  
  22384460.304   117631135.90247      2955.788    22384460.470    91660629.86346
      2303.211  
  23934975.980   125779139.40347      1104.261    23934978.446    98009734.99746
       860.460  
 20 10 01 04 28 55.0000000  0  7G29G 2G13G15G 5G18G30
  21461961.361   112783367.92848     -1671.875    21461961.232    87883142.75649
     -1302.761  
  23234525.346   122098247.22648     -2858.741    23234523.618    95141486.19246
     -2227.597  
  20896391.395   109811278.01049      1737.082    20896391.023    85567228.45347
      1353.566  
  21956666.386   115383067.75748      3313.202    21956667.905    89908887.50949
      2581.715  
  20841277.201   109521649.59149     -1901.698    20841277.145    85341543.61749
     -1481.847  
  22381647.987   117616356.36347      2954.953    22381648.161    91649113.36446
      2302.562  
  23933925.964   125773621.03047      1101.922    23933928.327    98005434.96646
       858.636  
 20 10 01 04 29  0.0000000  0  7G29G 2G13G15G 5G18G30
  21463554.104   112791737.00748     -1675.504    21463554.013    87889664.11549
     -1305.590  
  23237246.111   122112545.00448     -2860.405    23237244.361    95152627.30546
     -2228.891  
  20894740.431   109802602.22749      1733.468    20894740.154    85560468.10647
      1350.749  
  21953515.266   115366508.57348      3310.805    21953516.829    89895984.25549
      2579.854  
  20843087.863   109531164.36749     -1903.910    20843087.722    85348957.71749
     -1483.569  
  22378837.389   117601586.35047      2953.214    22378837.522    91637604.26846
      2301.202  
  23932879.088   125768119.91146      1098.526    23932881.721    98001148.44344
       856.003  
 20 10 01 04 29  5.0000000  0  7G29G 2G13G15G 5G18G30
  21465149.728   112800122.56448     -1678.660    21465149.722    87896198.30949
     -1308.051  
  23239968.040   122126849.96448     -2861.707    23239966.507    95163774.03746
     -2229.905  
  20893092.515   109793942.77749      1730.401    20893092.203    85553720.49147
      1348.363  
  21950366.042   115349959.66348      3308.890    21950367.454    89883088.99849
      2578.352  
  20844900.235   109540688.92049     -1905.694    20844900.231    85356379.45449
     -1484.961  
  22376028.091   117586823.04847      2952.147    22376028.155    91626100.37946
      2300.370  
  23931835.001   125762632.91547      1096.015    23931837.532    97996872.82145
       854.031  
 20 10 01 04 29 10.0000000  0  7G29G 2G13G15G 5G18G30
  21466748.555   112808524.48748     -1682.125    21466748.609    87902745.26449
     -1310.750  
  23242691.679   122141162.03348     -2862.977    23242689.839    95174926.31446
     -2230.895  
  20891447.823   109785299.61249      1727.034    20891447.448    85546985.55747
      1345.738  
  21947218.763   115333420.97248      3306.832    21947220.302    89870201.71749
      2576.750  
  20846714.702   109550223.12949     -1907.973    20846714.450    85363808.72049
     -1486.733  
  22373219.945   117572066.38647      2950.706    22373219.954    91614601.70146
      2299.249  
  23930793.725   125757160.38047      1093.050    23930796.255    97992608.49946
       851.726  
 20 10 01 04 29 15.0000000  0  7G29G 2G13G15G 5G18G30
  21468350.421   112816942.69548     -1685.074    21468350.411    87909304.90549
     -1313.046  
  23245416.456   122155481.14648     -2864.328    23245414.628    95186084.06045
     -2231.945  
  20889806.171   109776672.60949      1723.992    20889805.873    85540263.23847
      1343.367  
  21944073.546   115316892.40548      3304.992    21944075.072    89857322.30649
      2575.316  
  20848530.681   109559766.94648     -1909.585    20848530.611    85371245.44049
     -1487.992  
  22370413.067   117557316.29947      2949.648    22370413.288    91603108.12246
      2298.426  
  23929755.062   125751702.07147      1090.460    23929757.629    97988355.27946
       849.707  
 20 10 01 04 29 20.0000000  0  7G29G 2G13G15G 5G18G30
  21469955.340   112825376.47449     -1688.582    21469955.380    87915876.67349
     -1315.780  
  23248142.410   122169806.53548     -2865.855    23248140.470    95197246.67746
     -2233.137  
  20888167.554   109768061.12049      1720.479    20888166.970    85533552.98447
      1340.633  
  21940930.060   115300373.30648      3302.714    21940931.558    89844450.29749
      2573.538  
  20850348.553   109569319.58448     -1911.711    20850348.499    85378689.07649
     -1489.647  
  22367607.365   117542572.05147      2948.042    22367607.552    91591619.10246
      2297.172  
  23928718.853   125746257.22947      1087.453    23928721.475    97984112.55746
       847.363  
 20 10 01 04 29 25.0000000  0  7G29G 2G13G15G 5G18G30
  21471563.301   112833826.14948     -1691.128    21471563.302    87922460.84649
     -1317.766  
  23250869.668   122184138.53348     -2866.675    23250867.880    95208414.49746
     -2233.776  
  20886531.795   109759465.46049      1717.847    20886531.494    85526855.07847
      1338.577  
  21937788.289   115283863.99948      3301.258    21937789.766    89831585.90549
      2572.406  
  20852168.135   109578881.42549     -1913.043    20852167.858    85386139.85849
     -1490.687  
  22364802.843   117527834.03148      2947.093    22364802.850    91580134.94446
      2296.434  
  23927685.389   125740826.30646      1085.315    23927687.954    97979880.68245
       845.698  
 20 10 01 04 29 30.0000000  0  7G29G 2G13G15G 5G18G30
  21473174.101   112842291.96248     -1694.976    21473174.364    87929057.56549
     -1320.766  
  23253598.298   122198477.42148     -2868.425    23253596.599    95219587.61346
     -2235.144  
  20884899.064   109750885.86849      1714.190    20884898.710    85520169.66547
      1335.730  
  21934648.665   115267364.72648      3298.969    21934650.175    89818729.33549
      2570.620  
  20853989.454   109588452.67749     -1915.191    20853989.168    85393597.97349
     -1492.359  
  22361999.417   117513102.43047      2945.668    22361999.622    91568655.78646
      2295.324  
  23926654.469   125735409.44347      1081.835    23926657.134    97975659.77246
       842.983  
 20 10 01 04 29 35.0000000  0  8G29G 2G13G15G 5G18G 7G30
  21474788.902   112850777.92448     -1700.315    21474789.097    87935669.99949
     -1324.925  
  23256329.021   122212827.21748     -2872.073    23256327.511    95230769.27146
     -2237.983  
  20883270.327   109742326.39449      1708.772    20883269.846    85513499.95647
      1331.508  
  21931511.672   115250879.59048      3294.723    21931513.028    89805883.77449
      2567.312  
  20855813.415   109598037.47149     -1919.308    20855813.172    85401066.65349
     -1495.566  
  22359198.092   117498381.36847      2942.105    22359198.342    91557184.82846
      2292.546  
  24610438.400   129328733.96855      -442.141    24610440.215   100775634.58553
      -344.526  
  23925627.020   125730010.75447      1076.749    23925629.978    97971453.01847
       839.022  
 20 10 01 04 29 40.0000000  0  7G29G 2G13G15G 5G18G30
  21476406.760   112859279.35548     -1698.945    21476407.003    87942294.49149
     -1323.855  
  23259060.896   122227183.19448     -2868.723    23259059.301    95241955.74346
     -2235.370  
  20881644.447   109733782.39649      1710.352    20881644.139    85506842.30247
      1332.737  
  21928376.409   115234403.89048      3297.309    21928377.845    89793045.56649
      2569.328  
  20857638.922   109607630.98049     -1916.519    20857638.897    85408542.09849
     -1493.395  
  22356397.889   117483666.10447      2945.492    22356398.249    91545718.38346
      2295.183  
  23924602.209   125724625.67746      1079.065    23924605.066    97967256.86345
       840.828  
 20 10 01 04 29 45.0000000  0  7G29G 2G13G15G 5G18G30
  21478025.014   112867783.52748     -1703.500    21478025.431    87948921.12449
     -1327.406  
  23261791.442   122241532.65148     -2871.734    23261790.153    95253137.15846
     -2237.718  
  20880019.143   109725241.14849      1705.702    20880018.678    85500186.80947
      1329.116  
  21925240.584   115217924.92448      3293.757    21925241.948    89780204.81149
      2566.604  
  20859463.822   109617220.55049     -1919.805    20859463.654    85416014.48549
     -1495.952  
  22353596.102   117468943.96247      2942.995    22353596.683    91534246.59545
      2293.241  
  23923577.634   125719241.06747      1074.121    23923580.641    97963061.07646
       836.973  
 20 10 01 04 29 50.0000000  0  8G29G 2G13G15G 5G18G 7G30
  21479648.047   112876312.68148     -1707.581    21479648.482    87955567.21149
     -1330.586  
  23264525.025   122255897.85548     -2874.015    23264523.618    95264330.80246
     -2239.496  
  20878398.400   109716724.93349      1701.395    20878398.073    85493550.79547
      1325.758  
  21922108.385   115201464.95048      3290.671    21922109.707    89767378.86949
      2564.155  
  20861292.161   109626828.41549     -1922.659    20861292.065    85423501.14849
     -1498.180  
  22350797.597   117454237.24847      2940.430    22350798.056    91522786.84045
      2291.246  
  24611706.229   129335389.58316      -448.655           0.000           0.0000 
         0.000  
  23922557.238   125713879.72247      1070.546    23922560.347    97958883.39646
       834.187  
 20 10 01 04 29 55.0000000  0  8G29G 2G13G15G 5G18G 7G30
  21481274.863   112884861.28248     -1711.945    21481275.184    87962228.44449
     -1333.987  
  23267260.693   122270273.26048     -2876.539    23267259.328    95275532.38946
     -2241.465  
  20876781.648   109708228.12349      1697.081    20876781.132    85486929.88247
      1322.398  
  21918978.846   115185018.42648      3287.453    21918980.189    89754563.39449
      2561.647  
  20863122.796   109636448.96649     -1925.777    20863122.680    85430997.68049
     -1500.609  
  22348000.822   117439540.31747      2938.086    22348001.399    91511334.68746
      2289.413  
  24612135.713   129337642.75446      -452.690    24612135.327   100782577.06855
      -352.749  
  23921540.287   125708535.76347      1066.542    23921543.498    97954719.28746
       831.069  
 20 10 01 04 30  0.0000000  0  8G29G 2G13G15G 5G18G 7G30
  21482904.542   112893425.39948     -1714.012    21482904.828    87968901.78149
