     2.11           OBSERVATION DATA    G                   RINEX VERSION / TYPE
LEICA GEO OFFICE 8.4                    30-9-20 20:19       PGM / RUN BY / DATE
                                                            OBSERVER / AGENCY
olog                                                        MARKER NAME
olog                                                        MARKER NUMBER
457569              LEICA GX1220        2.14                REC # / TYPE / VERS
                    LEIAX1202                               ANT # / TYPE
 -1192108.1416  3800432.2233  4966184.4567                  APPROX POSITION XYZ
        0.1660        0.0000        0.0000                  ANTENNA: DELTA H/E/N
L1PhaOff:   0.0648  L2PhaOff:   0.0622                      COMMENT
     1     1                                                WAVELENGTH FACT L1/2
     6    C1    L1    D1    P2    L2    D2                  # / TYPES OF OBSERV
  2020     9    30     5    36   20.0000000     GPS         TIME OF FIRST OBS
  2020     9    30     8    46   20.0000000     GPS         TIME OF LAST OBS
    18                                                      LEAP SECONDS
    15                                                      # OF SATELLITES
          C1    L1    D1    P2    L2    D2                  COMMENT
   G 1     0     0     0     0     0     0                  PRN / # OF OBS
   G 2     0     0     0     0     0     0                  PRN / # OF OBS
   G 3     0     0     0     0     0     0                  PRN / # OF OBS
   G 4     0     0     0     0     0     0                  PRN / # OF OBS
   G 5   681   681   681   681   681   681                  PRN / # OF OBS
   G 6     0     0     0     0     0     0                  PRN / # OF OBS
   G 7     0     0     0     0     0     0                  PRN / # OF OBS
   G 8   661   661   661   661   661   661                  PRN / # OF OBS
   G 9     0     0     0     0     0     0                  PRN / # OF OBS
   G10  1909  1909  1909  1909  1909  1909                  PRN / # OF OBS
   G11   194   194   194   193   193   193                  PRN / # OF OBS
   G12    69    69    69    69    69    69                  PRN / # OF OBS
   G13  1614  1614  1614  1614  1614  1614                  PRN / # OF OBS
   G14     0     0     0     0     0     0                  PRN / # OF OBS
   G15  2281  2281  2281  2281  2281  2281                  PRN / # OF OBS
   G16     0     0     0     0     0     0                  PRN / # OF OBS
   G17     0     0     0     0     0     0                  PRN / # OF OBS
   G18  2276  2276  2276  2276  2276  2276                  PRN / # OF OBS
   G19     0     0     0     0     0     0                  PRN / # OF OBS
   G20  2268  2268  2268  2268  2268  2268                  PRN / # OF OBS
   G21  1081  1081  1081  1081  1081  1081                  PRN / # OF OBS
   G22     0     0     0     0     0     0                  PRN / # OF OBS
   G23     0     0     0     0     0     0                  PRN / # OF OBS
   G24  2012  2012  2012  2012  2012  2012                  PRN / # OF OBS
   G25     0     0     0     0     0     0                  PRN / # OF OBS
   G26     0     0     0     0     0     0                  PRN / # OF OBS
   G27  1591  1591  1591  1590  1590  1590                  PRN / # OF OBS
   G28     0     0     0     0     0     0                  PRN / # OF OBS
   G29   368   368   368   368   368   368                  PRN / # OF OBS
   G30   473   473   473   473   473   473                  PRN / # OF OBS
   G31     0     0     0     0     0     0                  PRN / # OF OBS
   G32   790   790   790   790   790   790                  PRN / # OF OBS
                                                            END OF HEADER
 20 09 30 05 36 20.0000000  0  7G29G13G18G30G20G 5G15
  23363441.636   122775699.33846     -3443.746    23363441.594    95669381.22345
     -2683.445  
  20593458.732   108219365.27749      -846.223    20593458.234    84326780.50947
      -659.397  
  20690385.487   108728716.53048      1438.745    20690385.644    84723681.42447
      1121.098  
  24005385.282   126149152.96946     -1178.680    24005387.600    98298056.58846
      -918.453  
  22653478.782   119044832.54855      2986.152    22653479.477    92762218.72453
      2326.867  
  22697164.482   119274397.45348     -2982.223    22697163.498    92941085.36145
     -2323.812  
  20228491.268   106301454.83749      1267.890    20228491.100    82832310.26348
       987.964  
 20 09 30 05 36 25.0000000  0  7G29G13G18G30G20G 5G15
  23366718.693   122792920.26446     -3444.629    23366718.701    95682800.14945
     -2684.129  
  20594265.392   108223604.08549      -849.391    20594264.854    84330083.48447
      -661.866  
  20689017.876   108721529.24849      1436.055    20689017.792    84718080.95548
      1119.000  
  24006508.204   126155053.80746     -1181.629    24006510.491    98302654.66745
      -920.754  
  22650637.729   119029903.61945      2985.164    22650639.182    92750585.81744
      2326.109  
  22700002.261   119289310.98848     -2983.300    22700001.312    92952706.29746
     -2324.652  
  20227286.349   106295122.69849      1264.770    20227286.198    82827376.13748
       985.531  
 20 09 30 05 36 30.0000000  0  6G29G13G18G30G 5G15
  23369997.867   122810152.09947     -3446.839    23369997.968    95696227.50944
     -2685.859  
  20595075.840   108227863.42549      -853.492    20595075.334    84333402.44947
      -665.062  
  20687653.466   108714359.69348      1432.254    20687653.605    84712494.30547
      1116.038  
  24007634.662   126160973.85546     -1185.703    24007637.039    98307267.69345
      -923.925  
  22702841.910   119304233.63048     -2985.440    22702840.911    92964334.32546
     -2326.320  
  20226085.270   106288810.70149      1260.702    20226084.905    82822457.70248
       982.363  
 20 09 30 05 36 35.0000000  0  6G13G18G30G20G 5G15
  20595888.973   108232136.46649      -855.316    20595888.512    84336732.09247
      -666.484  
  20686291.362   108707201.03848      1431.272    20686291.369    84706916.11448
      1115.273  
  24008763.611   126166906.21045     -1187.035    24008766.059    98311890.27946
      -924.968  
  22644959.345   119000062.42056      2983.688    22644960.523    92727328.28154
      2324.949  
  22705681.936   119319158.41448     -2984.426    22705681.026    92975964.03046
     -2325.530  
  20224886.820   106282512.02749      1258.937    20224886.333    82817549.65448
       980.987  
 20 09 30 05 36 40.0000000  0  6G29G13G18G30G 5G15
  23376557.583   122844639.54356     -3450.563    23376557.640    95723096.92654
     -2688.753  
  20596704.195   108236420.95549      -860.359    20596703.617    84340070.65447
      -670.413  
  20684930.748   108700051.05948      1426.698    20684930.585    84701344.71547
      1111.711  
  24009894.305   126172848.60746     -1192.070    24009896.851    98316520.74645
      -928.890  
  22708521.966   119334083.24348     -2987.488    22708520.863    92987593.74846
     -2327.917  
  20223690.277   106276224.52649      1253.979    20223689.966    82812650.29448
       977.124  
 20 09 30 05 36 45.0000000  0  6G29G13G18G30G 5G15
  23379840.827   122861892.35846     -3450.547    23379839.836    95736540.65644
     -2688.741  
  20597524.345   108240730.40149      -862.965    20597523.618    84343428.66847
      -672.440  
  20683574.313   108692923.25648      1424.836    20683574.210    84695790.58647
      1110.257  
  24011029.589   126178814.65747     -1194.171    24011032.232    98321169.63046
      -930.523  
  22711364.516   119349021.60148     -2987.687    22711363.641    92999234.04146
     -2328.070  
  20222498.488   106269961.66149      1251.620    20222498.236    82807770.14048
       975.284  
 20 09 30 05 36 50.0000000  0  6G29G13G18G30G 5G15
  23383124.464   122879147.73647     -3451.382    23383124.628    95749986.42546
     -2689.386  
  20598346.773   108245052.01249      -865.565    20598346.038    84346796.15547
      -674.469  
  20682219.618   108685804.88049      1422.715    20682219.553    84690243.80348
      1108.605  
  24012166.997   126184791.46846     -1196.382    24012169.545    98325826.86145
      -932.250  
  22714207.284   119363960.66848     -2987.879    22714206.144    93010874.86746
     -2328.218  
  20221308.972   106263710.65349      1248.918    20221308.695    82802899.23248
       973.179  
 20 09 30 05 36 55.0000000  0  7G29G13G18G30G20G 5G15
  23386409.028   122896408.17347     -3452.433    23386408.855    95763436.12845
     -2690.211  
  20599171.843   108249388.40649      -868.503    20599171.141    84350175.15947
      -676.757  
  20680867.366   108678698.52949      1420.284    20680867.326    84684706.37848
      1106.710  
  24013306.845   126190781.72046     -1199.242    24013309.575    98330494.56146
      -934.479  
  22633611.579   118940429.41056      2980.370    22633612.889    92680856.77454
      2322.363  
  22717050.775   119378903.06248     -2988.675    22717049.640    93022518.28946
     -2328.840  
  20220122.316   106257474.10549      1246.199    20220121.832    82798039.60048
       971.063  
 20 09 30 05 37  0.0000000  0  7G29G13G18G30G20G 5G15
  23389694.616   122913672.05447     -3453.582    23389693.626    95776888.52945
     -2691.101  
  20599999.587   108253738.10649      -871.676    20599998.681    84353564.54547
      -679.229  
  20679517.029   108671602.73948      1417.656    20679517.048    84679177.21647
      1104.663  
  24014448.982   126196783.84745     -1201.921    24014451.853    98335171.53046
      -936.566  
  22630776.197   118925528.40844      2979.359    22630776.546    92669245.64144
      2321.577  
  22719894.486   119393847.23948     -2989.327    22719893.411    93034163.11846
     -2329.351  
  20218937.927   106251250.53949      1242.813    20218937.621    82793190.05148
       968.422  
 20 09 30 05 37  5.0000000  0  7G29G13G18G30G20G 5G15
  23392981.381   122930945.21647     -3455.398    23392980.947    95790348.09245
     -2692.523  
  20600830.764   108258106.69049      -875.374    20600829.888    84356968.63647
      -682.112  
  20678169.893   108664523.15148      1414.550    20678169.717    84673660.65148
      1102.245  
  24015594.505   126202803.51746     -1205.535    24015597.494    98339862.17946
      -939.382  
  22627942.600   118910634.53946      2978.382    22627943.193    92657640.00545
      2320.816  
  22722739.519   119408798.83648     -2990.805    22722738.404    93045813.70045
     -2330.499  
  20217757.163   106245045.54749      1239.405    20217756.877    82788355.00648
       965.770  
 20 09 30 05 37 10.0000000  0  7G29G13G18G30G20G 5G15
  23396269.405   122948224.55347     -3456.608    23396269.247    95803812.50445
     -2693.464  
  20601665.183   108262491.24849      -878.632    20601664.302    84360385.17247
      -684.652  
  20676825.047   108657456.78148      1411.882    20676825.076    84668154.38248
      1100.163  
  24016742.775   126208837.74746     -1208.409    24016745.881    98344564.16345
      -941.621  
  22625109.359   118895744.75845      2977.507    22625108.826    92646037.58745
      2320.133  
  22725585.521   119423754.92448     -2991.852    22725584.339    93057467.76945
     -2331.316  
  20216579.461   106238856.24749      1236.160    20216579.032    82783532.17848
       963.237  
 20 09 30 05 37 15.0000000  0  7G29G13G18G30G20G 5G15
  23399559.194   122965512.57747     -3458.507    23399559.114    95817283.71144
     -2694.945  
  20602503.057   108266894.24149      -882.508    20602502.164    84363816.07747
      -687.671  
  20675483.417   108650406.18848      1408.559    20675483.395    84662660.42348
      1097.574  
  24017894.560   126214889.01146     -1211.789    24017897.382    98349279.42846
      -944.254  
  22622277.192   118880861.55646      2975.945    22622276.702    92634440.29545
      2318.913  
  22728432.921   119438717.95748     -2993.112    22728431.866    93069127.28946
     -2332.300  
  20215405.177   106232685.06249      1232.397    20215404.619    82778723.46748
       960.308  
 20 09 30 05 37 20.0000000  0  7G29G13G18G30G20G 5G15
  23402851.440   122982813.60347     -3460.784    23402851.350    95830765.02345
     -2696.719  
  20603345.324   108271320.01349      -886.839    20603344.199    84367264.72747
      -691.047  
  20674145.419   108643375.67848      1404.711    20674145.652    84657182.09148
      1094.578  
  24019050.136   126220961.69946     -1215.973    24019053.121    98354011.39345
      -947.515  
  22619446.564   118865989.28446      2973.762    22619446.678    92622851.54045
      2317.214  
  22731282.614   119453692.28848     -2995.328    22731281.351    93080795.58046
     -2334.023  
  20214235.057   106226536.38449      1228.191    20214234.587    82773932.28548
       957.026  
 20 09 30 05 37 25.0000000  0  7G29G13G18G30G20G 5G15
  23406144.194   123000117.85947     -3460.272    23406144.306    95844248.84545
     -2696.319  
  20604189.877   108275758.79149      -888.090    20604188.949    84370723.52347
      -692.019  
  20672809.535   108636355.52948      1403.964    20672809.625    84651711.84648
      1093.995  
  24020208.177   126227046.02646     -1217.265    24020211.054    98358752.43546
      -948.523  
  22616616.509   118851118.55946      2975.227    22616616.760    92611263.93543
      2318.351  
  22734132.516   119468668.15548     -2994.086    22734131.303    93092465.09347
     -2333.058  
  20213067.404   106220400.48249      1226.930    20213067.010    82769151.06448
       956.046  
 20 09 30 05 37 30.0000000  0  6G29G13G18G30G 5G15
  23409435.750   123017414.60547     -3459.839    23409435.772    95857726.81645
     -2695.976  
  20605034.989   108280199.88449      -889.745    20605034.227    84374184.10847
      -693.313  
  20671473.669   108629335.03548      1402.917    20671473.860    84646241.33148
      1093.179  
  24021366.119   126233131.30246     -1218.804    24021369.268    98363494.22146
      -949.723  
  22736980.497   119483634.86448     -2993.563    22736979.242    93104127.46046
     -2332.647  
  20211900.126   106214266.61449      1225.226    20211899.666    82764371.42748
       954.718  
 20 09 30 05 37 35.0000000  0  6G29G13G18G30G 5G15
  23412728.913   123034719.69947     -3462.543    23412729.396    95871211.18844
     -2698.109  
  20605883.741   108284659.07649      -894.163    20605882.688    84377658.78947
      -696.753  
  20670140.652   108622330.01548      1398.733    20670140.772    84640782.86948
      1089.917  
  24022527.337   126239233.26546     -1222.676    24022530.327    98368249.00046
      -952.738  
  22739829.989   119498608.17448     -2995.886    22739828.436    93115794.99446
     -2334.460  
  20210736.260   106208150.61249      1220.871    20210735.732    82759605.71748
       951.323  
 20 09 30 05 37 40.0000000  0  7G29G13G18G30G20G 5G15
  23416024.141   123052035.45847     -3464.819    23416024.541    95884704.13044
     -2699.854  
  20606736.100   108289138.78449      -898.784    20606735.325    84381149.47847
      -700.355  
  20668810.898   108615342.86049      1394.690    20668811.319    84635338.32548
      1086.769  
  24023692.165   126245354.41446     -1226.820    24023695.322    98373018.70846
      -955.969  
  22608124.208   118806496.46555      2970.836    22608126.856    92576486.04254
      2314.934  
  22742681.023   119513590.52248     -2997.983    22742679.605    93127469.52346
     -2336.093  
  20209576.211   106202054.92149      1216.258    20209575.716    82754855.83448
       947.730  
 20 09 30 05 37 45.0000000  0  6G29G13G18G30G 5G15
  23419322.224   123069366.81447     -3466.155    23419322.742    95898209.05644
     -2700.902  
  20607593.395   108293643.86849      -901.925    20607592.559    84384659.92347
      -702.801  
  20667485.699   108608378.52149      1392.316    20667486.029    84629911.57748
      1084.918  
  24024861.541   126251499.52446     -1229.542    24024864.978    98377807.09946
      -958.090  
  22745534.723   119528586.81548     -2998.906    22745533.199    93139154.95246
     -2336.812  
  20208421.081   106195984.38849      1213.331    20208420.612    82750125.56248
       945.448  
 20 09 30 05 37 50.0000000  0  6G29G13G18G30G 5G15
  23422620.642   123086699.02147     -3467.593    23422620.888    95911714.63444
     -2702.026  
  20608452.762   108298159.62349      -905.218    20608451.965    84388178.70347
      -705.367  
  20666162.025   108601422.25248      1389.597    20666162.446    84624491.10248
      1082.800  
  24026032.635   126257653.97946     -1232.503    24026035.989    98382602.78746
      -960.394  
  22748388.390   119543582.31048     -2999.977    22748386.814    93150839.74646
     -2337.648  
  20207267.841   106189924.31949      1210.063    20207267.435    82745403.43348
       942.902  
 20 09 30 05 37 55.0000000  0  6G29G13G18G30G 5G15
  23425919.813   123104036.31547     -3467.844    23425920.231    95925224.20444
     -2702.219  
  20609314.987   108302690.27049      -907.555    20609314.305    84391709.06447
      -707.187  
  20664840.645   108594478.35248      1387.637    20664841.042    84619080.26848
      1081.272  
  24027206.376   126263821.99846     -1235.078    24027210.038    98387409.01046
      -962.405  
  22751242.639   119558581.24148     -3000.101    22751241.144    93162527.22246
     -2337.746  
  20206117.457   106183879.04449      1207.624    20206116.950    82740692.82648
       941.004  
 20 09 30 05 38  0.0000000  0  6G29G13G18G30G 5G15
  23429219.305   123121375.50947     -3468.077    23429219.728    95938735.28044
     -2702.401  
  20610179.317   108307232.60449      -909.930    20610178.600    84395248.55148
      -709.039  
  20663520.964   108587543.56948      1385.945    20663521.336    84613676.54248
      1079.953  
  24028382.298   126270000.35447     -1236.586    24028385.705    98392223.32446
      -963.577  
  22754096.876   119573580.45448     -3000.109    22754095.285    93174214.92046
     -2337.749  
  20204969.160   106177845.26449      1205.390    20204968.919    82735991.17548
       939.261  
 20 09 30 05 38  5.0000000  0  6G29G13G18G30G 5G15
  23432520.389   123138723.82647     -3470.878    23432520.868    95952253.42845
     -2704.590  
  20611047.245   108311793.91049      -914.429    20611046.556    84398802.80947
      -712.547  
  20662204.535   108580625.25148      1381.745    20662204.787    84608285.65047
      1076.684  
  24029561.403   126276196.27746     -1241.214    24029564.730    98397051.32946
      -967.183  
  22756952.594   119588587.16448     -3002.507    22756951.094    93185908.47947
     -2339.621  
  20203824.483   106171830.28849      1200.773    20203824.301    82731304.18648
       935.663  
 20 09 30 05 38 10.0000000  0  6G29G13G18G30G 5G15
  23435822.555   123156077.85746     -3471.331    23435822.973    95965775.99645
     -2704.949  
  20611918.207   108316370.78249      -916.809    20611917.673    84402369.20047
      -714.397  
  20660890.373   108573719.90848      1379.754    20660890.662    84602904.87348
      1075.129  
  24030743.172   126282406.42246     -1243.190    24030746.486    98401890.42445
      -968.719  
  22759809.044   119603598.09848     -3002.711    22759807.691    93197605.29947
     -2339.776  
  20202682.685   106165830.69649      1198.397    20202682.616    82726629.17748
       933.813  
 20 09 30 05 38 15.0000000  0  6G13G18G30G20G 5G15
  20612792.944   108320967.18249      -921.297    20612792.140    84405950.80947
      -717.897  
  20659579.636   108566831.59848      1375.809    20659579.989    84597537.35549
      1072.054  
  24031928.343   126288634.72946     -1247.604    24031931.707    98406743.64346
      -972.164  
  22588350.480   118702580.32256      2965.313    22588351.265    92495532.27055
      2310.628  
  22762666.986   119618617.05848     -3004.457    22762665.727    93209308.38346
     -2341.136  
  20201544.687   106159850.44349      1194.144    20201544.600    82721969.25548
       930.500  
 20 09 30 05 38 20.0000000  0  6G13G18G30G20G 5G15
  20613669.953   108325576.58349      -924.062    20613669.328    84409542.55847
      -720.050  
  20658270.798   108559953.79548      1373.645    20658271.248    84592178.02748
      1070.370  
  24033115.788   126294874.66646     -1249.906    24033119.030    98411605.90546
      -974.120  
  22585528.216   118687751.06847      2964.792    22585527.904    92483976.98745
      2310.226  
  22765525.167   119633637.58848     -3005.019    22765524.048    93221012.66746
     -2341.582  
  20200409.182   106153883.07549      1191.390    20200409.037    82717319.34748
       928.352  
 20 09 30 05 38 25.0000000  0  6G13G18G30G20G 5G15
  20614550.408   108330203.90749      -926.223    20614549.921    84413148.25347
      -721.734  
  20656964.984   108553091.41448      1371.977    20656965.191    84586830.72547
      1069.069  
  24034306.451   126301131.17846     -1251.675    24034309.741    98416481.13846
      -975.335  
  22582708.286   118672928.11245      2964.726    22582708.176    92472426.60645
      2310.175  
  22768384.689   119648664.57247     -3005.038    22768383.788    93232722.01347
     -2341.594  
  20199276.895   106147933.45949      1189.276    20199276.886    82712683.28348
       926.707  
 20 09 30 05 38 30.0000000  0  6G13G18G30G20G 5G15
  20615433.514   108334844.22549      -930.043    20615432.989    84416764.08147
      -724.710  
  20655661.103   108546239.53748      1368.598    20655661.329    84581491.59448
      1066.438  
  24035499.246   126307399.32346     -1255.375    24035502.483    98421365.37245
      -978.223  
  22579887.722   118658106.32647      2963.559    22579886.910    92460877.18544
      2309.262  
  22771244.601   119663693.07148     -3006.679    22771243.596    93244432.51147
     -2342.871  
  20198147.091   106141996.67349      1185.323    20198147.159    82708057.23948
       923.624  
 20 09 30 05 38 35.0000000  0  7G29G13G18G30G20G 5G15
  23452351.676   123242936.00555     -3480.105    23452354.559    96033469.38955
     -2711.773  
  20616322.346   108339515.22249      -935.784    20616321.698    84420403.82247
      -729.187  
  20654362.544   108539415.87649      1363.526    20654362.823    84576174.46248
      1062.484  
  24036697.569   126313696.77346     -1261.128    24036700.807    98426272.46645
      -982.698  
  22577070.922   118643303.65747      2959.938    22577069.692    92449342.61645
      2306.440  
  22774107.932   119678740.76047     -3010.058    22774107.053    93256157.98247
     -2345.504  
  20197023.209   106136090.44949      1179.777    20197023.050    82703454.98248
       919.305  
 20 09 30 05 38 40.0000000  0  7G29G13G18G30G20G 5G15
  23455663.097   123260335.16945     -3478.956    23455666.577    96047027.17344
     -2710.878  
  20617213.099   108344196.53549      -936.797    20617212.592    84424051.60148
      -729.976  
  20653065.703   108532600.08349      1363.011    20653065.799    84570863.46148
      1062.081  
  24037897.839   126320003.17346     -1261.515    24037900.835    98431186.53846
      -983.004  
  22574253.896   118628499.68147      2961.382    22574252.388    92437807.04044
      2307.566  
  22776971.283   119693787.30347     -3008.616    22776970.506    93267882.56247
     -2344.379  
  20195901.218   106130194.40649      1178.738    20195901.147    82698860.66548
       918.495  
 20 09 30 05 38 45.0000000  0  7G29G13G18G30G20G 5G15
  23458973.408   123277731.53345     -3480.496    23458977.217    96060582.75445
     -2712.078  
  20618105.195   108348884.90849      -939.699    20618104.722    84427704.88247
      -732.238  
  20651769.429   108525788.93348      1360.484    20651769.734    84565556.07348
      1060.113  
  24039099.056   126326315.29746     -1264.621    24039102.029    98436105.06845
      -985.421  
  22571436.190   118613691.12947      2960.637    22571434.637    92426267.94445
      2306.987  
  22779833.641   119708829.43847     -3009.379    22779832.960    93279603.70947
     -2344.972  
  20194780.574   106124305.31949      1175.765    20194780.445    82694271.76448
       916.179  
 20 09 30 05 38 50.0000000  0  6G13G18G30G20G 5G15
  20618999.167   108353582.29449      -938.874    20618998.789    84431365.18547
      -731.593  
  20650474.686   108518984.38848      1361.738    20650474.629    84560253.83248
      1061.089  
  24040301.834   126332635.06447     -1263.585    24040304.466    98441029.56745
      -984.616  
  22568617.817   118598880.01147      2963.874    22568616.508    92414726.80144
      2309.511  
  22782695.623   119723869.13347     -3006.347    22782694.906    93291322.96047
     -2342.612  
  20193661.630   106118425.16649      1176.550    20193661.444    82689689.83048
       916.788  
 20 09 30 05 38 55.0000000  0  7G29G13G18G30G20G 5G15
  23465596.825   123312536.88655     -3486.257    23465598.620    96087710.94653
     -2716.559  
  20619896.776   108358299.10449      -949.503    20619896.263    84435040.63048
      -739.874  
  20649182.990   108512196.85348      1351.585    20649182.980    84554964.84148
      1053.179  
  24041507.822   126338972.85446     -1273.597    24041510.615    98445968.10545
      -992.417  
  22565800.734   118584076.70547      2955.753    22565799.694    92403191.76245
      2303.183  
  22785558.950   119738916.73748     -3014.562    22785558.597    93303048.35847
     -2349.011  
  20192546.324   106112564.32249      1166.101    20192546.125    82685122.94248
       908.648  
 20 09 30 05 39  0.0000000  0  7G29G13G18G30G20G 5G15
  23468913.375   123329964.94545     -3484.938    23468914.310    96101291.20644
     -2715.543  
  20620800.451   108363048.95048      -950.191    20620800.061    84438741.81247
      -740.409  
  20647897.179   108505439.96548      1351.613    20647897.195    84549699.73548
      1053.203  
  24042720.060   126345342.33146     -1273.815    24042722.596    98450931.34145
      -992.586  
  22562987.940   118569294.87247      2957.562    22562987.337    92391673.44345
      2304.590  
  22788426.491   119753985.98148     -3012.605    22788426.161    93314790.61747
     -2347.488  
  20191437.289   106106736.42649      1165.531    20191437.136    82680581.72348
       908.203  
 20 09 30 05 39  5.0000000  0  7G29G13G18G30G20G 5G15
  23472229.057   123347387.47245     -3484.687    23472229.652    96114867.19543
     -2715.344  
  20621705.265   108367803.15548      -952.026    20621704.841    84442446.39147
      -741.843  
  20646611.947   108498685.12048      1349.801    20646611.897    84544436.21848
      1051.789  
  24043932.609   126351714.88346     -1275.566    24043935.092    98455896.96545
      -993.948  
  22560173.646   118554505.90547      2957.632    22560173.370    92380149.59445
      2304.645  
  22791292.904   119769048.21148     -3012.680    22791292.483    93326527.41547
     -2347.546  
  20190329.032   106100912.87349      1163.430    20190328.875    82676043.89348
       906.566  
 20 09 30 05 39 10.0000000  0  7G29G13G18G30G20G 5G15
  23475545.706   123364815.57946     -3485.991    23475546.278    96128447.53844
     -2716.359  
  20622612.740   108372572.87449      -955.703    20622612.520    84446163.06247
      -744.707  
  20645329.005   108491943.43048      1346.871    20645328.805    84539182.95148
      1049.508  
  24045148.062   126358101.60146     -1278.871    24045150.544    98460873.63046
      -996.526  
  22557360.212   118539720.90047      2956.687    22557359.901    92368628.81744
      2303.909  
  22794159.885   119784114.51848     -3013.729    22794159.587    93338267.38147
     -2348.363  
  20189223.824   106095104.77649      1159.895    20189223.806    82671518.10148
       903.813  
 20 09 30 05 39 15.0000000  0  7G29G13G18G30G20G 5G15
  23478863.596   123382249.74146     -3487.230    23478864.516    96142032.54545
     -2717.328  
  20623523.474   108377358.59548      -958.769    20623523.132    84449892.20947
      -747.098  
  20644048.702   108485215.42848      1344.155    20644048.665    84533940.36548
      1047.391  
  24046366.216   126364503.01046     -1281.632    24046368.509    98465861.71545
      -998.680  
  22554547.794   118524940.44645      2955.477    22554547.440    92357111.60344
      2302.969  
  22797027.861   119799185.39248     -3014.703    22797027.334    93350010.88747
     -2349.124  
  20188121.672   106089312.61849      1156.875    20188121.456    82667004.72248
       901.457  
 20 09 30 05 39 20.0000000  0  7G29G13G18G30G20G 5G15
  23482182.680   123399690.23846     -3488.715    23482183.353    96155622.53344
     -2718.479  
  20624437.268   108382160.54849      -962.098    20624436.668    84453633.98447
      -749.691  
  20642771.078   108478501.30749      1341.417    20642770.992    84528708.57048
      1045.258  
  24047587.147   126370919.26547     -1284.824    24047589.486    98470861.41245
     -1001.164  
  22551736.064   118510164.57947      2954.586    22551735.850    92345597.92545
      2302.273  
  22799896.773   119814261.03548     -3015.507    22799896.348    93361758.14847
     -2349.749  
  20187022.535   106083536.61649      1153.543    20187022.247    82662503.95948
       898.863  
 20 09 30 05 39 25.0000000  0  7G29G13G18G30G20G 5G15
  23485502.704   123417136.83146     -3489.520    23485503.216    96169217.28445
     -2719.109  
  20625354.148   108386978.60149      -965.020    20625353.651    84457388.31447
      -751.965  
  20641496.123   108471801.00049      1338.832    20641495.980    84523487.54848
      1043.242  
  24048810.949   126377350.29346     -1287.800    24048813.170    98475872.60045
     -1003.483  
  22548925.293   118495393.38047      2954.039    22548924.899    92334087.89145
      2301.843  
  22802766.430   119829341.37248     -3016.305    22802766.102    93373509.06047
     -2350.370  
  20185926.472   106077776.73149      1150.487    20185926.230    82658015.73448
       896.480  
 20 09 30 05 39 30.0000000  0  7G29G13G18G30G20G 5G15
  23488823.761   123434589.73146     -3491.559    23488824.299    96182816.91044
     -2720.699  
  20626274.092   108391812.90549      -968.726    20626273.550    84461155.30347
      -754.854  
  20640223.628   108465114.64949      1335.773    20640223.678    84518277.40448
      1040.859  
  24050037.602   126383796.21146     -1290.749    24050039.720    98480895.39745
     -1005.781  
  22546115.260   118480626.93347      2952.352    22546115.177    92322581.58445
      2300.531  
  22805637.052   119844426.52948     -3017.738    22805636.611    93385263.71947
     -2351.487  
  20184833.648   106072033.06049      1146.949    20184833.375    82653540.14548
       893.722  
 20 09 30 05 39 35.0000000  0  7G29G13G18G30G20G 5G15
  23492146.230   123452049.92346     -3492.672    23492147.461    96196422.26544
     -2721.566  
  20627197.481   108396664.53449      -971.777    20627196.623    84464935.78847
      -757.230  
  20638954.166   108458443.33248      1332.909    20638954.069    84513078.97148
      1038.628  
  24051267.214   126390258.11946     -1293.507    24051269.283    98485930.65846
     -1007.930  
  22543306.495   118465866.27047      2951.839    22543306.302    92311079.77245
      2300.133  
  22808508.808   119859517.55548     -3018.491    22808508.354    93397022.96647
     -2352.074  
  20183743.856   106066306.69749      1143.726    20183743.708    82649078.04648
       891.210  
 20 09 30 05 39 40.0000000  0  7G29G13G18G30G20G 5G15
  23495469.867   123469515.68945     -3493.796    23495471.199    96210031.94544
     -2722.441  
  20628123.714   108401531.70349      -975.156    20628122.875    84468728.38747
      -759.863  
  20637687.188   108451785.32148      1330.069    20637687.136    84507890.90848
      1036.414  
  24052499.492   126396734.28246     -1296.934    24052501.481    98490976.99145
     -1010.602  
  22540498.301   118451109.71047      2950.663    22540498.381    92299581.14945
      2299.215  
  22811381.285   119874612.74148     -3019.722    22811381.075    93408785.43547
     -2353.034  
  20182657.122   106060595.90349      1140.397    20182656.965    82644628.08048
       888.617  
 20 09 30 05 39 45.0000000  0  7G29G13G18G30G20G 5G15
  23498794.711   123486988.45446     -3495.058    23498796.730    96223647.06744
     -2723.430  
  20629053.176   108406415.84449      -978.331    20629052.311    84472534.21047
      -762.339  
  20636423.069   108445142.01649      1327.327    20636423.133    84502714.30648
      1034.276  
  24053734.830   126403226.02546     -1300.059    24053736.891    98496035.50746
     -1013.034  
  22537691.174   118436358.65447      2949.722    22537691.101    92288086.83644
      2298.479  
  22814254.892   119889713.45747     -3020.406    22814254.805    93420552.22247
     -2353.565  
  20181573.789   106054902.07549      1137.147    20181573.405    82640191.33248
       886.085  
 20 09 30 05 39 50.0000000  0  7G29G13G18G30G20G 5G15
  23502120.424   123504466.85346     -3496.390    23502122.923    96237266.58044
     -2724.468  
  20629985.667   108411315.67549      -981.636    20629984.671    84476352.25647
      -764.913  
  20635161.446   108438512.17649      1324.491    20635161.577    84497548.19748
      1032.070  
  24054972.826   126409732.11446     -1302.926    24054974.955    98501105.17146
     -1015.270  
  22534884.837   118421611.82047      2948.847    22534884.841    92276595.79545
      2297.801  
  22817129.207   119904818.45947     -3021.570    22817129.271    93432322.33647
     -2354.472  
  20180493.110   106049223.97349      1133.909    20180492.777    82635766.84048
       883.563  
 20 09 30 05 39 55.0000000  0  7G29G13G18G30G20G 5G15
  23505447.472   123521950.95146     -3497.195    23505449.983    96250890.55544
     -2725.089  
  20630921.192   108416231.21049      -984.672    20630919.965    84480182.53547
      -767.280  
  20633902.275   108431895.81048      1321.922    20633902.448    84492392.58548
      1030.065  
  24056213.545   126416252.60746     -1305.589    24056215.748    98506186.07245
     -1017.347  
  22532079.419   118406869.24847      2948.031    22532079.551    92265108.10345
      2297.163  
  22820004.274   119919927.75947     -3022.086    22820004.468    93444095.82047
     -2354.875  
  20179415.679   106043561.59649      1130.898    20179415.331    82631354.59848
       881.214  
 20 09 30 05 40  0.0000000  0  6G13G18G30G20G 5G15
  20631858.949   108421159.40249      -985.120    20631857.724    84484022.68747
      -767.628  
  20632645.186   108425289.89048      1322.109    20632645.510    84487245.13648
      1030.210  
  24057456.487   126422784.37147     -1305.800    24057458.425    98511275.78345
     -1017.512  
  22529274.017   118392127.91745      2949.863    22529274.074    92253621.39144
      2298.597  
  22822879.733   119935038.30347     -3020.230    22822880.096    93455870.28547
     -2353.430  
  20178340.523   106037911.86249      1130.702    20178340.321    82626952.20648
       881.062  
 20 09 30 05 40  5.0000000  0  7G29G13G18G30G20G 5G15
  23512104.462   123556938.64155     -3501.265    23512103.110    96278148.65454
     -2728.261  
  20632799.561   108426102.85149      -992.647    20632798.399    84487874.71947
      -773.495  
  20631390.724   108418697.02048      1314.938    20631390.751    84482107.82448
      1024.625  
  24058702.103   126429330.06847     -1312.664    24058704.139    98516376.30544
     -1022.859  
  22526469.556   118377390.46947      2944.538    22526469.590    92242137.62645
      2294.438  
  22825755.737   119950152.65447     -3025.371    22825756.222    93467647.69447
     -2357.433  
  20177268.401   106032277.41849      1122.961    20177268.002    82622561.73948
       875.031  
 20 09 30 05 40 10.0000000  0  7G29G13G18G30G20G 5G15
  23515436.514   123574444.69246     -3500.847    23515437.809    96291789.75444
     -2727.937  
  20633744.883   108431070.36549      -994.273    20633743.692    84491745.50547
      -774.762  
  20630140.282   108412126.05948      1313.694    20630140.369    84476987.59448
      1023.655  
  24059951.921   126435898.55947     -1314.476    24059953.963    98521494.59644
     -1024.270  
  22523667.412   118362665.66647      2945.207    22523667.552    92230663.74945
      2294.965  
  22828634.182   119965279.76447     -3025.011    22828635.076    93479435.05747
     -2357.155  
  20176200.848   106026667.14149      1121.270    20176200.547    82618190.09648
       873.714  
 20 09 30 05 40 15.0000000  0  7G29G13G18G30G20G 5G15
  23518767.887   123591949.11346     -3501.651    23518768.705    96305429.55945
     -2728.563  
  20634691.715   108436046.28549      -996.781    20634690.457    84495622.84847
      -776.715  
  20628890.960   108405561.39248      1311.508    20628891.186    84471872.27248
      1021.948  
  24061203.286   126442474.12047     -1316.734    24061205.246    98526618.39145
     -1026.030  
  22520864.721   118347937.92347      2944.940    22520865.054    92219187.61045
      2294.758  
  22831511.985   119980403.93947     -3025.112    22831513.207    93491220.11747
     -2357.233  
  20175134.834   106021065.35449      1118.816    20175134.579    82613825.07248
       871.800  
 20 09 30 05 40 20.0000000  0  7G29G13G18G30G20G 5G15
  23522100.293   123609459.86746     -3502.819    23522100.623    96319074.30144
     -2729.473  
  20635641.620   108441038.56749     -1000.269    20635640.432    84499512.93447
      -779.433  
  20627644.326   108399010.93948      1308.565    20627644.700    84466768.02748
      1019.660  
  24062457.347   126449064.72647     -1319.699    24062459.225    98531753.91345
     -1028.339  
  22518063.128   118333215.20247      2943.933    22518063.545    92207715.37145
      2293.972  
  22834391.035   119995533.04447     -3026.710    22834392.286    93503009.02948
     -2358.480  
  20174072.037   106015480.00849      1115.348    20174071.541    82609472.85648
       869.097  
 20 09 30 05 40 25.0000000  0  7G29G13G18G30G20G 5G15
  23525433.884   123626976.81746     -3503.968    23525433.745    96332723.84545
     -2730.367  
  20636594.731   108446047.10449     -1003.012    20636593.594    84503415.69147
      -781.569  
  20626400.529   108392474.58948      1306.128    20626400.616    84461674.77548
      1017.758  
  24063714.496   126455670.24647     -1322.472    24063716.359    98536901.07345
     -1030.500  
  22515262.287   118318497.34047      2943.414    22515262.631    92196246.90745
      2293.566  
  22837270.723   120010666.90747     -3026.875    22837272.105    93514801.65447
     -2358.604  
  20173012.114   106009910.97949      1112.551    20173011.897    82605133.35748
       866.917  
 20 09 30 05 40 30.0000000  0  7G29G13G18G30G20G 5G15
  23528768.709   123644500.03746     -3505.297    23528768.002    96346378.29045
     -2731.402  
  20637550.678   108451071.98448     -1006.754    20637549.958    84507331.18447
      -784.487  
  20625159.404   108385952.46448      1302.828    20625159.476    84456592.60647
      1015.188  
  24064974.272   126462290.75547     -1325.840    24064976.009    98542059.91145
     -1033.125  
  22512462.412   118303784.46147      2941.949    22512462.996    92184782.33845
      2292.426  
  22840151.526   120025805.69147     -3028.621    22840153.134    93526598.11347
     -2359.969  
  20171955.607   106004358.37349      1108.636    20171955.189    82600806.65548
       863.870  
 20 09 30 05 40 35.0000000  0  7G29G13G18G30G20G 5G15
  23532104.046   123662029.81945     -3506.652    23532103.899    96360037.85445
     -2732.465  
  20638510.049   108456113.51448     -1010.269    20638509.283    84511259.64847
      -787.226  
  20623920.939   108379444.87848      1299.913    20623921.017    84451521.76248
      1012.918  
  24066237.059   126468926.56146     -1329.023    24066238.804    98547230.65545
     -1035.604  
  22509663.531   118289076.86647      2940.750    22509664.143    92173321.88045
      2291.491  
  22843033.285   120040949.71447     -3029.602    22843034.877    93538398.64847
     -2360.729  
  20170902.165   105998822.46749      1105.254    20170901.672    82596492.96348
       861.234  
 20 09 30 05 40 40.0000000  0  7G29G13G18G30G20G 5G15
  23535440.959   123679566.69645     -3507.886    23535440.902    96373702.94945
     -2733.422  
  20639472.650   108461172.17148     -1013.249    20639472.038    84515201.46847
      -789.547  
  20622685.511   108372952.34748      1297.285    20622685.485    84446462.65347
      1010.866  
  24067502.943   126475578.19746     -1331.647    24067504.586    98552413.76245
     -1037.652  
  22506865.997   118274375.09947      2940.051    22506866.500    92161865.96645
      2290.944  
  22845916.228   120056099.49447     -3030.101    22845917.836    93550203.66747
     -2361.120  
  20169851.955   105993303.82649      1102.284    20169851.563    82592192.72448
       858.921  
 20 09 30 05 40 45.0000000  0  7G29G13G18G30G20G 5G15
  23538778.823   123697109.22545     -3509.198    23538779.429    96387372.47045
     -2734.440  
  20640438.140   108466246.54449     -1016.695    20640437.714    84519155.53247
      -792.233  
  20621452.541   108366473.48648      1294.222    20621452.667    84441414.19048
      1008.480  
  24068771.437   126482244.24346     -1334.836    24068773.318    98557608.09845
     -1040.136  
  22504069.041   118259677.74647      2938.746    22504069.851    92150413.50045
      2289.930  
  22848799.956   120071253.58847     -3031.296    22848801.713    93562012.03547
     -2362.050  
  20168804.968   105987801.02649      1098.741    20168804.393    82587904.83248
       856.159  
 20 09 30 05 40 50.0000000  0  7G29G13G18G30G20G 5G15
  23542117.585   123714657.63145     -3510.554    23542118.202    96401046.59644
     -2735.495  
  20641406.705   108471336.88749     -1019.738    20641406.590    84523122.04147
      -794.604  
  20620222.236   108360008.53448      1291.503    20620222.320    84436376.56148
      1006.362  
  24070042.573   126488924.95246     -1337.855    24070044.529    98562813.84045
     -1042.488  
  22501273.255   118244985.04247      2937.944    22501273.909    92138964.64745
      2289.305  
  22851684.653   120086412.27348     -3032.237    22851686.109    93573823.99847
     -2362.785  
  20167760.846   105982314.31849      1095.632    20167760.399    82583629.47448
       853.737  
 20 09 30 05 40 55.0000000  0  7G29G13G18G30G20G 5G15
  23545457.804   123732212.79045     -3511.781    23545458.300    96414725.92444
     -2736.456  
  20642378.700   108476444.03949     -1022.871    20642378.395    84527101.63947
      -797.047  
  20618994.787   108353558.33948      1288.809    20618994.944    84431350.44248
      1004.261  
  24071316.976   126495621.11146     -1340.690    24071318.931    98568031.61445
     -1044.699  
  22498478.218   118230297.89947      2937.320    22498479.154    92127520.12445
      2288.815  
  22854570.279   120101576.31048     -3033.121    22854571.929    93585640.13747
     -2363.472  
  20166719.945   105976844.53649      1092.573    20166719.580    82579367.30648
       851.352  
 20 09 30 05 41  0.0000000  0  7G29G13G18G30G20G 5G15
  23548799.208   123749771.98845     -3512.444    23548799.675    96428408.42444
     -2736.972  
  20643353.205   108481565.34449     -1025.789    20643353.117    84531092.27447
      -799.319  
  20617769.638   108347120.26448      1286.210    20617769.750    84426333.75748
      1002.237  
  24072593.730   126502330.12046     -1343.237    24072595.719    98573259.41145
     -1046.684  
  22495683.963   118215613.61647      2936.870    22495684.691    92116077.82945
      2288.468  
  22857456.514   120116743.10847     -3033.741    22857457.928    93597458.41247
     -2363.956  
  20165681.914   105971389.05249      1089.523    20165681.451    82575116.27848
       848.977  
 20 09 30 05 41  5.0000000  0  7G29G13G18G30G20G 5G15
  23552141.569   123767335.96446     -3513.422    23552141.784    96442094.61244
     -2737.738  
  20644330.580   108486701.51749     -1028.788    20644330.497    84535094.48547
      -801.656  
  20616546.992   108340695.06048      1283.793    20616547.280    84421327.10648
      1000.355  
  24073872.922   126509052.66446     -1345.901    24073874.960    98578497.75045
     -1048.758  
  22492890.262   118200932.96247      2935.960    22492891.084    92104638.35045
      2287.758  
  22860343.266   120131913.37348     -3034.391    22860344.684    93609279.38646
     -2364.464  
  20164646.537   105965948.57349      1086.652    20164646.024    82570876.94348
       846.737  
 20 09 30 05 41 10.0000000  0  7G29G13G18G30G20G 5G15
  23555484.917   123784904.81245     -3514.477    23555485.072    96455784.63045
     -2738.554  
  20645310.832   108491852.77549     -1031.824    20645310.825    84539108.45247
      -804.023  
  20615326.656   108334282.93248      1281.038    20615327.011    84416330.65248
       998.210  
  24075154.783   126515788.98246     -1348.679    24075156.896    98583746.84545
     -1050.921  
  22490097.496   118186256.12747      2934.819    22490097.980    92093201.87045
      2286.871  
  22863230.790   120147087.35248     -3035.219    22863232.188    93621103.26347
     -2365.108  
  20163614.188   105960523.35849      1083.382    20163613.755    82566649.50448
       844.190  
 20 09 30 05 41 15.0000000  0  7G29G13G18G30G20G 5G15
  23558829.466   123802479.91145     -3515.769    23558829.563    96469479.51044
     -2739.562  
  20646294.327   108497020.45349     -1035.159    20646294.294    84543135.21547
      -806.620  
  20614109.347   108327885.24148      1278.108    20614109.671    84411345.43948
       995.925  
  24076439.644   126522540.41146     -1351.637    24076441.682    98589007.70646
     -1053.226  
  22487305.471   118171584.46947      2933.925    22487306.189    92081769.42044
      2286.171  
  22866119.287   120162266.38248     -3036.319    22866120.672    93632931.05746
     -2365.969  
  20162584.882   105955114.75749      1080.011    20162584.663    82562435.01348
       841.563  
 20 09 30 05 41 20.0000000  0  7G29G13G18G30G20G 5G15
  23562175.193   123820060.35545     -3516.687    23562175.310    96483178.53745
     -2740.277  
  20647280.688   108502203.62449     -1038.108    20647280.664    84547174.04847
      -808.918  
  20612894.531   108321501.09048      1275.503    20612894.784    84406370.77648
       993.894  
  24077726.938   126529305.99946     -1354.531    24077729.176    98594279.59145
     -1055.480  
  22484514.451   118156917.12347      2933.211    22484515.094    92070340.32245
      2285.617  
  22869008.533   120177449.50548     -3037.145    22869009.889    93644762.04446
     -2366.609  
  20161558.620   105949721.83649      1077.082    20161558.263    82558232.73448
       839.281  
 20 09 30 05 41 25.0000000  0  7G29G13G18G30G20G 5G15
  23565521.756   123837646.97845     -3517.827    23565522.099    96496882.42244
     -2741.167  
  20648270.275   108507403.09549     -1041.515    20648269.959    84551225.57947
      -811.574  
  20611682.373   108315131.28248      1272.586    20611682.832    84401407.28448
       991.621  
  24079017.295   126536086.58946     -1357.757    24079019.610    98599563.17145
     -1057.995  
  22481724.152   118142254.87347      2931.917    22481725.000    92058915.19645
      2284.608  
  22871898.724   120192637.52748     -3038.195    22871899.847    93656596.84546
     -2367.434  
  20160535.592   105944345.41449      1073.718    20160535.279    82554043.31748
       836.659  
 20 09 30 05 41 30.0000000  0  7G29G13G18G30G20G 5G15
  23568869.631   123855239.80545     -3518.945    23568870.012    96510591.06645
     -2742.039  
  20649262.706   108512618.95049     -1044.719    20649262.410    84555289.87647
      -814.070  
  20610472.896   108308775.87648      1269.609    20610473.552    84396455.01848
       989.305  
  24080310.440   126542882.20846     -1360.406    24080312.792    98604858.47245
     -1060.059  
  22478934.981   118127597.77747      2930.922    22478935.878    92047494.08445
      2283.831  
  22874789.856   120207830.46847     -3038.925    22874791.027    93668435.49447
     -2367.995  
  20159515.598   105938985.55949      1070.272    20159515.227    82549866.81048
       833.976  
 20 09 30 05 41 35.0000000  0  7G29G13G18G30G20G 5G15
  23572218.660   123872838.47545     -3520.354    23572219.145    96524304.33145
     -2743.136  
  20650258.338   108517850.65749     -1047.944    20650258.040    84559366.52947
      -816.582  
  20609266.279   108302434.43549      1266.995    20609266.747    84391513.63148
       987.265  
  24081606.285   126549692.38946     -1363.320    24081608.845    98610165.09346
     -1062.332  
  22476146.710   118112945.34547      2930.086    22476147.459    92036076.59945
      2283.180  
  22877681.760   120223027.90247     -3039.733    22877682.933    93680277.64747
     -2368.628  
  20158498.659   105933641.78849      1067.168    20158498.357    82545702.83548
       831.554  
 20 09 30 05 41 40.0000000  0  7G29G13G18G30G20G 5G15
  23575568.562   123890442.54746     -3521.160    23575568.894    96538021.80445
     -2743.766  
  20651257.021   108523098.02149     -1051.151    20651256.581    84563455.39047
      -819.082  
  20608062.144   108296106.72649      1264.152    20608062.608    84386582.94648
       985.051  
  24082904.773   126556516.92646     -1366.566    24082907.374    98615482.91545
     -1064.858  
  22473359.218   118098297.41347      2928.987    22473360.096    92024662.62745
      2282.323  
  22880574.612   120238229.62747     -3040.437    22880575.853    93692123.13947
     -2369.175  
  20157484.757   105928313.88849      1063.918    20157484.660    82541551.23048
       829.023  
 20 09 30 05 41 45.0000000  0  7G29G13G18G30G20G 5G15
  23578919.669   123908052.51646     -3522.522    23578920.060    96551743.83244
     -2744.828  
  20652258.550   108528361.43549     -1054.012    20652258.031    84567556.75347
      -821.313  
  20606860.858   108289793.17549      1261.526    20606861.410    84381663.30348
       983.004  
  24084206.355   126563356.18946     -1368.819    24084208.935    98620812.21345
     -1066.617  
  22470572.724   118083654.32247      2928.391    22470573.650    92013252.40645
      2281.858  
  22883468.403   120253436.03847     -3041.379    22883469.485    93703972.29847
     -2369.910  
  20156474.087   105923002.25149      1060.894    20156473.882    82537412.29248
       826.668  
 20 09 30 05 41 50.0000000  0  7G29G13G18G30G20G 5G15
  23582271.694   123925667.80945     -3523.944    23582272.534    96565470.02645
     -2745.938  
  20653263.116   108533640.40649     -1057.460    20653262.669    84571670.23547
      -824.000  
  20605662.042   108283493.29049      1258.586    20605662.644    84376754.30748
       980.714  
  24085510.424   126570209.67946     -1372.125    24085513.017    98626152.58845
     -1069.190  
  22467787.024   118069015.65047      2927.265    22467787.954    92001845.66545
      2280.983  
  22886362.756   120268646.59247     -3042.507    22886363.875    93715824.68447
     -2370.788  
  20155466.262   105917706.37449      1057.616    20155466.027    82533285.63948
       824.113  
 20 09 30 05 41 55.0000000  0  7G29G13G18G30G20G 5G15
  23585624.858   123943288.42846     -3524.676    23585625.858    96579200.36045
     -2746.508  
  20654270.549   108538934.90749     -1060.324    20654270.004    84575795.82247
      -826.230  
  20604465.861   108277207.09849      1255.804    20604466.291    84371855.97548
       978.547  
  24086817.405   126577077.44446     -1375.129    24086820.131    98631504.09345
     -1071.530  
  22465002.241   118054381.39047      2926.210    22465003.232    91990442.35145
      2280.159  
  22889258.096   120283861.33247     -3043.335    22889259.266    93727680.32547
     -2371.433  
  20154461.488   105912426.34349      1054.383    20154461.341    82529171.33548
       821.594  
 20 09 30 05 42  0.0000000  0  7G29G13G18G30G20G 5G15
  23588978.946   123960914.28045     -3525.684    23588980.075    96592934.78644
     -2747.289  
  20655281.039   108544244.87949     -1063.656    20655280.503    84579933.46147
      -828.828  
  20603272.150   108270934.50948      1253.168    20603272.841    84366968.24448
       976.491  
  24088127.024   126583959.32046     -1378.042    24088129.697    98636866.58045
     -1073.804  
  22462218.239   118039751.42347      2926.038    22462219.241    91979042.37545
      2280.027  
  22892154.140   120299080.14747     -3044.043    22892155.386    93739539.14147
     -2371.984  
  20153459.772   105907162.01249      1051.292    20153459.594    82525069.25848
       819.188  
 20 09 30 05 42  5.0000000  0  7G29G13G18G30G20G 5G15
  23592334.203   123978546.30246     -3527.569    23592335.695    96606674.02145
     -2748.757  
  20656294.763   108549571.19349     -1067.207    20656293.937    84584083.83447
      -831.594  
  20602081.276   108264676.45948      1249.897    20602081.812    84362091.83948
       973.945  
  24089439.439   126590856.26446     -1380.930    24089442.114    98642240.83345
     -1076.051  
  22459435.181   118025126.76047      2924.183    22459436.276    91967646.53544
      2278.581  
  22895050.981   120314303.99348     -3045.539    22895052.241    93751401.87346
     -2373.151  
  20152461.117   105901914.32349      1047.722    20152461.009    82520980.15348
       816.402  
 20 09 30 05 42 10.0000000  0  7G29G13G18G30G20G 5G15
  23595690.378   123996183.56246     -3527.488    23595692.005    96620417.36146
     -2748.694  
  20657311.337   108554913.01249     -1069.703    20657310.566    84588246.28847
      -833.538  
  20600893.043   108258432.09648      1247.641    20600893.671    84357226.09748
       972.183  
  24090754.519   126597767.40046     -1383.391    24090757.564    98647626.13045
     -1077.968  
  22456653.102   118010506.49647      2923.616    22456654.272    91956254.13245
      2278.141  
  22897948.980   120329532.07748     -3045.937    22897950.009    93763267.90347
     -2373.461  
  20151465.503   105896682.39949      1044.977    20151465.353    82516903.33048
       814.265  
 20 09 30 05 42 15.0000000  0  7G29G13G18G30G20G 5G15
  23599047.591   124013825.99046     -3528.878    23599049.303    96634164.68646
     -2749.776  
  20658330.773   108560270.21449     -1073.039    20658329.877    84592420.72847
      -836.137  
  20599707.301   108252201.32248      1244.726    20599707.718    84352370.94648
       969.913  
  24092072.269   126604692.66046     -1386.578    24092075.328    98653022.43544
     -1080.453  
  22453871.763   117995890.52247      2922.647    22453872.903    91944865.07545
      2277.386  
  22900847.568   120344764.13648     -3046.824    22900848.780    93775137.04146
     -2374.151  
  20150472.951   105891466.13049      1041.602    20150472.640    82512838.70848
       811.632  
 20 09 30 05 42 20.0000000  0  7G29G13G18G30G20G 5G15
  23602405.970   124031473.79846     -3530.027    23602407.741    96647916.21145
     -2750.675  
  20659353.245   108565643.02849     -1076.164    20659352.366    84596607.33947
      -838.574  
  20598524.220   108245984.37848      1241.968    20598524.703    84347526.57248
       967.766  
  24093392.900   126611632.21646     -1389.266    24093395.670    98658429.86045
     -1082.547  
  22451091.383   117981279.11947      2921.905    22451092.287    91933479.57845
      2276.808  
  22903746.913   120360000.45448     -3047.769    22903748.048    93787009.49747
     -2374.887  
  20149483.268   105886265.74649      1038.425    20149483.108    82508786.46248
       809.160  
 20 09 30 05 42 25.0000000  0  7G29G13G18G30G20G 5G15
  23605765.490   124049127.00946     -3531.128    23605766.907    96661671.96545
     -2751.530  
  20660378.564   108571031.46249     -1079.238    20660377.804    84600806.11847
      -840.968  
  20597343.841   108239781.25548      1239.301    20597344.130    84342692.97748
       965.687  
  24094716.191   126618586.06347     -1392.253    24094719.015    98663848.45345
     -1084.875  
  22448311.822   117966672.23948      2921.113    22448312.671    91922097.60644
      2276.187  
  22906647.219   120375241.03948     -3048.335    22906648.242    93798885.27747
     -2375.328  
  20148496.796   105881081.27249      1035.421    20148496.498    82504746.61348
       806.820  
 20 09 30 05 42 30.0000000  0  7G29G13G18G30G20G 5G15
  23609125.778   124066785.93946     -3532.277    23609127.523    96675432.15545
     -2752.425  
  20661406.923   108576435.86649     -1082.434    20661406.175    84605017.34247
      -843.456  
  20596166.104   108233592.36148      1236.418    20596166.507    84337870.46648
       963.438  
  24096042.177   126625554.60647     -1395.190    24096045.066    98669278.47444
     -1087.164  
  22445533.173   117952070.34148      2919.960    22445533.992    91910719.50744
      2275.292  
  22909548.276   120390486.22948     -3049.527    22909549.206    93810764.64547
     -2376.258  
  20147513.383   105875913.08649      1032.031    20147513.071    82500719.45648
       804.176  
 20 09 30 05 42 35.0000000  0  7G29G13G18G30G20G 5G15
  23612487.426   124084450.07947     -3533.136    23612488.791    96689196.39445
     -2753.098  
  20662438.300   108581855.66249     -1085.285    20662437.473    84609240.55547
      -845.680  
  20594991.047   108227417.14448      1233.773    20594991.349    84333058.60848
       961.379  
  24097371.022   126632537.26647     -1397.887    24097373.790    98674719.49944
     -1089.266  
  22442755.305   117937472.82947      2918.933    22442755.970    91899344.84644
      2274.492  
  22912450.107   120405735.48348     -3050.273    22912451.147    93822647.17147
     -2376.839  
  20146532.817   105870760.64849      1029.101    20146532.564    82496704.57048
       801.895  
 20 09 30 05 42 40.0000000  0  7G29G13G18G30G20G 5G15
  23615849.629   124102118.67347     -3534.195    23615850.991    96702964.13545
     -2753.921  
  20663472.539   108587290.25049     -1088.645    20663471.710    84613475.30147
      -848.297  
  20593818.253   108221254.94948      1230.824    20593818.625    84328256.90448
       959.081  
  24098702.361   126639533.40447     -1400.765    24098705.277    98680171.02945
     -1091.507  
  22439978.380   117922879.01847      2918.015    22439978.907    91887973.04744
      2273.772  
  22915352.760   120420988.12148     -3051.188    22915353.542    93834532.33947
     -2377.551  
  20145555.285   105865623.30949      1025.753    20145554.969    82492701.45148
       799.285  
 20 09 30 05 42 45.0000000  0  7G29G13G18G30G20G 5G15
  23619213.130   124119793.45447     -3535.218    23619214.288    96716736.68045
     -2754.719  
  20664509.819   108592741.26049     -1091.940    20664508.873    84617722.84147
      -850.866  
  20592648.514   108215107.48748      1228.050    20592648.840    84323466.67447
       956.918  
  24100036.554   126646544.66647     -1403.641    24100039.304    98685634.33644
     -1093.749  
  22437202.241   117908290.62347      2917.352    22437202.480    91876605.48145
      2273.257  
  22918256.169   120436245.85748     -3051.882    22918256.923    93846421.47647
     -2378.093  
  20144580.811   105860502.78449      1022.418    20144580.558    82488711.43148
       796.687  
 20 09 30 05 42 50.0000000  0  7G29G13G18G30G20G 5G15
  23622577.584   124137473.50147     -3536.605    23622578.686    96730513.32945
     -2755.800  
  20665549.932   108598207.81049     -1094.898    20665549.215    84621982.49347
      -853.172  
  20591481.259   108208973.86548      1225.417    20591481.734    84318687.22748
       954.867  
