     2.11           OBSERVATION DATA    G                   RINEX VERSION / TYPE
LEICA GEO OFFICE 8.4                    27-9-20 23:26       PGM / RUN BY / DATE
                                                            OBSERVER / AGENCY
powo                                                        MARKER NAME
powo                                                        MARKER NUMBER
457569              LEICA GX1220        2.14                REC # / TYPE / VERS
                    LEIAX1202                               ANT # / TYPE
 -1148910.5689  3863062.9758  4927934.5720                  APPROX POSITION XYZ
        1.3970        0.0000        0.0000                  ANTENNA: DELTA H/E/N
L1PhaOff:   0.0648  L2PhaOff:   0.0622                      COMMENT
     1     1                                                WAVELENGTH FACT L1/2
     6    C1    L1    D1    P2    L2    D2                  # / TYPES OF OBSERV
  2020     9    27     3    52   45.0000000     GPS         TIME OF FIRST OBS
  2020     9    27     9    30    0.0000000     GPS         TIME OF LAST OBS
    18                                                      LEAP SECONDS
    18                                                      # OF SATELLITES
          C1    L1    D1    P2    L2    D2                  COMMENT
   G 1     0     0     0     0     0     0                  PRN / # OF OBS
   G 2  1126  1126  1126  1126  1126  1126                  PRN / # OF OBS
   G 3     0     0     0     0     0     0                  PRN / # OF OBS
   G 4     0     0     0     0     0     0                  PRN / # OF OBS
   G 5  2052  2052  2052  2052  2052  2052                  PRN / # OF OBS
   G 6     0     0     0     0     0     0                  PRN / # OF OBS
   G 7   997   997   997   996   996   996                  PRN / # OF OBS
   G 8   667   667   667   667   667   667                  PRN / # OF OBS
   G 9     0     0     0     0     0     0                  PRN / # OF OBS
   G10  2346  2346  2346  2345  2345  2345                  PRN / # OF OBS
   G11   563   563   563   563   563   563                  PRN / # OF OBS
   G12   440   440   440   439   439   439                  PRN / # OF OBS
   G13  2980  2980  2980  2980  2980  2980                  PRN / # OF OBS
   G14     0     0     0     0     0     0                  PRN / # OF OBS
   G15  3922  3922  3922  3922  3922  3922                  PRN / # OF OBS
   G16     0     0     0     0     0     0                  PRN / # OF OBS
   G17     0     0     0     0     0     0                  PRN / # OF OBS
   G18  3698  3698  3698  3698  3698  3698                  PRN / # OF OBS
   G19     0     0     0     0     0     0                  PRN / # OF OBS
   G20  3312  3312  3312  3312  3312  3312                  PRN / # OF OBS
   G21  1510  1510  1510  1509  1509  1509                  PRN / # OF OBS
   G22     0     0     0     0     0     0                  PRN / # OF OBS
   G23     0     0     0     0     0     0                  PRN / # OF OBS
   G24  2507  2507  2507  2506  2506  2506                  PRN / # OF OBS
   G25    42    42    42    42    42    42                  PRN / # OF OBS
   G26     0     0     0     0     0     0                  PRN / # OF OBS
   G27  1616  1616  1616  1616  1616  1616                  PRN / # OF OBS
   G28     0     0     0     0     0     0                  PRN / # OF OBS
   G29  1807  1807  1807  1807  1807  1807                  PRN / # OF OBS
   G30  1710  1710  1710  1710  1710  1710                  PRN / # OF OBS
   G31     0     0     0     0     0     0                  PRN / # OF OBS
   G32  1213  1213  1213  1213  1213  1213                  PRN / # OF OBS
                                                            END OF HEADER
 20 09 27 03 52 45.0000000  0  7G 5G 2G29G15G13G 7G18
  20119240.826   105727320.01848      -615.426    20119240.104    82384926.82247
      -479.554  
  21865700.469   114905027.23048     -1877.913    21865698.251    89536374.51247
     -1463.313  
  21035187.814   110540657.92348       540.078    21035188.410    86135578.17348
       420.835  
  24112671.226   126712948.22047      4059.070    24112673.722    98737389.16346
      3162.910  
  22438500.841   117915126.59648      3291.867    22438502.194    91881919.09445
      2565.090  
  25025481.165   131509798.35945      1311.922    25025482.366   102475168.34645
      1022.522  
  24228498.989   127321624.37947      3366.430    24228500.375    99211658.88245
      2623.183  
 20 09 27 03 52 50.0000000  0  7G 5G 2G29G15G13G 7G18
  20119827.522   105730403.09148      -617.949    20119826.960    82387329.21247
      -481.522  
  21867487.711   114914419.74848     -1879.413    21867485.617    89543693.35347
     -1464.479  
  21034675.366   110537964.93248       536.913    21034675.806    86133479.74248
       418.370  
  24108808.820   126692651.82947      4059.246    24108811.358    98721573.77546
      3163.047  
  22435369.569   117898671.05448      3290.203    22435370.696    91869096.60245
      2563.793  
  25024233.769   131503243.71845      1309.593    25024235.056   102470060.82045
      1020.461  
  24225295.506   127304790.77546      3366.625    24225296.835    99198541.76746
      2623.339  
 20 09 27 03 52 55.0000000  0  7G 5G 2G29G15G13G 7G18
  20120417.028   105733501.59148      -620.831    20120416.487    82389743.63247
      -483.770  
  21869277.207   114923823.51948     -1881.496    21869274.929    89551020.97547
     -1466.105  
  21034166.888   110535292.01648       532.940    21034167.129    86131396.94948
       415.277  
  24104947.537   126672360.74247      4058.198    24104950.119    98705762.55345
      3162.229  
  22432240.377   117882227.35148      3287.824    22432241.593    91856283.35346
      2561.938  
  25022989.199   131496703.61645      1306.468    25022990.478   102464964.63644
      1018.023  
  24222092.890   127287961.35146      3365.797    24222094.195    99185427.95946
      2622.694  
 20 09 27 03 53  0.0000000  0  7G 5G 2G29G15G13G 7G18
  20121009.014   105736612.50248      -623.354    20121008.436    82392167.72047
      -485.733  
  21871068.255   114933235.53948     -1883.309    21871066.213    89558355.01447
     -1467.515  
  21033661.454   110532636.13248       529.504    21033661.831    86129327.43048
       412.597  
  24101086.662   126652071.96047      4057.741    24101089.338    98689953.11246
      3161.875  
  22429112.881   117865792.47048      3286.184    22429113.973    91843476.96046
      2560.659  
  25021746.901   131490175.01445      1304.659    25021748.155   102459877.40845
      1016.613  
  24218890.525   127271133.09346      3365.691    24218892.154    99172315.07446
      2622.617  
 20 09 27 03 53  5.0000000  0  7G 5G 2G29G15G13G 7G18
  20121603.275   105739735.39748      -625.961    20121602.840    82394601.14347
      -487.766  
  21872860.827   114942655.38248     -1884.824    21872858.718    89565695.14847
     -1468.699  
  21033159.068   110529996.91748       526.102    21033159.489    86127270.89648
       409.944  
  24097226.381   126631785.04447      4057.141    24097228.819    98674145.11846
      3161.405  
  22425986.909   117849365.99948      3284.398    22425988.359    91830677.12346
      2559.269  
  25020506.456   131483657.58545      1302.354    25020507.880   102454798.90844
      1014.819  
  24215688.292   127254305.71447      3365.351    24215689.676    99159202.80555
      2622.347  
 20 09 27 03 53 10.0000000  0  7G 5G 2G29G15G13G 7G18
  20122200.021   105742871.56548      -628.551    20122199.466    82397044.91247
      -489.780  
  21874655.107   114952084.29448     -1886.746    21874652.972    89573042.35047
     -1470.195  
  21032660.276   110527375.59048       522.456    21032660.842    86125228.30048
       407.104  
  24093366.445   126611501.28747      4056.394    24093368.830    98658339.60845
      3160.824  
  22422863.035   117832949.21248      3282.359    22422864.171    91817884.81746
      2557.680  
  25019268.432   131477152.44745      1299.804    25019270.012   102449729.98345
      1012.832  
  24212486.554   127237480.30846      3364.832    24212487.830    99146092.06546
      2621.945  
 20 09 27 03 53 15.0000000  0  7G 5G 2G29G15G13G 7G18
  20122799.250   105746020.72648      -630.995    20122798.778    82399498.80747
      -491.688  
  21876450.899   114961521.99448     -1888.191    21876448.899    89580396.39947
     -1471.320  
  21032164.739   110524771.90348       519.171    21032165.364    86123199.46248
       404.547  
  24089507.114   126591220.46346      4056.332    24089509.569    98642536.36345
      3160.772  
  22419740.694   117816541.88848      3280.727    22419741.905    91805099.90846
      2556.406  
  25018032.850   131470659.45045      1297.667    25018034.551   102444670.50844
      1011.168  
  24209285.009   127220656.67247      3364.660    24209286.358    99132982.79146
      2621.812  
 20 09 27 03 53 20.0000000  0  7G 5G 2G29G15G13G 7G18
  20123400.738   105749181.81548      -633.163    20123400.266    82401961.98947
      -493.378  
  21878248.411   114970967.54548     -1889.949    21878246.296    89587756.56547
     -1472.690  
  21031672.442   110522184.89848       515.797    21031673.027    86121183.61148
       401.918  
  24085648.103   126570941.66047      4055.491    24085650.514    98626734.70746
      3160.120  
  22416620.264   117800143.04448      3278.949    22416621.354    91792321.58646
      2555.023  
  25016799.320   131464177.64445      1295.265    25016801.122   102439619.72644
      1009.292  
  24206083.725   127203833.87646      3364.684    24206085.390    99119874.11145
      2621.828  
 20 09 27 03 53 25.0000000  0  7G 5G 2G29G15G13G 7G18
  20124004.883   105752356.33648      -636.227    20124004.419    82404435.64547
      -495.766  
  21880047.648   114980422.35148     -1891.757    21880045.409    89595123.94647
     -1474.102  
  21031183.574   110519615.97148       512.078    21031184.122    86119181.84648
       399.019  
  24081789.846   126550666.16447      4054.766    24081792.209    98610935.62544
      3159.554  
  22413501.527   117783754.09548      3276.809    22413502.553    91779550.99345
      2553.354  
  25015568.301   131457708.40545      1292.336    25015569.894   102434578.77245
      1007.031  
  24202882.931   127187013.34046      3363.941    24202884.385    99106767.18746
      2621.250  
 20 09 27 03 53 30.0000000  0  7G 5G 2G29G15G13G 7G18
  20124611.125   105755542.90848      -638.508    20124610.812    82406918.69247
      -497.542  
  21881848.390   114989885.09448     -1893.339    21881846.206    89602497.50147
     -1475.331  
  21030697.962   110517063.77948       508.801    21030698.623    86117193.12348
       396.464  
  24077931.783   126530392.80847      4054.538    24077934.357    98595138.21245
      3159.379  
  22410384.344   117767373.74948      3275.249    22410385.720    91766787.08146
      2552.140  
  25014339.335   131451250.39545      1290.063    25014341.062   102429546.56945
      1005.516  
  24199682.283   127170193.66047      3363.723    24199683.571    99093660.95146
      2621.078  
 20 09 27 03 53 35.0000000  0  7G 5G 2G29G15G13G 7G18
  20125219.839   105758741.91048      -640.965    20125219.622    82409411.41647
      -499.457  
  21883650.675   114999356.10348     -1895.008    21883648.479    89609877.50947
     -1476.633  
  21030215.569   110514528.72948       505.426    21030216.075    86115217.76348
       393.835  
  24074074.341   126510121.84946      4054.226    24074076.751    98579342.64646
      3159.132  
  22407269.033   117751002.42748      3273.313    22407270.329    91754030.23346
      2550.629  
  25013112.666   131444804.05445      1288.335    25013114.443   102424523.45545
      1003.895  
  24196482.003   127153375.26646      3363.637    24196483.281    99080555.70447
      2621.011  
 20 09 27 03 53 40.0000000  0  7G 5G 2G29G15G13G 7G18
  20125831.252   105761954.06248      -643.874    20125830.875    82411914.39447
      -501.722  
  21885454.636   115008836.16948     -1897.051    21885452.468    89617264.57447
     -1478.222  
  21029736.577   110512011.57648       501.641    21029737.183    86113256.34348
       390.886  
  24070217.642   126489854.16647      4053.168    24070219.922    98563549.66745
      3158.308  
  22404155.447   117734640.83148      3271.133    22404156.623    91741280.94146
      2548.930  
  25011888.227   131438370.08145      1285.383    25011890.011   102419509.98745
      1001.594  
  24193281.795   127136558.93646      3362.914    24193283.298    99067452.09047
      2620.449  
 20 09 27 03 53 45.0000000  0  6G 5G 2G29G15G13G18
  20126444.732   105765178.76948      -646.136    20126444.545    82414427.14647
      -503.487  
  21887260.134   115018324.65648     -1898.210    21887258.163    89624658.18847
     -1479.128  
  21029260.821   110509511.70948       498.429    21029261.437    86111308.39647
       388.382  
  24066361.324   126469589.10847      4053.191    24066363.611    98547758.72245
      3158.327  
  22401043.745   117718288.38148      3269.820    22401044.911    91728538.78046
      2547.910  
  24190082.282   127119744.09646      3362.995    24190083.473    99054349.62446
      2620.512  
 20 09 27 03 53 50.0000000  0  6G 5G 2G29G15G13G18
  20127056.717   105768394.67448      -645.636    20127056.534    82416933.04547
      -503.098  
  21889063.356   115027800.24848     -1897.191    21889061.177    89632041.75747
     -1478.336  
  21028784.323   110507007.79348       497.940    21028785.003    86109357.29447
       388.003  
  24062501.409   126449305.33847      4055.195    24062503.908    98531953.19445
      3159.890  
  22397929.584   117701923.79148      3270.715    22397930.965    91715787.16245
      2548.605  
  24186878.673   127102909.36447      3365.655    24186880.049    99041231.66856
      2622.586  
 20 09 27 03 53 55.0000000  0  6G 5G 2G29G15G13G18
  20127674.388   105771640.37048      -651.534    20127674.139    82419462.15947
      -507.691  
  21890871.336   115037301.49548     -1902.241    21890869.341    89639445.32447
     -1482.269  
  21028314.468   110504538.37648       491.042    21028315.141    86107433.06947
       382.629  
  24058645.276   126429041.41047      4051.551    24058647.747    98516163.10845
      3157.051  
  22394820.564   117685585.59448      3265.586    22394821.911    91703056.10346
      2544.609  
  24183678.653   127086093.27047      3361.758    24183680.137    99028128.22146
      2619.546  
 20 09 27 03 54  0.0000000  0  6G 5G 2G29G15G13G18
  20128295.527   105774904.19748      -653.921    20128295.188    82422005.40847
      -509.551  
  21892681.974   115046816.77548     -1903.660    21892679.937    89646859.82047
     -1483.375  
  21027848.828   110502091.82348       487.859    21027849.425    86105526.66247
       380.147  
  24054790.649   126408785.70747      4051.019    24054793.023    98500379.47245
      3156.637  
  22391714.395   117669262.16048      3264.164    22391715.567    91690336.55346
      2543.500  
  24180480.090   127069284.23846      3362.125    24180481.618    99015030.25756
      2619.836  
 20 09 27 03 54  5.0000000  0  7G 5G 2G29G15G13G 7G18
  20128921.205   105778192.34848      -662.180    20128920.833    82424567.59847
      -515.987  
  21894496.607   115056352.23548     -1911.429    21894494.651    89654290.05047
     -1489.430  
  21027388.879   110499674.34148       478.383    21027389.341    86103642.91548
       372.762  
  24050938.910   126388544.43047      4044.815    24050941.300    98484607.03045
      3151.801  
  22388612.048   117652959.71748      3256.141    22388613.365    91677633.36746
      2537.250  
  25005797.508   131406351.82655      1267.722    25005799.372   102394566.43354
       987.835  
  24177283.958   127052488.48546      3355.535    24177285.506    99001942.65146
      2614.699  
 20 09 27 03 54 10.0000000  0  7G 5G 2G29G15G13G 7G18
  20129549.547   105781494.49348      -658.902    20129549.180    82427140.70147
      -513.433  
  21896312.925   115065897.55448     -1907.183    21896310.850    89661727.95947
     -1486.121  
  21026932.388   110497275.58948       480.839    21026932.910    86101773.75048
       374.675  
  24047087.930   126368307.23946      4050.133    24047090.179    98468837.80045
      3155.944  
  22385511.791   117636667.94348      3260.237    22385513.098    91664938.48046
      2540.440  
  25004590.049   131400003.46245      1271.711    25004591.712   102389619.64044
       990.941  
  24174088.207   127035695.54046      3361.327    24174089.911    98988857.28646
      2619.218  
 20 09 27 03 54 15.0000000  0  7G 5G 2G29G15G13G 7G18
  20130177.138   105784792.00748      -660.801    20130176.783    82429710.19247
      -514.914  
  21898127.748   115075434.13648     -1908.206    21898125.844    89669159.05547
     -1486.917  
  21026475.889   110494876.98048       477.960    21026476.463    86099904.70747
       372.433  
  24043234.122   126348055.65146      4049.983    24043236.484    98453057.34645
      3155.828  
  22382410.201   117620368.23048      3258.847    22382411.362    91652237.41746
      2539.359  
  25003380.996   131393649.78045      1269.644    25003383.186   102384668.74145
       989.477  
  24170889.574   127018886.95847      3361.449    24170891.252    98975759.68946
      2619.309  
 20 09 27 03 54 20.0000000  0  7G 5G 2G29G15G13G 7G18
  20130806.976   105788102.70248      -663.671    20130806.594    82432289.94647
      -517.148  
  21899944.074   115084979.80548     -1910.137    21899942.299    89676597.22847
     -1488.421  
  21026023.002   110492496.35748       474.249    21026023.445    86098049.67447
       369.543  
  24039381.063   126327807.41147      4049.191    24039383.346    98437279.51545
      3155.210  
  22379310.324   117604078.42248      3256.848    22379311.568    91639544.06246
      2537.801  
  25002174.419   131387308.64545      1266.710    25002176.582   102379727.58845
       987.043  
  24167691.448   127002080.50146      3360.983    24167693.042    98962663.74046
      2618.944  
 20 09 27 03 54 25.0000000  0  7G 5G 2G29G15G13G 7G18
  20131439.718   105791427.21848      -666.269    20131439.360    82434880.48747
      -519.175  
  21901762.519   115094535.11348     -1912.070    21901760.478    89684042.92847
     -1489.930  
  21025573.539   110490134.25948       470.565    21025574.090    86096209.07947
       366.671  
  24035528.732   126307563.02647      4048.449    24035530.894    98421504.68045
      3154.633  
  22376212.527   117587799.10848      3254.843    22376213.479    91626858.90546
      2536.241  
  25000970.235   131380980.52345      1264.257    25000972.030   102374796.58445
       985.133  
  24164493.714   126985276.79546      3360.297    24164495.190    98949569.94446
      2618.410  
 20 09 27 03 54 30.0000000  0  6G 5G 2G29G15G13G18
  20132073.586   105794758.03148      -663.554    20132073.097    82437475.93647
      -517.058  
  21903581.154   115104092.60248     -1908.261    21903579.395    89691490.30847
     -1486.960  
  21025126.195   110487783.26348       472.410    21025126.672    86094377.13348
       368.109  
  24031675.654   126287315.24547      4053.288    24031677.860    98405727.18246
      3158.401  
  22373115.111   117571522.88948      3258.352    22373116.385    91614176.13745
      2538.972  
  24161295.235   126968468.33046      3365.559    24161296.761    98936472.41347
      2622.507  
 20 09 27 03 54 35.0000000  0  6G 5G 2G29G15G13G18
  20132710.675   105798106.52048      -669.183    20132710.494    82440085.12847
      -521.444  
  21905402.433   115113663.67548     -1913.077    21905400.716    89698948.28446
     -1490.715  
  21024683.017   110485454.84448       465.902    21024683.397    86092562.77747
       363.038  
  24027824.135   126267075.37747      4049.577    24027826.180    98389955.85346
      3155.512  
  22370020.787   117555261.13848      3253.401    22370021.713    91601504.62945
      2535.113  
  24158097.897   126951666.61546      3362.046    24158099.459    98923380.21454
      2619.773  
 20 09 27 03 54 40.0000000  0  6G 5G 2G29G15G13G18
  20133347.190   105801451.48948      -670.948    20133346.912    82442691.59047
      -522.820  
  21907222.390   115123227.08448     -1914.335    21907220.556    89706400.28647
     -1491.695  
  21024240.228   110483127.69348       463.011    21024240.635    86090749.42847
       360.785  
  24023970.117   126246822.21546      4049.254    24023972.319    98374174.18745
      3155.258  
  22366924.897   117538992.62848      3252.105    22366925.803    91588827.86146
      2534.104  
  24154897.952   126934850.44646      3362.097    24154899.285    98910276.69545
      2619.813  
 20 09 27 03 54 45.0000000  0  7G 5G 2G29G15G13G 7G18
  20133988.686   105804822.88548      -676.901    20133988.430    82445318.68947
      -527.457  
  21909046.344   115132812.77848     -1919.472    21909044.577    89713869.63047
     -1495.698  
  21023803.353   110480831.83448       455.979    21023803.722    86088960.43648
       355.305  
  24020119.140   126226585.72647      4045.769    24020121.307    98358405.49946
      3152.542  
  22363833.604   117522747.33148      3246.754    22363834.551    91576169.23545
      2529.937  
  24996170.431   131355762.78915      1254.207           0.000           0.0000 
         0.000  
  24151700.880   126918049.59546      3358.453    24151702.387    98897185.14755
      2616.977  
 20 09 27 03 54 50.0000000  0  6G 5G 2G29G15G13G18
  20134636.044   105808224.87248      -678.586    20134635.824    82447969.56347
      -528.770  
  21910875.613   115142425.08848     -1920.464    21910873.734    89721359.75347
     -1496.468  
  21023373.339   110478571.40948       453.163    21023373.671    86087199.07248
       353.113  
  24016272.390   126206370.16847      4045.699    24016274.515    98342653.11945
      3152.487  
  22360747.460   117506529.50648      3245.527    22360748.205    91563531.97446
      2528.979  
  24148507.700   126901268.41546      3359.206    24148508.842    98884108.86446
      2617.559  
 20 09 27 03 54 55.0000000  0  7G 5G 2G29G15G13G 7G18
  20135282.094   105811619.48248      -680.711    20135281.766    82450614.71247
      -530.426  
  21912702.439   115152025.96548     -1921.437    21912700.707    89728840.96547
     -1497.227  
  21022942.723   110476308.50848       450.301    21022942.892    86085435.76248
       350.878  
  24012422.207   126186137.60147      4045.609    24012424.264    98326887.45545
      3152.417  
  22357659.398   117490301.16448      3243.968    22357660.156    91550886.52346
      2527.765  
  24993790.181   131343253.48956      1250.285    24993790.810   102345395.91055
       974.246  
  24145310.730   126884468.94346      3359.328    24145312.015    98871018.36456
      2617.655  
 20 09 27 03 55  0.0000000  0  7G 5G 2G29G15G13G 7G18
  20135933.488   105815042.92148      -686.762    20135933.333    82453282.33247
      -535.141  
  21914534.197   115161651.61048     -1926.819    21914532.559    89736341.46747
     -1501.422  
  21022518.574   110474079.24748       443.354    21022518.701    86083698.67648
       345.468  
  24008575.813   126165924.10547      4041.495    24008577.676    98311136.69545
      3149.215  
  22354576.076   117474098.50748      3238.641    22354576.979    91538261.08846
      2523.612  
  24992604.548   131337020.13546      1245.011    24992604.041   102340538.78745
       970.137  
  24142117.492   126867687.36547      3355.461    24142118.569    98857941.82846
      2614.641  
 20 09 27 03 55  5.0000000  0  7G 5G 2G29G15G13G 7G18
  20136586.976   105818476.02448      -686.835    20136586.598    82455957.47247
      -535.198  
  21916366.907   115171282.78448     -1925.988    21916365.370    89743846.26947
     -1500.773  
  21022097.073   110471864.52648       442.340    21022097.222    86081972.91747
       344.676  
  24004729.210   126145710.60247      4043.492    24004731.033    98295385.92845
      3150.769  
  22351494.048   117457902.37348      3239.284    22351494.823    91525640.73446
      2524.113  
  24991419.538   131330796.14646      1244.726    24991421.149   102335688.85545
       969.905  
  24138923.764   126850904.42646      3357.535    24138925.155    98844864.20847
      2616.257  
 20 09 27 03 55 10.0000000  0  7G 5G 2G29G15G13G 7G18
  20137240.851   105821912.66048      -688.261    20137240.591    82458635.37147
      -536.313  
  21918199.631   115180913.43848     -1926.785    21918197.968    89751350.67247
     -1501.395  
  21021677.283   110469658.26248       439.727    21021677.423    86080253.75248
       342.640  
  24000881.509   126125490.98147      4043.917    24000883.440    98279630.36845
      3151.102  
  22348412.056   117441706.73948      3238.402    22348412.869    91513020.77345
      2523.425  
  24990235.827   131324575.07645      1243.108    24990237.226   102330841.29544
       968.651  
  24135728.807   126834114.12947      3358.258    24135729.935    98831780.87946
      2616.820  
 20 09 27 03 55 15.0000000  0  7G 5G 2G29G15G13G 7G18
  20137897.176   105825361.86248      -690.921    20137897.029    82461323.06147
      -538.382  
  21920033.847   115190552.58948     -1928.543    21920032.229    89758861.69647
     -1502.766  
  21021260.723   110467469.41348       436.245    21021261.051    86078548.15248
       339.930  
  23997034.539   126105274.29847      4043.062    23997036.406    98263877.12645
      3150.433  
  22345331.960   117425520.60148      3236.472    22345332.888    91500408.20546
      2521.922  
  24989054.330   131318366.02046      1240.633    24989055.766   102326003.07144
       966.722  
  24132533.943   126817325.44146      3358.039    24132535.095    98818698.76147
      2616.652  
 20 09 27 03 55 20.0000000  0  7G 5G 2G29G15G13G 7G18
  20138556.182   105828824.05648      -693.563    20138555.626    82464020.87147
      -540.440  
  21921869.801   115200200.68348     -1930.609    21921868.199    89766379.68747
     -1504.374  
  21020847.626   110465298.44948       432.320    21020847.839    86076856.49448
       336.871  
  23993187.971   126085060.94647      4042.233    23993189.828    98248126.46845
      3149.788  
  22342253.761   117409344.40148      3234.261    22342254.568    91487803.37445
      2520.198  
  24987875.098   131312169.42346      1238.089    24987876.468   102321174.54244
       964.742  
  24129339.328   126800538.84647      3357.202    24129340.982    98805618.33856
      2616.003  
 20 09 27 03 55 25.0000000  0  7G 5G 2G29G15G13G 7G18
  20139217.258   105832298.84648      -696.332    20139216.939    82466728.49747
      -542.597  
  21923707.458   115209857.26448     -1932.253    21923705.883    89773904.29047
     -1505.655  
  21020437.738   110463144.93948       428.929    21020438.062    86075178.43347
       334.227  
  23989342.148   126064850.57447      4041.918    23989344.051    98232378.12146
      3149.543  
  22339177.280   117393177.69348      3232.343    22339178.020    91475205.95446
      2518.707  
  24986698.153   131305984.91246      1235.270    24986699.310   102316355.49544
       962.547  
  24126145.252   126783753.99046      3356.804    24126147.079    98792539.21446
      2615.687  
 20 09 27 03 55 30.0000000  0  7G 5G 2G29G15G13G 7G18
  20139880.830   105835785.90648      -698.698    20139880.504    82469445.68247
      -544.445  
  21925546.621   115219522.06748     -1933.730    21925545.033    89781435.30047
     -1506.804  
  21020031.282   110461008.62748       425.496    21020031.451    86073513.77347
       331.550  
  23985496.719   126044642.89347      4041.272    23985498.436    98216631.88045
      3149.042  
  22336102.702   117377020.24148      3230.632    22336103.460    91462615.73945
      2517.371  
  24985523.857   131299812.10146      1233.558    24985524.741   102311545.49044
       961.211  
  24122951.368   126766970.38946      3356.469    24122953.105    98779461.11256
      2615.430  
 20 09 27 03 55 35.0000000  0  6G 5G 2G29G15G13G18
  20140546.120   105839281.50048      -697.542    20140545.739    82472169.52247
      -543.542  
  21927386.556   115229191.48948     -1931.820    21927384.953    89788969.90346
     -1505.316  
  21019627.332   110458885.82248       425.586    21019627.554    86071859.63047
       331.621  
  23981651.303   126024434.22347      4044.168    23981652.819    98200884.90545
      3151.305  
  22333029.083   117360868.29648      3232.242    22333029.810    91450029.81146
      2518.628  
  24119757.063   126750184.61246      3359.913    24119758.769    98766381.27746
      2618.112  
 20 09 27 03 55 40.0000000  0  7G 5G 2G29G15G13G 7G18
  20141213.322   105842787.82648      -706.410    20141212.909    82474901.72047
      -550.452  
  21929227.805   115238867.47648     -1939.719    21929226.316    89796509.63246
     -1511.473  
  21019226.413   110456778.63648       415.913    21019226.572    86070217.68048
       324.085  
  23977805.878   126004226.72447      4037.487    23977807.483    98185138.80445
      3146.089  
  22329956.980   117344724.12948      3224.175    22329957.661    91437449.90846
      2512.340  
  24983178.919   131287494.96154      1226.547    24983181.290   102301953.13454
       955.745  
  24116562.757   126733398.60647      3353.179    24116564.745    98753301.34856
      2612.874  
 20 09 27 03 55 45.0000000  0  6G 5G 2G29G15G13G18
  20141883.355   105846308.49748      -703.488    20141883.046    82477645.07047
      -548.180  
  21931070.978   115248553.72948     -1936.292    21931069.600    89804057.35546
     -1508.805  
  21018829.123   110454690.67448       417.879    21018829.244    86068590.68647
       325.617  
  23973961.351   125984023.97147      4042.152    23973963.176    98169396.41645
      3149.726  
  22326886.989   117328591.28248      3227.547    22326887.709    91424878.87445
      2514.968  
  24113369.248   126716616.10147      3358.262    24113371.192    98740224.03245
      2616.820  
 20 09 27 03 55 50.0000000  0  6G 5G 2G29G15G13G18
  20142555.288   105849839.34148      -708.733    20142554.870    82480396.38947
      -552.266  
  21932915.479   115258246.05348     -1940.608    21932913.889    89811609.81646
     -1512.168  
  21018434.679   110452617.82548       411.598    21018434.844    86066975.49548
       320.722  
  23970117.034   125963821.88647      4038.945    23970118.871    98153654.50545
      3147.227  
  22323818.319   117312465.65548      3222.812    22323819.177    91412313.46846
      2511.277  
  24110175.374   126699832.87047      3355.319    24110177.085    98727146.19855
      2614.531  
 20 09 27 03 55 55.0000000  0  6G 5G 2G29G15G13G18
  20143230.854   105853389.93348      -711.468    20143230.610    82483163.08947
      -554.395  
  21934762.819   115267954.10848     -1942.495    21934761.362    89819174.53246
     -1513.636  
  21018044.980   110450569.69548       407.813    21018045.091    86065379.52447
       317.772  
  23966274.775   125943630.08446      4037.703    23966276.431    98137920.63845
      3146.254  
  22320752.902   117296356.81048      3220.737    22320753.834    91399761.11946
      2509.664  
  24106983.469   126683058.57847      3354.789    24106984.961    98714075.26345
      2614.113  
 20 09 27 03 56  0.0000000  0  6G 5G 2G29G15G13G18
  20143909.061   105856953.09048      -714.449    20143908.539    82485939.56547
      -556.719  
  21936611.713   115277670.64348     -1944.335    21936610.303    89826745.85447
     -1515.069  
  21017658.694   110448539.02848       403.809    21017658.748    86063797.19948
       314.652  
  23962432.908   125923441.22247      4037.034    23962434.773    98122189.09645
      3145.741  
  22317689.393   117280257.58748      3218.547    22317690.219    91387216.28446
      2507.957  
  24103791.678   126666285.97746      3354.011    24103793.280    98701005.73845
      2613.512  
 20 09 27 03 56  5.0000000  0  6G 5G 2G29G15G13G18
  20144590.125   105860532.32548      -716.620    20144589.664    82488728.59548
      -558.409  
  21938463.089   115287399.25348     -1946.015    21938461.668    89834326.57447
     -1516.378  
  21017276.235   110446529.47248       400.688    21017276.329    86062231.29048
       312.219  
  23958592.448   125903259.18447      4036.397    23958594.055    98106462.81245
      3145.242  
  22314628.344   117264171.63348      3216.722    22314629.062    91374681.82446
      2506.538  
  24100601.050   126649518.73747      3353.668    24100602.533    98687940.38456
      2613.246  
 20 09 27 03 56 10.0000000  0  6G 5G 2G29G15G13G18
  20145272.157   105864116.01948      -717.085    20145271.734    82491521.08747
      -558.770  
  21940314.449   115297128.24748     -1945.684    21940313.051    89841907.61347
     -1516.121  
  21016895.637   110444529.32248       399.319    21016895.594    86060672.74248
       311.155  
  23954751.014   125883072.02947      4038.077    23954752.599    98090732.56545
      3146.551  
  22311567.662   117248087.17548      3216.930    22311568.349    91362148.46846
      2506.694  
  24097409.292   126632745.03047      3355.632    24097410.258    98674869.95646
      2614.777  
 20 09 27 03 56 15.0000000  0  6G 5G 2G29G15G13G18
  20145956.484   105867712.81248      -721.648    20145956.011    82494323.77647
      -562.328  
  21942167.513   115306866.38348     -1949.522    21942166.146    89849495.76246
     -1519.112  
  21016518.485   110442547.28348       393.563    21016518.542    86059128.30947
       306.667  
  23950910.116   125862888.59947      4035.128    23950911.907    98075005.22945
      3144.254  
  22308508.707   117232012.97248      3212.801    22308509.576    91349623.11846
      2503.477  
  24094217.796   126615973.70047      3352.953    24094218.983    98661801.34456
      2612.683  
 20 09 27 03 56 20.0000000  0  6G 5G 2G29G15G13G18
  20146644.601   105871328.29548      -723.413    20146644.205    82497141.03348
      -563.703  
  21944023.433   115316619.21148     -1950.550    21944022.140    89857095.37146
     -1519.913  
  21016145.699   110440588.93848       390.808    21016145.886    86057602.31347
       304.523  
  23947071.121   125842714.45147      4035.402    23947072.897    98059285.12445
      3144.464  
  22305453.000   117215954.65748      3211.608    22305453.765    91337110.17545
      2502.550  
  24091027.913   126599210.31146      3353.401    24091028.939    98648738.95846
      2613.038  
 20 09 27 03 56 25.0000000  0  6G 5G 2G29G15G13G18
  20147333.280   105874947.70448      -726.117    20147332.877    82499961.34448
      -565.809  
  21945879.152   115326371.86348     -1952.526    21945877.898    89864694.82947
     -1521.452  
  21015774.777   110438639.54248       387.093    21015774.931    86056083.31448
       301.628  
  23943230.968   125822534.84447      4034.808    23943232.669    98043560.78446
      3144.008  
  22302397.453   117199897.46148      3209.491    22302398.163    91324598.05646
      2500.897  
  24087836.599   126582440.03146      3352.734    24087837.633    98635671.25055
      2612.520  
 20 09 27 03 56 30.0000000  0  6G 5G 2G29G15G13G18
  20148026.150   105878588.91448      -729.733    20148025.707    82502798.67847
      -568.624  
  21947738.503   115336142.28748     -1955.426    21947737.346    89872308.14446
     -1523.711  
  21015408.852   110436716.93348       382.468    21015409.114    86054585.16748
       298.022  
  23939393.308   125802367.58647      4033.043    23939395.152    98027846.07345
      3142.632  
  22299345.521   117183859.29648      3206.319    22299345.988    91312100.81645
      2498.434  
  24084647.232   126565680.82746      3351.164    24084648.516    98622612.10046
      2611.292  
 20 09 27 03 56 35.0000000  0  6G 5G 2G29G15G13G18
  20148720.737   105882238.49648      -730.945    20148720.252    82505642.50347
      -569.570  
  21949598.602   115345917.11248     -1955.483    21949597.256    89879924.88247
     -1523.757  
  21015045.581   110434807.68448       380.460    21015045.740    86053097.43048
       296.460  
  23935555.467   125782199.34647      4033.390    23935557.149    98012130.56445
      3142.897  
  22296294.554   117167826.69748      3205.957    22296295.048    91299607.88645
      2498.144  
  24081457.680   126548919.18346      3352.417    24081459.077    98609551.13056
      2612.272  
 20 09 27 03 56 40.0000000  0  7G 5G 2G29G15G13G 7G18
  20149419.510   105885910.29048      -736.586    20149418.938    82508503.63448
      -573.964  
  21951462.142   115355710.20848     -1960.527    21951460.805    89887555.86546
     -1527.688  
  21014687.451   110432925.73048       373.644    21014687.474    86051630.98848
       291.148  
  23931719.863   125762043.98347      4029.933    23931721.790    97996425.09746
      3140.203  
  22293247.399   117151813.66848      3200.636    22293248.051    91287130.22146
      2494.000  
  24969318.188   131214658.08055      1196.648    24969321.190   102245206.62554
       932.449  
  24078270.172   126532169.08646      3349.312    24078271.667    98596499.09446
      2609.852  
 20 09 27 03 56 45.0000000  0  6G 5G 2G29G15G13G18
  20150118.841   105889585.73748      -734.905    20150118.365    82511367.63947
      -572.656  
  21953325.502   115365502.76248     -1958.180    21953324.362    89895186.41547
     -1525.858  
  21014331.028   110431052.36848       374.362    21014331.156    86050171.20647
       291.707  
  23927883.357   125741882.94747      4033.229    23927885.284    97980715.18344
      3142.773  
  22290200.408   117135801.37048      3202.827    22290201.024    91274653.09545
      2495.707  
  24075081.046   126515411.87046      3352.632    24075082.644    98583441.51446
      2612.438  
 20 09 27 03 56 50.0000000  0  6G 5G 2G29G15G13G18
  20150820.638   105893273.36048      -739.265    20150820.239    82514241.10147
      -576.054  
  21955190.574   115375303.59048     -1961.659    21955189.401    89902823.43647
     -1528.569  
  21013977.823   110429196.29848       368.870    21013977.777    86048724.92647
       287.430  
  23924047.407   125721724.73647      4030.801    23924049.178    97965007.50245
      3140.879  
  22287155.127   117119798.62148      3198.836    22287155.680    91262183.44946
      2492.598  
  24071892.661   126498656.16946      3350.538    24071894.388    98570385.14046
      2610.804  
 20 09 27 03 56 55.0000000  0  7G 5G 2G29G15G13G 7G18
  20151525.695   105896978.71348      -742.414    20151525.263    82517128.40247
      -578.507  
  21957058.311   115385118.08348     -1963.808    21957057.144    89910471.09547
     -1530.242  
  21013628.811   110427362.94448       364.995    21013629.069    86047296.33948
       284.409  
  23920212.973   125701574.96247      4029.522    23920214.800    97949306.39545
      3139.887  
  22284112.709   117103810.79648      3196.378    22284113.307    91249725.41146
      2490.683  
  24965907.493   131196719.56855      1191.480    24965906.460   102231214.53455
       928.421  
  24068705.324   126481907.37746      3349.526    24068707.394    98557334.18246
      2610.026  
 20 09 27 03 57  0.0000000  0  7G 5G 2G29G15G13G 7G18
  20152232.091   105900690.66148      -743.371    20152231.516    82520020.82747
      -579.253  
  21958926.399   115394935.17048     -1963.828    21958925.112    89918120.77047
     -1530.258  
  21013282.240   110425541.26248       362.940    21013282.283    86045876.84048
       282.809  
  23916378.171   125681422.44147      4030.469    23916379.950    97933603.14045
      3140.620  
  22281071.050   117087826.89648      3196.215    22281071.679    91237270.42146
      2490.554  
  24964774.281   131190765.03245      1189.980    24964774.108   102226574.64845
       927.253  
  24065517.386   126465154.55946      3350.558    24065519.418    98544280.01556
      2610.820  
 20 09 27 03 57  5.0000000  0  7G 5G 2G29G15G13G 7G18
  20152940.573   105904413.50948      -745.722    20152939.966    82522921.74847
      -581.085  
  21960795.846   115404759.18048     -1965.512    21960794.527    89925775.83747
     -1531.570  
  21012938.535   110423735.55248       359.304    21012938.692    86044469.79648
       279.973  
  23912543.526   125661271.59047      4029.741    23912545.407    97917901.20146
      3140.058  
  22278031.099   117071851.21848      3194.145    22278031.514    91224821.85946
      2488.940  
  24963643.004   131184821.03344      1187.358    24963642.700   102221942.96845
       925.210  
  24062329.401   126448401.89546      3350.601    24062331.473    98531226.00946
      2610.855  
 20 09 27 03 57 10.0000000  0  7G 5G 2G29G15G13G 7G18
  20153651.512   105908149.01448      -748.477    20153650.846    82525832.52747
      -583.229  
  21962666.783   115414591.83548     -1967.477    21962665.667    89933437.65347
     -1533.101  
  21012598.276   110421947.57248       355.879    21012598.510    86043076.55847
       277.304  
  23908709.672   125641124.11647      4029.054    23908711.306    97902201.88545
      3139.522  
  22274992.845   117055885.52548      3192.073    22274993.521    91212381.06646
      2487.327  
  24962514.162   131178889.49246      1184.835    24962513.857   102217321.01545
       923.250  
  24059142.093   126431651.29147      3349.742    24059143.874    98518173.57456
      2610.183  
 20 09 27 03 57 15.0000000  0  7G 5G 2G29G15G13G 7G18
  20154364.746   105911897.24448      -751.082    20154364.188    82528753.22847
      -585.262  
  21964539.665   115424433.26948     -1969.304    21964538.514    89941106.30547
     -1534.527  
  21012261.411   110420177.45748       352.199    21012261.758    86041697.24348
       274.437  
  23904876.346   125620980.22647      4028.792    23904878.103    97886505.37245
      3139.316  
  22271956.489   117039929.99048      3190.016    22271957.241    91199948.19546
      2485.723  
  24961387.418   131172970.50846      1182.690    24961387.516   102212708.83845
       921.578  
  24055954.939   126414902.74947      3349.120    24055956.800    98505122.79046
      2609.707  
 20 09 27 03 57 20.0000000  0  7G 5G 2G29G15G13G 7G18
  20155080.451   105915658.23348      -753.472    20155079.703    82531683.86147
      -587.125  
  21966414.053   115434283.46548     -1970.835    21966412.810    89948781.76447
     -1535.719  
  21011928.014   110418425.13348       348.969    21011928.165    86040331.79748
       271.921  
  23901043.623   125600839.85047      4028.063    23901045.476    97870811.56145
      3138.746  
  22268922.239   117023984.52348      3188.281    22268922.937    91187523.16645
      2484.371  
  24960263.544   131167064.04344      1180.538    24960263.624   102208106.37643
       919.897  
  24052768.421   126398156.32647      3349.405    24052769.897    98492073.60855
      2609.921  
 20 09 27 03 57 25.0000000  0  7G 5G 2G29G15G13G 7G18
  20155798.242   105919430.00548      -755.644    20155797.431    82534622.90247
      -588.816  
  21968289.773   115444140.40848     -1972.313    21968288.585    89956462.49947
     -1536.870  
  21011597.469   110416688.70348       345.468    21011597.757    86038978.73548
       269.190  
  23897211.466   125580701.07046      4027.222    23897213.281    97855119.02046
      3138.097  
  22265889.523   117008047.21548      3186.520    22265890.079    91175104.49546
      2483.000  
  24959141.582   131161168.24845      1177.547    24959141.747   102203512.25745
       917.565  
  24049581.563   126381409.99146      3349.050    24049583.055    98479024.49446
      2609.647  
 20 09 27 03 57 30.0000000  0  7G 5G 2G29G15G13G 7G18
  20156518.497   105923215.59248      -758.386    20156517.851    82537572.71447
      -590.952  
  21970167.412   115454007.19148     -1974.276    21970166.071    89964150.89847
     -1538.402  
  21011270.733   110414971.15848       341.762    21011271.001    86037640.38248
       266.305  
  23893379.852   125560566.83947      4026.769    23893381.842    97839430.04445
      3137.741  
  22262858.890   116992121.13248      3184.137    22262859.423    91162694.55745
      2481.140  
  24958022.262   131155286.02545      1174.917    24958022.815   102198928.70043
       915.604  
  24046395.505   126364666.89447      3348.316    24046396.979    98465977.95046
      2609.074  
 20 09 27 03 57 35.0000000  0  7G 5G 2G29G15G13G 7G18
  20157241.252   105927013.91748      -760.832    20157240.729    82540532.43347
      -592.859  
  21972046.571   115463882.70148     -1975.953    21972045.533    89971846.10347
     -1539.706  
  21010947.206   110413271.42048       338.499    21010947.424    86036315.92147
       263.762  
  23889549.174   125540436.23547      4025.926    23889550.860    97823743.87545
      3137.082  
  22259830.174   116976205.18548      3182.265    22259830.702    91150292.54746
      2479.684  
  24956905.114   131149416.40245      1172.749    24956906.080   102194354.94946
       913.823  
  24043209.730   126347925.84646      3347.969    24043211.103    98452932.97846
      2608.804  
 20 09 27 03 57 40.0000000  0  7G 5G 2G29G15G13G 7G18
  20157966.285   105930823.80448      -762.085    20157965.761    82543501.19347
      -593.835  
  21973927.247   115473765.78548     -1976.417    21973926.189    89979547.20347
     -1540.069  
  21010626.907   110411588.39448       336.011    21010627.260    86035004.46247
       261.823  
  23885718.952   125520308.00647      4026.198    23885720.723    97808059.54345
      3137.293  
  22256803.167   116960298.24648      3181.519    22256803.698    91137897.53345
      2479.102  
  24955790.331   131143558.08345      1171.585    24955791.479   102189790.03444
       912.637  
  24040024.190   126331185.75446      3348.773    24040025.477    98439888.74745
      2609.430  
 20 09 27 03 57 45.0000000  0  6G 5G 2G29G15G13G18
  20158691.687   105934635.16148      -763.316    20158691.070    82546471.08647
      -594.797  
  21975807.550   115483646.31248     -1976.753    21975806.359    89987246.30747
     -1540.332  
  21010307.775   110409911.87848       333.569    21010308.323    86033698.09348
       259.922  
  23881887.223   125500172.06847      4027.078    23881889.030    97792369.24345
      3137.983  
  22253775.968   116944390.21048      3180.690    22253776.471    91125501.66846
      2478.457  
  24036836.844   126314436.41746      3349.801    24036838.318    98426837.33047
      2610.230  
 20 09 27 03 57 50.0000000  0  6G 5G 2G29G15G13G18
  20159420.518   105938465.10048      -768.366    20159419.799    82549455.42547
      -598.729  
  21977690.522   115493541.52148     -1980.898    21977689.217    89994956.85947
     -1543.558  
  21009993.431   110408259.17648       327.555    21009993.784    86032410.26648
       255.233  
  23878057.179   125480045.70947      4023.511    23878059.055    97776686.35645
      3135.198  
  22250751.814   116928498.32948      3176.124    22250752.371    91113118.39046
      2474.897  
  24033650.980   126297695.24447      3346.707    24033652.649    98413792.29745
      2607.823  
 20 09 27 03 57 55.0000000  0  7G 5G 2G29G15G13G 7G18
  20160153.730   105942318.62048      -774.112    20160153.165    82552458.18647
      -603.206  
  21979577.299   115503456.32248     -1986.019    21979576.007    90002682.67047
     -1547.550  
  21009684.378   110406635.15148       320.711    21009684.599    86031144.80048
       249.902  
  23874229.994   125459933.77947      4019.597    23874231.832    97761014.73444
      3132.151  
  22247731.667   116912627.47248      3171.051    22247732.196    91100751.49746
      2470.944  
  24952459.174   131126055.67455      1159.116    24952456.116   102176138.56054
       903.202  
  24030467.758   126280967.02246      3343.164    24030469.277    98400757.29956
      2605.058  
 20 09 27 03 58  0.0000000  0  7G 5G 2G29G15G13G 7G18
  20160890.161   105946188.31048      -773.784    20160889.475    82555473.53147
      -602.953  
  21981466.346   115513383.36248     -1984.977    21981465.218    90010418.01647
     -1546.737  
  21009379.331   110405032.52348       320.030    21009379.820    86029896.00148
       249.370  
  23870404.305   125439829.05247      4021.906    23870405.996    97745348.73145
      3133.953  
  22244714.187   116896770.38348      3171.690    22244714.725    91088395.33446
      2471.444  
  24951355.339   131120256.70044      1159.901    24951353.660   102171619.90643
       903.820  
  24027285.449   126264244.43846      3345.749    24027287.016    98387726.72146
      2607.073  
 20 09 27 03 58  5.0000000  0  7G 5G 2G29G15G13G 7G18
  20161626.969   105950060.51448      -775.563    20161626.261    82558490.83147
      -604.335  
  21983355.034   115523308.95548     -1985.914    21983353.949    90018152.24247
     -1547.469  
  21009075.794   110403437.55448       317.129    21009076.269    86028653.16747
       247.109  
  23866577.115   125419717.75147      4021.996    23866579.005    97729677.59645
      3134.019  
  22241696.701   116880913.32448      3170.523    22241697.251    91076039.19046
      2470.534  
  24950251.821   131114460.17745      1157.492    24950251.042   102167103.12044
       901.934  
  24024101.599   126247513.81546      3345.941    24024103.390    98374689.90056
      2607.222  
 20 09 27 03 58 10.0000000  0  7G 5G 2G29G15G13G 7G18
  20162366.253   105953945.03948      -778.214    20162365.491    82561517.72947
      -606.406  
  21985245.432   115533242.84348     -1987.581    21985244.137    90025892.93047
     -1548.770  
  21008775.698   110401860.03748       313.687    21008775.893    86027423.92447
       244.430  
  23862750.683   125399609.68747      4021.476    23862752.616    97714009.01345
      3133.617  
  22238681.118   116865066.14448      3168.512    22238681.521    91063690.74746
      2468.969  
  24949150.946   131108675.82145      1155.602    24949151.039   102162595.82245
       900.461  
  24020918.213   126230784.98047      3345.792    24020920.206    98361654.44946
      2607.109  
 20 09 27 03 58 15.0000000  0  7G 5G 2G29G15G13G 7G18
  20163107.640   105957841.46348      -780.430    20163106.918    82564553.90247
      -608.129  
  21987137.353   115543184.73848     -1989.270    21987136.043    90033639.84647
     -1550.082  
  21008478.628   110400299.64248       310.309    21008479.181    86026208.03447
       241.797  
  23858924.849   125379504.51147      4021.137    23858926.543    97698342.63445
      3133.352  
  22235667.232   116849228.46948      3166.613    22235667.729    91051349.71146
      2467.487  
  24948052.586   131102903.39845      1153.266    24948052.786   102158097.81645
       898.640  
  24017735.188   126214057.53747      3345.395    24017737.125    98348620.07846
      2606.797  
 20 09 27 03 58 20.0000000  0  7G 5G 2G29G15G13G 7G18
  20163851.302   105961749.52448      -783.148    20163850.773    82567599.14847
      -610.249  
  21989030.776   115553134.30648     -1990.883    21989029.405    90041392.75247
     -1551.339  
  21008185.007   110398756.06148       306.788    21008185.379    86025005.24448
       239.055  
  23855099.372   125359401.99347      4020.054    23855101.283    97682678.36845
      3132.511  
  22232655.276   116833400.06748      3164.440    22232655.657    91039015.90246
      2465.797  
  24946956.468   131097142.50945      1150.707    24946956.536   102153608.82343
       896.652  
  24014552.385   126197331.23447      3344.940    24014554.171    98335586.59946
      2606.445  
 20 09 27 03 58 25.0000000  0  7G 5G 2G29G15G13G 7G18
  20164596.475   105965665.21548      -786.651    20164595.874    82570650.33547
      -612.979  
  21990924.779   115563087.54248     -1993.776    21990923.509    90049148.51147
     -1553.598  
  21007893.659   110397225.32848       302.094    21007894.045    86023812.46648
       235.394  
  23851273.887   125339298.15347      4018.035    23851275.711    97667013.03845
      3130.933  
  22229644.064   116817576.94648      3161.191    22229644.770    91026686.20246
      2463.261  
  24945861.300   131091389.30255      1147.183    24945863.875   102149141.84255
       893.906  
  24011369.057   126180602.07247      3343.347    24011370.708    98322550.91346
      2605.203  
 20 09 27 03 58 30.0000000  0  7G 5G 2G29G15G13G 7G18
  20165345.656   105969602.28348      -787.979    20165345.102    82573718.17647
      -614.015  
  21992822.211   115573058.20948     -1994.621    21992820.763    90056917.85447
     -1554.253  
  21007607.455   110395721.19148       299.652    21007607.815    86022640.40548
       233.491  
  23847450.496   125319206.66147      4018.835    23847452.347    97651357.34645
      3131.559  
  22226636.662   116801772.85048      3160.344    22226637.285    91014371.33246
      2462.602  
  24944771.677   131085657.51145      1145.531    24944772.070   102144675.48645
       892.617  
  24008187.580   126163883.76947      3344.230    24008189.269    98309523.64045
      2605.891  
 20 09 27 03 58 35.0000000  0  7G 5G 2G29G15G13G 7G18
  20166096.352   105973547.15348      -790.187    20166095.817    82576792.10047
      -615.733  
  21994720.192   115583032.73148     -1995.766    21994719.009    90064690.20147
     -1555.144  
  21007323.740   110394230.07048       296.457    21007324.057    86021478.49248
       231.003  
  23843627.120   125299114.02747      4018.078    23843628.707    97635700.77445
      3130.969  
  22223630.394   116785974.17948      3158.688    22223630.785    91002060.68846
      2461.312  
  24943681.422   131079933.40145      1143.827    24943681.874   102140215.13246
       891.292  
  24005005.649   126147162.76547      3344.140    24005007.430    98296494.29046
      2605.819  
 20 09 27 03 58 40.0000000  0  7G 5G 2G29G15G13G 7G18
  20166849.532   105977505.86148      -792.762    20166848.996    82579876.80747
      -617.738  
  21996620.304   115593017.19748     -1997.894    21996618.967    90072470.30247
     -1556.804  
  21007043.626   110392758.06548       292.816    21007043.966    86020331.47447
       228.163  
  23839804.504   125279026.36047      4017.051    23839806.266    97620048.04845
      3130.168  
  22220626.221   116770187.08148      3156.457    22220626.733    90989759.06446
      2459.573  
  24942594.817   131074223.15945      1140.983    24942594.938   102135765.62344
       889.073  
  24001824.558   126130445.20547      3343.546    24001826.103    98283467.63146
      2605.359  
 20 09 27 03 58 45.0000000  0  7G 5G 2G29G15G13G 7G18
  20167605.186   105981476.78948      -795.468    20167604.822    82582971.03747
      -619.847  
  21998521.727   115603009.86848     -1999.363    21998520.402    90080256.79747
     -1557.948  
  21006766.739   110391303.44948       289.141    21006767.291    86019198.00448
       225.301  
  23835982.435   125258941.84547      4016.448    23835984.078    97604397.79545
      3129.698  
  22217623.750   116754409.80248      3154.445    22217624.403    90977465.08746
      2458.008  
  24941510.353   131068525.04445      1138.214    24941511.155   102131325.52544
       886.917  
  23998643.516   126113729.31246      3342.823    23998645.226    98270442.25246
      2604.793  
 20 09 27 03 58 50.0000000  0  7G 5G 2G29G15G13G 7G18
  20168363.124   105985459.37348      -797.854    20168362.614    82586074.35147
      -621.707  
  22000424.886   115613010.28648     -2000.983    22000423.525    90088049.33347
     -1559.211  
  21006493.100   110389865.71748       285.691    21006493.517    86018077.69648
       222.613  
  23832161.153   125238860.12047      4015.879    23832162.662    97588749.70445
      3129.253  
  22214623.206   116738641.90048      3152.554    22214623.820    90965178.42046
      2456.531  
  24940428.318   131062838.59945      1136.086    24940428.535   102126894.53445
       885.257  
  23995462.623   126097014.60546      3342.535    23995464.257    98257417.84456
      2604.570  
 20 09 27 03 58 55.0000000  0  7G 5G 2G29G15G13G 7G18
  20169123.323   105989454.37248      -800.229    20169122.821    82589187.33347
      -623.558  
  22002329.562   115623019.17648     -2002.652    22002328.122    90095848.46447
     -1560.511  
  21006222.909   110388445.63748       282.440    21006223.452    86016971.13948
       220.082  
  23828340.274   125218781.92147      4015.566    23828341.890    97573104.37645
      3129.011  
  22211624.747   116722884.14348      3150.604    22211625.151    90952899.65546
      2455.016  
  24939348.477   131057164.55845      1133.848    24939349.116   102122473.21044
       883.520  
  23992282.177   126080301.90646      3342.429    23992283.829    98244394.92646
      2604.488  
 20 09 27 03 59  0.0000000  0  7G 5G 2G29G15G13G 7G18
  20169885.827   105993461.76248      -802.425    20169885.265    82592309.97747
      -625.269  
  22004235.758   115633036.52248     -2004.180    22004234.436    90103654.18947
     -1561.702  
  21005956.132   110387043.18248       279.081    21005956.536    86015878.31648
       217.464  
  23824520.286   125198707.28147      4014.605    23824521.716    97557461.80645
      3128.262  
  22208628.012   116707136.53648      3148.800    22208628.422    90940628.80146
      2453.609  
  24938270.879   131051502.96045      1131.602    24938271.756   102118061.57045
       881.628  
  23989102.210   126063591.13146      3342.261    23989104.077    98231373.59546
      2604.359  
 20 09 27 03 59  5.0000000  0  7G 5G 2G29G15G13G 7G18
  20170650.783   105997481.94748      -804.894    20170650.395    82595442.58747
      -627.194  
  22006143.687   115643062.81848     -2005.805    22006142.195    90111466.89147
     -1562.969  
  21005692.586   110385658.86248       275.219    21005693.024    86014799.62448
       214.452  
  23820700.883   125178636.61847      4014.011    23820702.525    97541822.36045
      3127.800  
  22205633.333   116691399.54748      3146.691    22205633.920    90928366.22146
      2451.965  
  24937196.200   131045854.30145      1128.363    24937196.865   102113660.04145
       879.242  
  23985922.582   126046882.85246      3341.574    23985924.457    98218354.14346
      2603.820  
 20 09 27 03 59 10.0000000  0  7G 5G 2G29G15G13G 7G18
  20171417.866   106001512.99348      -807.629    20171417.462    82598583.66247
      -629.324  
  22008053.097   115653096.05748     -2007.690    22008051.456    90119284.99747
     -1564.437  
  21005432.258   110384290.64148       271.805    21005432.706    86013733.47747
       211.793  
  23816881.864   125158567.94447      4013.351    23816883.499    97526184.43145
      3127.284  
  22202640.394   116675671.17349      3144.441    22202640.882    90916110.35446
      2450.210  
  24936123.251   131040216.51045      1126.308    24936123.840   102109266.93145
       877.641  
  23982743.125   126030174.94346      3341.187    23982744.735    98205334.99446
      2603.519  
 20 09 27 03 59 15.0000000  0  7G 5G 2G29G15G13G 7G18
  20172187.585   106005557.14548      -810.062    20172186.955    82601734.95047
      -631.222  
  22009964.055   115663138.48948     -2009.308    22009962.642    90127110.26547
     -1565.699  
  21005175.367   110382940.82648       268.273    21005175.814    86012681.67148
       209.042  
  23813063.801   125138503.54347      4012.585    23813065.255    97510549.85845
      3126.688  
  22199649.349   116659953.68749      3142.629    22199649.830    90903862.96646
      2448.796  
  24935052.897   131034591.85245      1124.152    24935053.994   102104884.12445
       876.082  
  23979564.305   126013469.78847      3340.831    23979566.310    98192318.03246
      2603.245  
 20 09 27 03 59 20.0000000  0  7G 5G 2G29G15G13G 7G18
  20172959.205   106009612.31448      -812.086    20172958.658    82604894.82147
      -632.797  
