     2              OBSERVATION DATA    M                   RINEX VERSION / TYPE
LEICA GEO OFFICE 7.0                    26-9-20 23:55       PGM / RUN BY / DATE
                                                            OBSERVER / AGENCY
PROS                                                        MARKER NAME
PROS                                                        MARKER NUMBER
196020              LEICA GX1230+ GNSS  7.50                REC # / TYPE / VERS
                    LEIAX1203+GNSS                          ANT # / TYPE
 -1165499.7986  3792392.2971  4978660.0963                  APPROX POSITION XYZ
        2.0030        0.0000        0.0000                  ANTENNA: DELTA H/E/N
L1PhaOff:   0.0585  L2PhaOff:   0.0555                      COMMENT
     1     1                                                WAVELENGTH FACT L1/2
     6    C1    L1    D1    P2    L2    D2                  # / TYPES OF OBSERV
  2020     9    26     6    18   20.000000                  TIME OF FIRST OBS
  2020     9    26     8    51   15.000000                  TIME OF LAST OBS
    18                                                      LEAP SECONDS
    25                                                      # OF SATELLITES
          C1    L1    D1    P2    L2    D2                  COMMENT
   G 1     0     0     0     0     0     0                  PRN / # OF OBS
   G 2     0     0     0     0     0     0                  PRN / # OF OBS
   G 3     0     0     0     0     0     0                  PRN / # OF OBS
   G 4     0     0     0     0     0     0                  PRN / # OF OBS
   G 5   321   306   321   284   274   284                  PRN / # OF OBS
   G 6     0     0     0     0     0     0                  PRN / # OF OBS
   G 7     0     0     0     0     0     0                  PRN / # OF OBS
   G 8   397   365   397   349   329   349                  PRN / # OF OBS
   G 9     0     0     0     0     0     0                  PRN / # OF OBS
   G10  1642  1611  1642  1610  1594  1610                  PRN / # OF OBS
   G11    22    22    22     9     9     9                  PRN / # OF OBS
   G12     0     0     0     0     0     0                  PRN / # OF OBS
   G13  1167  1106  1167  1102  1067  1102                  PRN / # OF OBS
   G14     0     0     0     0     0     0                  PRN / # OF OBS
   G15  1636  1542  1636  1537  1491  1537                  PRN / # OF OBS
   G16     0     0     0     0     0     0                  PRN / # OF OBS
   G17     0     0     0     0     0     0                  PRN / # OF OBS
   G18  1820  1804  1820  1815  1804  1815                  PRN / # OF OBS
   G19     0     0     0     0     0     0                  PRN / # OF OBS
   G20  1836  1835  1836  1836  1835  1836                  PRN / # OF OBS
   G21   895   845   895   855   825   855                  PRN / # OF OBS
   G22     0     0     0     0     0     0                  PRN / # OF OBS
   G23     0     0     0     0     0     0                  PRN / # OF OBS
   G24  1806  1785  1806  1790  1778  1790                  PRN / # OF OBS
   G25     0     0     0     0     0     0                  PRN / # OF OBS
   G26     0     0     0     0     0     0                  PRN / # OF OBS
   G27  1068   984  1068  1004   950  1004                  PRN / # OF OBS
   G28     0     0     0     0     0     0                  PRN / # OF OBS
   G29    40    35    40    36    32    36                  PRN / # OF OBS
   G30   161   159   161   160   159   160                  PRN / # OF OBS
   G31     0     0     0     0     0     0                  PRN / # OF OBS
   G32   469   386   469   389   338   389                  PRN / # OF OBS
   R 1  1787  1772  1787  1753  1704  1753                  PRN / # OF OBS
   R 2   502   458   502   456   337   456                  PRN / # OF OBS
   R 3     0     0     0     0     0     0                  PRN / # OF OBS
   R 4     0     0     0     0     0     0                  PRN / # OF OBS
   R 5     0     0     0     0     0     0                  PRN / # OF OBS
   R 6     0     0     0     0     0     0                  PRN / # OF OBS
   R 7   821   765   821   693   442   693                  PRN / # OF OBS
   R 8  1734  1673  1734  1656  1491  1656                  PRN / # OF OBS
   R 9     0     0     0     0     0     0                  PRN / # OF OBS
   R10  1061   994  1060     0     1     1                  PRN / # OF OBS
   R11   718   696   718   706   669   706                  PRN / # OF OBS
   R12     0     0     0     0     0     0                  PRN / # OF OBS
   R13     0     0     0     0     0     0                  PRN / # OF OBS
   R14     0     0     0     0     0     0                  PRN / # OF OBS
   R15     0     0     0     0     0     0                  PRN / # OF OBS
   R16   169   168   169   156   132   156                  PRN / # OF OBS
   R17  1216  1115  1216  1070   785  1070                  PRN / # OF OBS
   R18   202   185   202   179   130   179                  PRN / # OF OBS
   R19     0     0     0     0     0     0                  PRN / # OF OBS
   R20     0     0     0     0     0     0                  PRN / # OF OBS
   R21     0     0     0     0     0     0                  PRN / # OF OBS
   R22     0     0     0     0     0     0                  PRN / # OF OBS
   R23  1289  1241  1289  1247  1131  1247                  PRN / # OF OBS
   R24  1706  1631  1706  1626  1454  1626                  PRN / # OF OBS
                                                            END OF HEADER
 20  9 26  6 18 20.0000000  0 12G20G30G27G24G18G15G 5R 1R24R23R 7R 8
  21804548.060   114583672.53848      -506.884    21804544.660    89285965.63547
      -506.884  
  24464351.880   128561033.64547       381.852    24464350.340   100177421.66044
       381.852  
  24271077.000   127545379.20005      -339.005           0.000           0.00000
         0.000  
  24034708.100   126303240.61546      -724.215    24034703.940    98418115.41243
      -724.215  
  20388113.000   107140257.48849       -99.172    20388109.380    83485898.05148
       -99.174  
  20007559.540   105140435.54849       -50.923    20007555.220    81927593.81149
       -50.924  
  23642614.260   124242785.38246       616.430    23642611.680    96812539.65243
       616.429  
  21712387.520   116065156.76305      -591.541    21712393.560    90272910.78604
      -591.541  
  21231146.320   113532478.43908      -530.783    21231149.380    88303054.85707
      -530.784  
  19566504.120   104667604.33308        49.308    19566508.440    81408155.96506
        49.307  
  20559462.460   110056415.35306       489.779    20559465.800    85599445.83406
       489.780  
  19439136.040   104095692.87008      -129.612    19439135.280    80963313.01807
      -129.614  
 20  9 26  6 18 25.0000000  0 11G20G30G27G18G15G 5R 1R24R23R 7R 8
  21802014.880   114570360.35948      -506.730    21802011.400    89275592.51647
      -506.731  
  24466262.880   128571076.00747       382.325    24466261.280   100185246.92545
       382.323  
  24269384.580   127536485.43146      -338.287    24269385.720    99379068.33542
      -338.287  
  20387619.080   107137662.19248       -98.605    20387615.600    83483875.74048
       -98.605  
  20007306.720   105139107.02549       -50.394    20007302.540    81926558.62949
       -50.395  
  23645697.660   124258989.01846       616.604    23645695.760    96825165.95241
       616.598  
  21709431.020   116049352.53004      -591.368    21709436.420    90260618.58704
      -591.367  
  21228494.220   113518295.80008      -530.295    21228497.140    88292023.94707
      -530.297  
  19566753.300   104668937.31508        50.151    19566757.580    81409192.70606
        50.151  
  20561912.660   110069530.33407       490.068    20561915.560    85609646.47605
       490.063  
  19438489.720   104092231.97107      -129.143    19438488.860    80960621.21307
      -129.144  
 20  9 26  6 18 30.0000000  0 12G20G13G30G27G24G18G15G 5R24R23R 7R 8
  21799481.720   114557048.23248      -506.832    21799478.140    89265219.46346
      -506.833  
  20993989.960           0.00000       337.346           0.000           0.00000
         0.000  
  24468175.100   128581124.97248       382.420    24468173.560   100193077.25745
       382.420  
  24267693.900   127527600.46945      -338.115    24267695.340    99372145.02342
      -338.117  
  24027467.240           0.00040      -724.319    24027473.300           0.00040
      -724.319  
  20387126.940   107135076.28948       -98.400    20387123.460    83481860.74948
       -98.400  
  20007055.820   105137788.64949       -50.136    20007051.820    81925531.29949
       -50.136  
  23648780.620   124275189.99645       616.432    23648779.100    96837795.01243
       616.437  
  21225844.140   113504123.84608      -530.015    21225846.820    88281001.31107
      -530.016  
  19567005.840   104670288.00108        50.696    19567009.880    81410243.29306
        50.695  
  20564363.080   110082647.30007       489.983    20564365.760    85619848.47605
       489.985  
  19437844.840   104088778.80408      -128.952    19437844.080    80957935.40507
      -128.953  
 20  9 26  6 18 35.0000000  0 13G20G13G30G27G24G18G15G 5R 1R24R23R 7
                                R 8
  21796948.300   114543735.44648      -506.228    21796944.480    89254845.83145
      -506.228  
  20995677.140   110333023.37506       338.060           0.000           0.00000
         0.000  
  24470088.520   128591179.94447       383.276    24470087.080   100200912.35345
       383.275  
  24266004.820   127518723.55146      -337.248    24266006.080    99365227.95843
      -337.250  
  24023844.940           0.00040      -724.112    24023839.680           0.00040
      -724.112  
  20386636.460   107132499.08848       -97.435    20386633.200    83479852.53648
       -97.436  
  20006806.700   105136479.54149       -49.172    20006802.680    81924511.25049
       -49.173  
  23651862.560   124291387.30006       616.828           0.000           0.00000
         0.000  
  21703518.840   116017745.19305      -590.730    21703524.340    90236048.56104
      -590.733  
  21223195.800   113489961.63608      -529.021    21223198.260    88269986.27207
      -529.021  
  19567261.500   104671655.56108        51.919    19567265.500    81411306.91806
        51.920  
  20566813.760   110095765.82707       490.562    20566816.360    85630051.87205
       490.559  
  19437201.340   104085332.46507      -128.208    19437200.640    80955254.94207
      -128.209  
 20  9 26  6 18 40.0000000  0 12G20G30G27G24G18G15G 5R 1R24R23R 7R 8
  21794418.000   114530438.46448      -506.293    21794414.160    89244484.57747
      -506.295  
  24472006.100   128601257.18947       383.439    24472004.800   100208764.76846
       383.438  
  24264320.000   127509871.21246      -336.940    24264322.740    99358330.06843
      -336.943  
  24020223.360   126227127.15247      -724.335    24020224.940    98358795.74742
      -724.347  
  20386150.740   107129946.97248       -97.181    20386147.600    83477863.91748
       -97.183  
  20006562.500   105135196.21749       -48.911    20006558.460    81923511.25549
       -48.911  
  23654946.680   124307597.54745       616.660    23654947.500    96863029.48543
       616.660  
  21700566.000   116001960.85204      -590.863    21700571.420    90223771.87003
      -590.862  
  21220552.380   113475825.81708      -528.782    21220554.640    88258991.75607
      -528.783  
  19567523.440   104673056.65708        52.452    19567527.420    81412396.66706
        52.451  
  20569267.620   110108902.55106       490.532    20569270.260    85640269.25606
       490.535  
  19436562.040   104081909.70408      -127.942    19436561.520    80952592.80307
      -127.943  
 20  9 26  6 18 45.0000000  0 12G20G30G27G24G18G15G 5R 1R24R23R 7R 8
  21791881.160   114517107.54248      -507.544    21791877.300    89234096.84446
      -507.545  
  24473918.500   128611307.10348       382.350    24473917.340   100216595.79045
       382.353  
  24262630.420   127500993.59445      -337.807    24262634.320    99351412.39142
      -337.804  
  24016597.300   126208068.33145      -725.716    24016597.200    98343944.63041
      -725.718  
  20385660.420   107127370.38648       -98.155    20385657.280    83475856.17848
       -98.154  
  20006313.760   105133888.94049       -49.750    20006309.760    81922492.61249
       -49.751  
  23658024.300   124323770.67306       615.322           0.000           0.00000
         0.000  
  21697608.580           0.00000      -592.094           0.000           0.00000
         0.000  
  21217904.440   113461666.00908      -529.590    21217906.700    88247978.59907
      -529.592  
  19567782.160   104674440.65008        51.910    19567786.140    81413473.16505
        51.909  
  20571715.560   110122006.49107       489.308           0.000           0.00000
         0.000  
  19435917.860   104078460.06407      -128.872    19435917.600    80949909.76407
      -128.873  
 20  9 26  6 18 50.0000000  0 12G20G30G27G24G18G15G 5R 1R24R23R 7R 8
  21789349.740   114503804.55248      -505.452    21789345.800    89223730.89747
      -505.453  
  24475837.400   128621391.45548       384.780    24475836.400   100224453.82546
       384.777  
  24260947.940   127492152.66544      -335.644    24260952.560    99344523.47144
      -335.647  
  24012976.040   126189033.81545      -723.600    24012970.220    98329107.56043
      -723.600  
  20385177.180   107124831.02748       -95.604    20385174.060    83473877.45648
       -95.604  
  20006072.240   105132619.58449       -47.262    20006068.260    81921503.50949
       -47.263  
  23661106.700   124339968.92647       617.321    23661104.460    96888256.95843
       617.321  
  21694655.440   115970351.57805      -589.790    21694657.800    90199175.78604
      -589.790  
  21215263.840   113447545.21608      -527.080    21215265.880    88236995.74107
      -527.080  
  19568049.520   104675870.73708        54.646    19568053.520    81414585.42506
        54.647  
  20574169.260   110135141.08507       491.654    20574173.000           0.00000
       491.654  
  19435280.360   104075046.29407      -126.515    19435280.200    80947254.62407
      -126.516  
 20  9 26  6 18 55.0000000  0 11G20G30G27G18G15G 5R 1R24R23R 7R 8
  21786823.440   114490528.41148      -505.105    21786819.280    89213385.81646
      -505.104  
  24477762.720   128631509.13847       385.370    24477761.940   100232337.69946
       385.370  
  24259272.240   127483347.35646      -334.767    24259276.340    99337662.14944
      -334.766  
  20384700.840   107122327.76748       -94.891    20384697.720    83471926.86048
       -94.891  
  20005837.680   105131386.92349       -46.528    20005833.660    81920542.99448
       -46.529  
  23664193.720   124356190.92647       617.529    23664191.180    96900897.58643
       617.527  
  21691706.480   115954593.07404      -589.398    21691710.280           0.00000
      -589.398  
  21212630.280   113433462.04208      -526.399    21212632.340    88226042.16407
      -526.399  
  19568325.220   104677345.55608        55.659    19568329.220    81415732.46606
        55.661  
  20576628.480   110148305.09404       492.013    20576632.200    85670909.70506
       492.011  
  19434649.360   104071667.51508      -125.852    19434649.260    80944626.66207
      -125.851  
 20  9 26  6 19  0.0000000  0 12G20G13G30G27G18G15G 5R 1R24R23R 7R 8
  21784300.460   114477270.00748      -504.629    21784296.340    89203054.59847
      -504.630  
  21004161.680           0.00000       341.330           0.000           0.00000
         0.000  
  24479692.620   128641651.18647       386.236    24479691.800   100240240.56746
       386.238  
  24257601.820   127474568.67745      -333.790    24257605.420    99330821.76143
      -333.794  
  20384229.700   107119851.79748       -94.009    20384226.660    83469997.57048
       -94.010  
  20005608.440   105130182.20149       -45.547    20005604.440    81919604.26248
       -45.548  
  23667283.460   124372427.88247       617.949    23667283.560    96913549.66145
       617.953  
  21688760.900   115938854.41005      -588.589    21688762.560           0.00010
      -588.589  
  21210002.020   113419407.51208      -525.372    21210004.020    88215110.85907
      -525.371  
  19568607.580   104678856.14708        56.865    19568611.820    81416907.42406
        56.863  
  20579091.300   110161488.93307       492.573           0.000           0.00000
         0.000  
  19434023.160   104068314.34207      -124.962    19434023.200    80942018.70306
      -124.965  
 20  9 26  6 19  5.0000000  0 12G20G13G30G27G18G15G 5R 1R24R23R 7R 8
  21781777.580   114464012.13848      -504.803    21781773.480    89192723.80646
      -504.803  
  21005866.760   110386590.89444       341.482    21005862.500    86015520.18444
       341.482  
  24481623.820   128651800.09747       386.235    24481623.320   100248148.78846
       386.236  
  24255933.420   127465799.02946      -333.855    24255935.520    99323988.31744
      -333.857  
  20383760.400   107117385.56448       -93.792    20383757.300    83468075.84648
       -93.793  
  20005381.140   105128987.72648       -45.436    20005377.120    81918673.50548
       -45.436  
  23670372.740   124388662.09547       617.639    23670373.920    96926199.58343
       617.645  
  21685817.420   115923117.58604      -588.978    21685822.800    90162432.23904
      -588.979  
  21207375.880   113405364.04308      -525.173    21207377.900    88204188.20607
      -525.174  
  19568893.300   104680384.47308        57.323    19568897.640    81418096.13406
        57.322  
  20581554.720   110174675.39906       492.445    20581554.880    85691412.88305
       492.446  
  19433398.400   104064969.12807      -124.963    19433398.480    80939416.84106
      -124.962  
 20  9 26  6 19 10.0000000  0 12G20G13G30G27G18G15G 5R 1R24R23R 7R 8
  21779253.500   114450747.88548      -504.681    21779249.140    89182388.05946
      -504.683  
  21007576.140           0.00000       341.839           0.000           0.00000
         0.000  
  24483555.040   128661949.10747       386.517    24483554.760   100256057.13546
       386.516  
  24254265.020   127457031.86745      -333.200    24254266.160    99317156.74944
      -333.203  
  20383291.720   107114922.27448       -93.394    20383288.520    83466156.40548
       -93.395  
  20005154.500   105127796.79349       -45.006    20005150.480    81917745.50548
       -45.005  
  23673460.340   124404886.88047       617.639    23673458.560    96938842.33243
       617.637  
  21682873.840   115907375.84105      -588.776    21682878.700    90150188.74304
      -588.778  
  21204750.380   113391324.38407      -524.750    21204752.220    88193268.46707
      -524.749  
  19569181.100   104681923.85708        58.025    19569185.500    81419293.42206
        58.025  
  20584017.260   110187857.27607       492.767           0.000           0.00000
         0.000  
  19432773.840   104061624.91607      -124.625    19432773.960    80936815.80207
      -124.626  
 20  9 26  6 19 15.0000000  0 12G20G13G30G27G18G15G 5R 1R24R23R 7R 8
  21776730.580   114437489.57548      -504.350    21776726.120    89172056.90646
      -504.351  
  21009286.280   110404540.25646       342.443    21009283.360    86029512.25545
       342.443  
  24485488.600   128672110.32847       386.972    24485488.400   100263975.00646
       386.971  
  24252599.480   127448279.31745      -332.517    24252600.960    99310336.56844
      -332.519  
  20382825.920   107112474.19748       -92.776    20382822.660    83464248.81548
       -92.776  
  20004930.840   105126621.61048       -44.318    20004926.880    81916829.80048
       -44.319  
  23676548.400   124421114.71647       617.814    23676544.180    96951487.39543
       617.812  
  21679930.980   115891641.47205      -588.426    21679934.460    90137950.93004
      -588.429  
  21202127.980   113377301.35908      -523.998    21202129.580    88182361.69306
      -524.000  
  19569473.280   104683486.69508        59.009    19569477.580    81420508.96906
        59.009  
  20586481.380   110201047.24806       493.165    20586490.560    85711932.19304
       493.165  
  19432151.680   104058294.07807      -124.034    19432151.860    80934225.16907
      -124.035  
 20  9 26  6 19 20.0000000  0 14G20G13G30G27G24G18G29G15G 5R 1R24R23
                                R 7R 8
  21774209.100   114424239.28147      -504.005    21774204.760    89161732.02446
      -504.006  
  21010998.720   110413543.15447       343.126    21010994.220    86036523.26444
       343.126  
  24487425.060   128682286.25747       387.702    24487424.820   100271904.29846
       387.702  
  24250937.320   127439543.56146      -332.023    24250939.340    99303529.43444
      -332.023  
  23991276.920   126075014.73506      -722.940           0.000           0.00000
         0.000  
  20382363.440   107110043.67849       -92.046    20382360.160    83462354.90648
       -92.047  
  24475668.980   128620507.18006       708.607           0.000           0.00000
         0.000  
  20004710.680   105125464.55649       -43.559    20004706.720    81915928.17749
       -43.560  
  23679637.020   124437347.55705       618.014           0.000           0.00000
         0.000  
  21676988.800   115875916.98805      -588.011    21676988.620    90125720.78203
      -588.011  
  21199509.120   113363297.18308      -523.283    21199510.740    88171469.56007
      -523.283  
  19569770.280   104685075.26208        59.983    19569774.640    81421744.54506
        59.983  
  20588947.140   110214247.16005       493.515    20588948.500           0.00000
       493.511  
  19431532.640   104054979.45807      -123.351    19431532.920    80931647.09907
      -123.350  
 20  9 26  6 19 25.0000000  0 14G20G13G30G27G24G18G29G15G 5R 1R24R23
                                R 7R 8
  21771689.760   114410999.89248      -503.948    21771685.220    89151415.62846
      -503.949  
  21012714.960   110422564.42146       343.586    21012713.260    86043552.97845
       343.582  
  24489364.840   128692479.40247       387.952    24489364.560   100279847.01446
       387.952  
  24249278.740   127430827.48145      -331.682    24249281.080    99296737.70044
      -331.680  
  23987659.580   126056019.21605      -723.004           0.000           0.00000
         0.000  
  20381904.780   107107633.27248       -91.626    20381901.460    83460476.63348
       -91.625  
  24479209.980   128639126.07344       708.315    24479212.200   100238280.97053
       708.315  
  20004494.440   105124328.22849       -43.107    20004490.420    81915042.74348
       -43.108  
  23682727.600   124453588.17106       617.950           0.000           0.00000
         0.000  
  21674050.120   115860205.00705      -587.892    21674051.420           0.00000
      -587.896  
  21196894.300   113349314.51208      -522.830    21196896.000    88160594.16407
      -522.830  
  19570072.580   104686692.41708        60.692    19570076.840    81423002.28005
        60.693  
  20591415.520   110227460.13406       493.625           0.000           0.00000
         0.000  
  19430917.000   104051682.94808      -123.024    19430917.360    80929083.15707
      -123.025  
 20  9 26  6 19 30.0000000  0 14G20G13G30G27G24G18G29G15G 5R 1R24R23
                                R 7R 8
  21769171.460   114397766.47348      -503.667    21769166.920    89141103.83946
      -503.666  
  21014434.540   110431598.94947       343.951    21014432.540    86050592.77545
       343.951  
  24491306.920   128702684.96847       388.554    24491306.700   100287799.41946
       388.554  
  24247623.080   127422126.16946      -330.948    24247625.420    99289957.49843
      -330.949  
  23984048.380   126037026.18946      -723.000    23984046.420    98210626.21543
      -723.000  
  20381449.000   107105238.25048       -90.965    20381445.800    83458610.42948
       -90.966  
  24482754.680   128657746.81045       708.700    24482751.640   100252779.06644
       708.701  
  20004281.200   105123207.82849       -42.459    20004277.180    81914169.69448
       -42.459  
  23685818.520   124469831.82246       618.166    23685824.740    96989425.77542
       618.166  
  21671112.220   115844500.64305      -587.434    21671112.100    90101288.94202
      -587.437  
  21194282.540   113335348.60708      -522.135    21194284.320    88149731.77307
      -522.135  
  19570379.280   104688333.06308        61.688    19570383.520    81424278.36306
        61.688  
  20593885.180   110240681.04106       493.917    20593886.920           0.00000
       493.917  
  19430303.940   104048400.34507      -122.472    19430304.460    80926530.04007
      -122.473  
 20  9 26  6 19 35.0000000  0 14G20G13G30G27G24G18G29G15G 5R 1R24R23
                                R 7R 8
  21766653.960   114384537.27348      -503.321    21766649.400    89130795.38046
      -503.321  
  21016156.480   110440645.16147       344.663    21016153.700    86057641.72944
       344.666  
  24493251.060   128712901.11748       389.148    24493250.780   100295760.03446
       389.149  
  24245969.680   127413437.78046      -330.256    24245972.080    99283187.36344
      -330.258  
  23980434.920   126018034.07046      -722.625    23980434.500    98195870.23753
      -722.621  
  20380995.740   107102856.68648       -90.228    20380992.600    83456754.64548
       -90.228  
  24486297.780   128676367.20145       708.763    24486297.500   100267288.51642
       708.762  
  20004070.700   105122101.44949       -41.694    20004066.660    81913307.58949
       -41.695  
  23688909.780   124486076.65846       618.275    23688912.480    97002084.15041
       618.277  
  21668175.020   115828802.08704      -587.162    21668179.140           0.00000
      -587.162  
  21191673.600   113321397.42508      -521.353    21191675.240    88138880.86607
      -521.354  
  19570690.020   104689995.40108        62.738    19570694.300    81425571.31505
        62.737  
  20596356.220   110253908.21307       494.386    20596357.460    85753045.40707
       494.386  
  19429693.040   104045129.17207      -121.850    19429693.740    80923985.78407
      -121.850  
 20  9 26  6 19 40.0000000  0 14G20G13G30G27G24G18G29G15G 5R 1R24R23
                                R 7R 8
  21764138.720   114371319.87948      -502.855    21764134.220    89120496.12846
      -502.856  
  21017882.000   110449710.32947       345.366    21017879.780    86064705.56645
       345.364  
  24495198.640   128723135.36947       389.831    24495198.340   100303734.77045
       389.831  
  24244320.420   127404769.94045      -329.613    24244322.540    99276433.17443
      -329.611  
  23976822.300   125999050.10246      -722.410    23976812.220    98181066.49941
      -722.410  
  20380546.600   107100496.19848       -89.487    20380543.480    83454915.34448
       -89.489  
  24489842.120   128694994.94846       708.942    24489843.040   100281803.39843
       708.947  
  20003864.300   105121016.74149       -40.934    20003860.240    81912462.37649
       -40.935  
  23692002.800   124502330.01546       618.744    23692006.320    97014796.99543
       618.747  
  21665240.800   115813117.07705      -586.585    21665246.020    90076880.53104
      -586.587  
  21189068.860   113307468.81108      -520.504    21189070.380    88128047.52807
      -520.505  
  19571006.280   104691687.31208        63.745    19571010.440    81426887.23606
        63.745  
  20598829.800   110267149.35006       494.991    20598829.280    85763343.97503
       494.994  
  19429085.840   104041877.70708      -121.140    19429086.660    80921456.88008
      -121.140  
 20  9 26  6 19 45.0000000  0 13G20G13G30G27G24G18G29G15G 5R24R23R 7
                                R 8
  21761622.980   114358099.61548      -504.688    21761618.400    89110194.64946
      -504.688  
  21019608.160   110458780.42046       343.927    21019604.920    86071773.16544
       343.927  
  24497146.920   128733373.12948       388.112    24497146.400   100311712.27245
       388.112  
  24242672.180   127396107.99246      -331.060    24242674.400    99269683.50644
      -331.056  
  23973209.100   125980059.75445      -724.270    23973202.900    98166269.00642
      -724.272  
  20380098.720   107098142.31848       -91.006    20380095.640    83453081.16048
       -91.006  
  24493385.620   128713615.46245       706.943    24493385.500   100296312.91644
       706.945  
  20003659.220   105119939.08649       -42.399    20003655.120    81911622.64349
       -42.399  
  23695094.720   124518577.50707       616.661           0.000           0.00000
         0.000  
  21186465.540   113293547.93208      -521.992    21186467.020    88117220.21407
      -521.993  
  19571325.340   104693393.76908        62.520    19571329.340    81428214.47305
        62.520  
  20601303.200   110280389.20905       493.144           0.000           0.00000
         0.000  
  19428479.460   104038630.71508      -122.693    19428480.360    80918931.42507
      -122.692  
 20  9 26  6 19 50.0000000  0 13G20G13G30G27G24G18G29G15G 5R24R23R 7
                                R 8
  21759103.300   114344858.52648      -503.744    21759098.720    89099876.93146
      -503.745  
  21021332.300   110467829.74606       345.031           0.000           0.00000
         0.000  
  24499092.440   128743596.44148       389.426    24499091.640   100319678.46046
       389.426  
  24241021.500   127387434.01546      -329.706    24241023.640    99262924.71644
      -329.710  
  23969589.960   125961045.28344      -723.614    23969590.260    98151479.34444
      -723.607  
  20379648.560   107095776.86348       -89.665    20379645.580    83451237.92248
       -89.665  
  24496923.980   128732210.67644       707.807    24496924.980   100310802.62444
       707.808  
  20003452.060   105118850.35649       -41.060    20003447.980    81910774.31848
       -41.061  
  23698182.160   124534801.05846       617.472    23698184.140    97040094.18843
       617.472  
  21183860.240   113279616.31307      -520.661    21183861.800    88106384.47907
      -520.661  
  19571643.600   104695096.16808        64.188    19571647.480    81429538.57405
        64.188  
  20603772.980           0.00000       494.085    20603773.760           0.00000
       494.085  
  19427870.600   104035369.93308      -121.453    19427871.460    80916395.29907
      -121.455  
 20  9 26  6 19 55.0000000  0 15G20G13G30G27G24G18G29G10G15G 5R 1R24
                                R23R 7R 8
  21756590.220   114331652.05448      -500.772    21756585.640    89089586.21945
      -500.774  
  21023062.780   110476928.30447       348.327    21023061.560    86085994.79245
       348.326  
  24501045.800   128753860.79447       392.627    24501044.680   100327676.69545
       392.626  
  24239379.260   127378803.57845      -326.367    24239381.160    99256199.67443
      -326.366  
  23965977.640   125942061.95646      -720.661    23965980.260    98136667.38843
      -720.661  
  20379206.860   107093455.52048       -86.313    20379203.920    83449429.09748
       -86.314  
  24500468.140   128750836.27746       710.566    24500470.340   100325316.16743
       710.564  
  24974582.580   131242317.62306      -615.306           0.000           0.00000
         0.000  
  20003253.400   105117806.32749       -37.696    20003249.280    81909960.75749
       -37.696  
  23701275.420   124551056.26245       620.339    23701281.760    97052769.67844
       620.339  
  21656437.180   115766067.15004      -584.353    21656443.140    90040298.88702
      -584.354  
  21181263.560   113265730.85608      -517.264    21181265.240    88095584.71207
      -517.265  
  19571971.760   104696851.61808        67.823    19571975.500    81430903.95305
        67.821  
  20606249.740   110306866.06205       497.216    20606248.500           0.00000
       497.213  
  19427269.660   104032152.02808      -118.182    19427270.500    80913892.47507
      -118.182  
 20  9 26  6 20  0.0000000  0 14G20G13G30G27G24G18G29G15G 5R 1R24R23
                                R 7R 8
  21754085.360   114318488.92148      -501.482    21754080.620    89079329.17946
      -501.481  
  21024804.060   110486077.43446       347.866    21024801.220    86093124.00644
       347.867  
  24503008.460   128764174.60347       392.096    24503007.240   100335713.43746
       392.095  
  24237746.920   127370224.89045      -326.775    24237748.220    99249514.96143
      -326.777  
  23962372.920   125923118.48645      -721.435    23962373.040    98121906.18143
      -721.431  
  20378775.200   107091186.64548       -86.671    20378772.280    83447661.17648
       -86.672  
  24504020.180   128769500.49445       709.451    24504021.620   100339859.67843
       709.453  
  20003064.820   105116815.25649       -38.014    20003060.720    81909188.52949
       -38.016  
  23704376.340   124567351.49147       619.623    23704383.020    97065467.17943
       619.626  
  21653514.080   115750443.20503      -585.122           0.000           0.00000
         0.000  
  21178677.000   113251899.89208      -517.551    21178678.700    88084827.31407
      -517.551  
  19572311.460   104698668.35108        67.758    19572315.100    81432316.95505
        67.758  
  20608735.000   110320169.76506       496.673    20608733.780           0.00000
       496.670  
  19426678.360   104028985.57408      -118.599    19426679.220    80911429.69407
      -118.599  
 20  9 26  6 20  5.0000000  0 14G20G13G30G27G24G18G10G15G 5R 1R24R23
                                R 7R 8
  21751576.900   114305306.70448      -501.919    21751572.140    89069057.29746
      -501.918  
  21026542.500   110495214.80847       347.630    21026539.260    86100244.01246
       347.629  
  24504968.720   128774475.70747       391.967    24504967.220   100343740.24744
       391.967  
  24236112.540   127361636.22346      -326.848    24236114.140    99242822.51844
      -326.849  
  23958760.860           0.00000      -722.232           0.000           0.00000
         0.000  
  20378341.660   107088908.18048       -86.726    20378338.700    83445885.69148
       -86.724  
  24968422.400           0.00000      -616.812           0.000           0.00000
         0.000  
  20002874.520   105115815.04249       -38.057    20002870.420    81908409.14149
       -38.058  
  23707473.080   124583624.63646       618.968    23707479.000    97078163.09043
       618.990  
  21650588.000   115734801.50205      -585.370    21650593.340           0.00000
      -585.370  
  21176088.900   113238060.29508      -517.625    21176090.740    88074063.12307
      -517.623  
  19572650.760   104700483.10709        67.983    19572654.260    81433728.43605
        67.983  
  20611216.880   110333455.58906       496.385           0.000           0.00000
         0.000  
  19426084.820   104025807.16708      -118.695    19426085.720    80908957.61107
      -118.696  
 20  9 26  6 20 10.0000000  0 14G20G13G30G27G24G18G29G15G 5R 1R24R23
                                R 7R 8
  21749060.940   114292085.27148      -502.118    21749056.240    89058754.93546
      -502.119  
  21028274.080   110504320.07746       347.836    21028272.200    86107339.00845
       347.834  
  24506922.720   128784743.90547       391.968    24506920.980   100351741.45645
       391.967  
  24234472.300   127353017.01944      -326.926    24234473.280    99236106.19444
      -326.923  
  23955143.260   125885164.65045      -722.435    23955147.740    98092327.40343
      -722.435  
  20377902.360   107086599.68548       -86.562    20377899.440    83444086.89048
       -86.563  
  24511105.380   128806734.30546       708.789    24511110.020   100368903.15644
       708.789  
  20002678.620   105114785.42849       -37.886    20002674.520    81907606.85249
       -37.886  
  23710561.840   124599855.42545       618.723    23710560.700    97090771.77442
       618.723  
  21647653.280           0.00000      -585.563           0.000           0.00000
         0.000  
  21173495.320   113224191.33408      -517.396    21173497.260    88063276.16808
      -517.396  
  19572985.780   104702275.42308        68.431    19572989.240    81435122.44305
        68.431  
  20613691.800   110346703.30905       495.914    20613690.840           0.00000
       495.914  
  19425485.240   104022596.15708      -118.720    19425486.100    80906460.15407
      -118.720  
 20  9 26  6 20 15.0000000  0 15G20G13G30G27G24G18G29G10G15G 5R 1R24
                                R23R 7R 8
  21746558.300   114278933.60947      -500.186    21746553.580    89048506.89744
      -500.186  
  21030021.380   110513502.62946       349.913    21030019.680    86114494.27644
       349.911  
  24508891.260   128795088.16648       394.149    24508889.340   100359801.91745
       394.149  
  24232847.100   127344476.32345      -324.527    24232848.560    99229451.20044
      -324.529  
  23951537.960   125866194.41604      -720.301           0.000           0.00000
         0.000  
  20377478.200   107084370.37548       -84.335    20377475.220    83442349.80948
       -84.336  
  24514658.200   128825396.54146       710.625    24514659.800   100383445.02444
       710.627  
  24962251.520   131177504.07305      -615.439           0.000           0.00000
         0.000  
  20002497.860   105113835.42049       -35.616    20002493.780    81906866.58049
       -35.616  
  23713663.160   124616152.84847       620.547    23713660.920    97103471.07941
       620.548  
  21644734.520   115703512.59604      -583.614    21644741.560           0.00000
      -583.614  
  21170916.960   113210404.06208      -515.128    21170919.060    88052552.74407
      -515.128  
  19573337.420   104704156.20308        70.963    19573340.720    81436585.26105
        70.965  
  20616180.160   110360023.79906       498.019    20616179.620    85835580.50305
       498.018  
  19424900.300   104019463.66708      -116.524    19424901.100    80904023.76007
      -116.523  
 20  9 26  6 20 20.0000000  0 14G20G13G30G27G24G18G29G15G 5R 1R24R23
                                R 7R 8
  21744052.760   114265767.00848      -501.710    21744048.120    89038247.23646
      -501.710  
  21031767.220   110522677.49547       348.634    21031764.560    86121643.60645
       348.633  
  24510858.060   128805423.61547       392.869    24510856.100   100367855.52645
       392.868  
  24231216.620   127335922.44944      -325.743    24231227.120    99222814.39542
      -325.743  
  23947934.420   125847234.69745      -722.294    23947929.920    98062776.52643
      -722.294  
  20377052.860   107082135.34848       -85.494    20377049.860    83440608.20148
       -85.494  
  24518205.860   128844039.18146       708.861    24518208.960   100397971.77943
       708.861  
  20002316.060   105112880.18149       -36.771    20002312.000    81906122.23448
       -36.771  
  23716761.220   124632431.98607       618.838           0.000           0.00000
         0.000  
  21641814.280   115687891.22205      -585.049    21641819.000    89979486.26504
      -585.048  
  21168337.940   113196612.19608      -516.291    21168339.920    88041825.78907
      -516.293  
  19573689.360   104706039.07708        70.106    19573692.580    81438049.70105
        70.106  
  20618666.140   110373330.65506       496.647    20618667.920    85845930.25704
       496.646  
  19424313.860   104016323.22408      -117.761    19424314.700    80901581.19607
      -117.761  
 20  9 26  6 20 25.0000000  0 14G20G13G30G27G24G18G29G15G 5R 1R24R23
                                R 7R 8
  21741545.960   114252593.62448      -501.022    21741541.280    89027982.25647
      -501.022  
  21033513.840   110531852.81647       349.709    21033510.320    86128793.08845
       349.712  
  24512824.780   128815758.60147       393.811    24512822.800   100375908.77445
       393.811  
  24229594.200   127327377.67504      -324.626           0.000           0.00000
         0.000  
  23944323.080   125828263.57545      -721.850    23944325.620    98047994.05744
      -721.851  
  20376628.080   107079902.89648       -84.419    20376625.100    83438868.65048
       -84.419  
  24521751.160   128862670.50244       709.519    24521751.100   100412489.69943
       709.518  
  20002134.860   105111928.05049       -35.695    20002130.800    81905380.34449
       -35.697  
  23719857.360   124648701.25007       619.548           0.000           0.00000
         0.000  
  21638890.640   115672264.48205      -584.267    21638898.200    89967332.19003
      -584.268  
  21165759.480   113182824.05907      -515.031    21165761.520    88031101.66707
      -515.030  
  19574043.340   104707932.37708        71.487    19574046.420    81439522.33005
        71.485  
  20621151.220   110386632.49606       497.287           0.000           0.00000
         0.000  
  19423727.560   104013183.41608      -116.773    19423728.420    80899139.14407
      -116.774  
 20  9 26  6 20 30.0000000  0 13G20G13G30G27G24G18G15G 5R 1R24R23R 7
                                R 8
  21739041.820   114239434.15148      -500.746    21739036.960    89017728.13346
      -500.747  
  21035264.200   110541049.19147       350.128    21035259.920    86135959.16045
       350.126  
  24514795.340   128826113.72247       394.214    24514793.340   100383977.68845
       394.216  
  24227972.240           0.00040      -323.963    24227965.100           0.00040
      -323.963  
  23940714.700           0.00000      -721.574           0.000           0.00000
         0.000  
  20376207.700   107077693.72948       -83.840    20376204.660    83437147.22848
       -83.840  
  20001958.180   105110999.62449       -35.112    20001954.120    81904656.91049
       -35.113  
  23722955.540   124664981.30807       619.703           0.000           0.00000
         0.000  
  21635971.040   115656653.28305      -583.966    21635977.000    89955190.08204
      -583.966  
  21163185.720   113169060.78108      -514.570    21163187.720    88020396.87607
      -514.570  
  19574403.220   104709857.31908        72.397    19574406.320    81441019.50406
        72.397  
  20623639.260   110399950.33905       497.750    20623635.940           0.00000
       497.750  
  19423145.280   104010065.17808      -116.227    19423146.120    80896713.82007
      -116.226  
 20  9 26  6 20 35.0000000  0 13G20G13G30G24G18G29G15G 5R 1R24R23R 7
                                R 8
  21736537.020   114226271.42047      -500.344    21736532.040    89007471.48044
      -500.345  
  21037015.320   110550249.62847       350.850    21037010.920    86143128.32245
       350.849  
  24516766.440   128836471.79448       394.889    24516764.360   100392048.89045
       394.891  
  23937105.680   125790334.47645      -721.425    23937104.880    98018432.53344
      -721.427  
  20375788.500   107075490.54848       -83.147    20375785.380    83435430.46148
       -83.147  
  24528842.940   128899955.03946       709.571    24528843.220   100441522.06044
       709.571  
  20001782.760   105110077.73949       -34.350    20001778.680    81903938.52349
       -34.350  
  23726052.460   124681254.77407       619.825           0.000           0.00000
         0.000  
  21633050.640   115641040.46804      -583.490    21633055.620           0.00000
      -583.490  
  21160613.360   113155304.89808      -513.748    21160615.340    88009697.90107
      -513.750  
  19574765.640   104711796.23608        73.344    19574768.840    81442527.56106
        73.344  
  20626127.080   110413266.45306       497.981    20626128.040    85876980.45404
       497.981  
  19422563.780   104006951.01508      -115.642    19422564.620    80894291.72307
      -115.643  
 20  9 26  6 20 40.0000000  0 14G20G13G30G27G24G18G29G15G 5R16R24R23
                                R 7R 8
  21734032.260   114213108.44447      -501.813    21734027.220    88997214.58746
      -501.813  
  21038767.460   110559456.95548       349.731    21038763.000    86150302.79245
       349.734  
  24518738.720   128846835.73847       393.524    24518736.500   100400124.67445
       393.525  
  24224734.200           0.00000      -324.652           0.000           0.00000
         0.000  
  23933496.300   125771363.90146      -722.857    23933499.180    98003650.11544
      -722.851  
  20375371.000   107073296.39448       -84.317    20375367.780    83433720.70848
       -84.316  
  24532387.340           0.00050       707.765    24532388.500           0.00050
       707.765  
  20001609.120   105109165.28649       -35.564    20001605.020    81903227.55649
       -35.565  
  23729148.700   124697524.72947       618.074    23729147.640    97166889.64541
       618.074  
  22649376.320   120988901.40704       155.386           0.000           0.00000
         0.000  
  21158042.900   113141559.46108      -514.835    21158044.860    87999006.97907
      -514.834  
  19575131.260   104713752.22708        72.521    19575134.580    81444048.87806
        72.521  
  20628614.960   110426583.66208       496.589    20628614.820           0.00000
       496.584  
  19421983.600   104003843.88308      -116.866    19421984.380    80891875.06907
      -116.867  
 20  9 26  6 20 45.0000000  0 12G20G13G30G24G18G15G 5R16R24R23R 7R 8
  21731529.060   114199953.76147      -498.761    21731524.040    88986964.18446
      -498.761  
  21040522.640   110568679.77147       353.012    21040517.680    86157489.42945
       353.013  
  24520713.640   128857214.16847       397.013    24520711.440   100408211.73545
       397.015  
  23929887.660   125752398.06845      -719.838    23929888.140    97988871.82745
      -719.848  
  20374956.840   107071119.94048       -80.764    20374953.580    83432024.78848
       -80.765  
  20001438.960   105108270.96349       -31.958    20001434.760    81902530.67249
       -31.958  
  23732245.800   124713800.07047       621.253    23732244.060    97179571.71942
       621.253  
  22650159.480   120993087.53005       158.905    22650165.340           0.00000
       158.906  
  21155476.120   113127833.21908      -511.287    21155478.040    87988331.03608
      -511.288  
  19575501.700   104715734.08008        76.340    19575505.200    81445590.36906
        76.338  
  20631104.680   110439911.45607       499.942    20631104.600           0.00000
       499.942  
  19421406.360   104000752.50808      -113.411    19421407.040    80889470.65308
      -113.410  
 20  9 26  6 20 50.0000000  0 14G20G13G30G24G18G29G10G15G 5R16R24R23
                                R 7R 8
  21729030.040   114186821.42748      -499.860    21729025.100    88976731.21446
      -499.859  
  21042283.400   110577932.08047       352.315    21042278.600    86164699.05845
       352.316  
  24522694.100   128867621.00348       396.116    24522691.720   100416320.98545
       396.116  
  23926282.120   125733451.47346      -721.288    23926282.380    97974108.13245
      -721.286  
  20374548.640   107068975.10048       -81.546    20374545.420    83430353.49748
       -81.546  
  24539485.280   128955839.75144       709.229    24539481.080   100485094.33943
       709.228  
  24940659.360   131064053.37506      -616.764           0.000           0.00000
         0.000  
  20001274.860   105107408.77449       -32.725    20001270.640    81901858.83149
       -32.726  
  23735346.520   124730094.51107       620.052           0.000           0.00000
         0.000  
  22650950.560   120997311.80505       158.324    22650952.680    94109032.03805
       158.327  
  21152915.540   113114140.42508      -512.033    21152917.380    87977681.10107
      -512.034  
  19575879.640   104717756.08008        75.892    19575883.200    81447162.97905
        75.893  
  20633599.160   110453263.32406       498.817           0.000           0.00000
         0.000  
  19420834.780   103997691.30208      -114.293    19420835.360    80887089.72207
      -114.294  
 20  9 26  6 20 55.0000000  0 14G20G13G30G27G24G18G15G 5R16R 1R24R23
                                R 7R 8
  21726531.620   114173692.03348      -498.854    21726526.640    88966500.49945
      -498.854  
  21044045.900   110587194.39047       353.257    21044041.100    86171916.40745
       353.258  
  24524676.200   128878037.02747       397.395    24524673.880   100424437.36346
       397.396  
  24219900.740   127276430.70204      -320.277           0.000           0.00000
         0.000  
  23922676.640   125714504.13645      -720.420    23922678.900    97959367.87844
      -720.420  
  20374142.820   107066842.43848       -80.146    20374139.540    83428691.66648
       -80.146  
  20001113.220   105106559.23049       -31.335    20001108.920    81901196.85649
       -31.335  
  23738447.140   124746388.45506       620.800           0.000           0.00000
         0.000  
  22651744.280   121001554.35105       159.889    22651747.680    94112331.80604
       159.889  
  21621382.540           0.00000      -581.784           0.000           0.00000
         0.000  
  21150357.540   113100461.31208      -510.568    21150359.260    87967041.75808
      -510.567  
  19576261.400   104719798.39308        77.561    19576265.020    81448751.48306
        77.560  
  20636094.380   110466620.05706       499.888    20636093.980           0.00000
       499.889  
  19420265.120   103994640.43708      -112.989    19420265.520    80884716.84007
      -112.990  
 20  9 26  6 21  0.0000000  0 11G20G13G30G24G18G15G 5R16R24R23R 8
  21724040.420   114160600.69748      -497.656    21724035.480    88956299.49046
      -497.657  
  21045816.980   110596502.14947       355.007    21045812.120    86179169.21445
       355.008  
  24526666.780   128888497.18648       398.791    24526664.500   100432588.13245
       398.790  
  23919076.880   125695591.77545      -719.137    23919078.500    97944631.16344
      -719.140  
  20373746.080   107064757.26148       -78.573    20373742.700    83427066.86348
       -78.573  
  20000960.720   105105757.51149       -29.705    20000956.240    81900572.15349
       -29.705  
  23741554.500   124762717.41946       622.169    23741561.940    97217717.84143
       622.169  
  22652548.680   121005851.11305       161.855    22652552.200    94115673.74805
       161.854  
  21147808.740   113086831.72307      -509.031    21147810.440    87956440.97707
      -509.032  
  19576653.680   104721896.79009        79.377    19576657.360    81450383.53905
        79.378  
  19419704.060   103991635.62208      -111.453    19419704.340    80882379.74507
      -111.452  
 20  9 26  6 21  5.0000000  0 12G20G13G30G24G18G15G 5R16R24R23R 7R 8
  21721543.800   114147480.67647      -500.666    21721538.860    88946076.11246
      -500.666  
  21047584.000   110605788.18847       352.359    21047578.080    86186405.04643
       352.361  
  24528653.040   128898934.85147       396.143    24528650.640   100440721.36345
       396.143  
  23915472.320   125676647.40945      -722.222    23915473.080    97929869.21044
      -722.220  
  20373345.540   107062652.66948       -81.100    20373342.160    83425426.91348
       -81.100  
  20000804.580   105104936.86949       -32.291    20000800.000    81899932.69949
       -32.292  
  23744655.600   124779014.19906       618.876           0.000           0.00000
         0.000  
  22653349.780   121010134.23604       159.551    22653355.080    94119005.02304
       159.552  
  21145256.400   113073183.75407      -511.347    21145258.140    87945825.88007
      -511.346  
  19577043.680   104723983.25708        77.109    19577047.320    81452006.31806
        77.110  
  20641093.220   110493374.15608       498.327    20641094.660           0.00000
       498.327  
  19419138.880   103988609.05008      -114.124    19419139.020    80880025.78207
      -114.124  
 20  9 26  6 21 10.0000000  0 13G20G13G30G24G18G10G15G 5R16R24R23R 7
                                R 8
  21719044.480   114134346.91046      -499.173    21719039.680    88935842.00646
      -499.173  
  21049349.580   110615067.58546       354.016    21049343.880    86193635.85744
       354.010  
  24530637.960   128909364.79047       397.741    24530635.480   100448848.59944
       397.741  
  23911864.300   125657686.03345      -720.996    23911864.360    97915094.20244
      -720.998  
  20372944.180   107060543.58748       -79.350    20372940.780    83423783.53048
       -79.353  
  24928331.760   130999268.30704      -616.826           0.000           0.00000
         0.000  
  20000647.660   105104112.20949       -30.462    20000643.000    81899290.09949
       -30.462  
  23747753.580   124795294.00747       620.286    23747758.300    97243062.34843
       620.286  
  22654151.820   121014418.58205       161.457    22654157.860    94122337.33804
       161.456  
  21142703.540   113059532.46108      -509.631    21142705.300    87935208.18908
      -509.630  
  19577434.360   104726072.98908        79.194    19577438.060    81453631.75706
        79.191  
  20643592.980   110506731.08806       499.846    20643591.500    85949696.60905
       499.846  
  19418572.480   103985575.71508      -112.410    19418572.520    80877666.48507
      -112.409  
 20  9 26  6 21 15.0000000  0 15G20G13G30G27G24G18G10G15G 5R16R 1R24
                                R23R 7R 8
  21716548.440   114121230.35047      -499.089    21716543.740    88925621.32846
      -499.089  
  21051119.920   110624371.30447       354.292    21051114.000    86200885.40644
       354.294  
  24532627.220   128919818.08347       398.000    24532624.680   100456994.03445
       398.000  
  24213500.480           0.00000      -319.471           0.000           0.00000
         0.000  
  23908258.700   125638738.39845      -721.077    23908258.940    97900329.84645
      -721.081  
  20372547.920   107058461.06148       -79.008    20372544.440    83422160.75247
       -79.007  
  24925243.100   130983058.58804      -617.001           0.000           0.00000
         0.000  
  20000495.920   105103314.48449       -30.090    20000491.080    81898668.47948
       -30.090  
  23750854.280   124811587.77806       620.221           0.000           0.00000
         0.000  
  22654959.720   121018735.95304       162.001    22654966.880    94125695.29804
       162.002  
  21609741.560           0.00000      -581.861           0.000           0.00000
         0.000  
  21140155.980   113045909.62508      -509.261    21140157.820    87924612.68707
      -509.261  
  19577831.440   104728197.68809        79.853    19577835.320    81455284.28806
        79.852  
  20646092.640   110520106.85903       499.884    20646089.400    85960100.05605
       499.879  
  19418010.720   103982567.22408      -112.161    19418010.680    80875326.55607
      -112.161  
 20  9 26  6 21 20.0000000  0 12G20G30G24G18G29G15G 5R16R24R23R 7R 8
  21714060.220   114108155.03648      -499.154    21714055.660    88915432.75046
      -499.153  
  24534625.520   128930318.50348       398.134    24534622.880   100465176.17345
       398.132  
  23904660.280   125619828.74945      -721.234    23904660.540    97885595.14544
      -721.238  
  20372161.240   107056428.99748       -78.717    20372157.700    83420577.32948
       -78.717  
  24560780.400   129067777.83744       709.201    24560779.220   100572281.92543
       709.201  
  20000353.840   105102567.53949       -29.764    20000348.900    81898086.48949
       -29.766  
  23753961.960   124827919.39006       620.063           0.000           0.00000
         0.000  
  22655778.120   121023110.51905       162.514    22655784.700    94129097.65704
       162.515  
  21137618.320   113032339.40606      -508.564    21137619.960    87914058.05107
      -508.563  
  19578239.720   104730381.57708        80.424    19578243.620    81456982.87006
        80.424  
  20648600.020   110533526.41105       500.153    20648597.460    85970537.45605
       500.152  
  19417458.140   103979608.05708      -111.924    19417458.040    80873024.99707
      -111.924  
 20  9 26  6 21 25.0000000  0 12G20G13G30G24G18G15G 5R16R24R23R 7R 8
  21711566.800   114095052.00747      -499.473    21711562.280    88905222.59546
      -499.473  
  21054676.020   110643058.61846       354.567    21054669.800    86215349.82845
       354.567  
  24536619.720   128940797.37247       398.135    24536616.940   100473341.53645
       398.134  
  23901055.940   125600887.88643      -721.652    23901055.840    97870835.93442
      -721.650  
  20371771.000   107054378.57948       -78.666    20371767.440    83418979.60748
       -78.666  
  20000208.360   105101802.76649       -29.710    20000203.360    81897490.55648
       -29.710  
  23757063.860   124844219.87208       619.608           0.000           0.00000
         0.000  
  22656594.660   121027472.45005       162.714    22656601.580    94132490.32604
       162.714  
  21135077.360   113018751.75907      -508.900    21135079.040    87903489.89007
      -508.900  
  19578645.920   104732554.63109        80.804    19578649.880    81458673.00706
        80.804  
  20651100.920   110546918.75305       499.798    20651102.280           0.00000
       499.798  
  19416901.660   103976627.87508      -111.935    19416901.520    80870707.08507
      -111.935  
 20  9 26  6 21 30.0000000  0 11G20G13G30G27G18G15G 5R16R24R23R 8
  21709077.700   114081971.95847      -496.554    21709073.320    88895030.39446
      -496.556  
  21056457.020   110652420.28547       357.684    21056451.320    86222644.64644
       357.685  
  24538619.360   128951305.31547       401.188    24538616.520   100481529.50245
       401.189  
  24208725.360           0.00040      -315.963    24208730.120           0.00040
      -315.963  
  20371386.940   107052360.56748       -75.367    20371383.380    83417407.11347
       -75.367  
  20000069.080   105101070.72149       -26.423    20000064.040    81896920.12748
       -26.422  
  23760169.620   124860540.17507       622.347           0.000           0.00000
         0.000  
  22657418.620   121031873.17205       166.377    22657424.840    94135913.09304
       166.377  
  21132542.860   113005198.39708      -505.498    21132544.600    87892948.43607
      -505.499  
  19579059.740   104734768.44708        84.304    19579063.780    81460394.85706
        84.303  
  19416350.920   103973678.55308      -108.795    19416350.760    80868413.19808
      -108.796  
 20  9 26  6 21 35.0000000  0 13G20G13G30G24G18G29G15G 5R16R24R23R 7
                                R 8
  21706589.280   114068895.82547      -496.020    21706585.100    88884841.22646
      -496.021  
  21058240.900   110661792.44946       358.445    21058235.580    86229947.62744
       358.444  
  24540620.880   128961823.10847       402.006    24540617.840   100489725.17345
       402.008  
  23893855.220           0.00040      -718.509    23893857.000           0.00040
      -718.509  
  20371005.320   107050355.53748       -74.494    20371001.860    83415844.76148
       -74.494  
  24571430.120           0.00010       711.868           0.000           0.00000
         0.000  
  19999932.360   105100352.06649       -25.515    19999927.280    81896360.13448
       -25.515  
  23763275.540   124876860.98647       622.800    23763286.500    97306687.92243
       622.800  
  22658245.740   121036293.04005       167.394           0.000           0.00000
         0.000  
  21130011.140   112991659.86907      -504.512    21130012.900    87882418.42007
      -504.510  
  19579477.520   104737003.38708        85.488    19579481.620    81462133.15906
        85.488  
  20656113.960   110573796.19507       503.128    20656115.160           0.00000
       503.128  
  19415802.280   103970740.48808      -107.973    19415802.120    80866128.01108
      -107.973  
