     2              OBSERVATION DATA    M                   RINEX VERSION / TYPE
LEICA GEO OFFICE 7.0                    26-9-20 23:56       PGM / RUN BY / DATE
                                                            OBSERVER / AGENCY
PROS                                                        MARKER NAME
PROS                                                        MARKER NUMBER
196020              LEICA GX1230+ GNSS  7.50                REC # / TYPE / VERS
                    LEIAX1203+GNSS                          ANT # / TYPE
 -1165499.7986  3792392.2971  4978660.0963                  APPROX POSITION XYZ
        1.8030        0.0000        0.0000                  ANTENNA: DELTA H/E/N
L1PhaOff:   0.0585  L2PhaOff:   0.0555                      COMMENT
     1     1                                                WAVELENGTH FACT L1/2
     6    C1    L1    D1    P2    L2    D2                  # / TYPES OF OBSERV
  2020     9    26     8    58   50.000000                  TIME OF FIRST OBS
  2020     9    26    10    31   50.000000                  TIME OF LAST OBS
    18                                                      LEAP SECONDS
    23                                                      # OF SATELLITES
          C1    L1    D1    P2    L2    D2                  COMMENT
   G 1   542   514   542   511   498   511                  PRN / # OF OBS
   G 2     0     0     0     0     0     0                  PRN / # OF OBS
   G 3     0     0     0     0     0     0                  PRN / # OF OBS
   G 4     0     0     0     0     0     0                  PRN / # OF OBS
   G 5     0     0     0     0     0     0                  PRN / # OF OBS
   G 6     0     0     0     0     0     0                  PRN / # OF OBS
   G 7     0     0     0     0     0     0                  PRN / # OF OBS
   G 8     0     0     0     0     0     0                  PRN / # OF OBS
   G 9     0     0     0     0     0     0                  PRN / # OF OBS
   G10  1117  1117  1117  1117  1117  1117                  PRN / # OF OBS
   G11   532   467   532   393   357   393                  PRN / # OF OBS
   G12   804   717   804   730   681   730                  PRN / # OF OBS
   G13     0     0     0     0     0     0                  PRN / # OF OBS
   G14     0     0     0     0     0     0                  PRN / # OF OBS
   G15   219   182   219   201   172   201                  PRN / # OF OBS
   G16     0     0     0     0     0     0                  PRN / # OF OBS
   G17     0     0     0     0     0     0                  PRN / # OF OBS
   G18    46    41    46    41    39    41                  PRN / # OF OBS
   G19     0     0     0     0     0     0                  PRN / # OF OBS
   G20  1094  1092  1094  1093  1091  1093                  PRN / # OF OBS
   G21   960   887   960   920   869   920                  PRN / # OF OBS
   G22    31    31    31    19    19    19                  PRN / # OF OBS
   G23     0     0     0     0     0     0                  PRN / # OF OBS
   G24   980   914   980   951   910   951                  PRN / # OF OBS
   G25   597   558   597   575   547   575                  PRN / # OF OBS
   G26     0     0     0     0     0     0                  PRN / # OF OBS
   G27     0     0     0     0     0     0                  PRN / # OF OBS
   G28     0     0     0     0     0     0                  PRN / # OF OBS
   G29     0     0     0     0     0     0                  PRN / # OF OBS
   G30     0     0     0     0     0     0                  PRN / # OF OBS
   G31   351   319   351   323   305   323                  PRN / # OF OBS
   G32  1095  1081  1095  1088  1079  1088                  PRN / # OF OBS
   R 1   989   958   989   922   805   922                  PRN / # OF OBS
   R 2  1110  1092  1110  1082  1004  1082                  PRN / # OF OBS
   R 3   325   297   325   272   182   272                  PRN / # OF OBS
   R 4     0     0     0     0     0     0                  PRN / # OF OBS
   R 5     0     0     0     0     0     0                  PRN / # OF OBS
   R 6     0     0     0     0     0     0                  PRN / # OF OBS
   R 7     0     0     0     0     0     0                  PRN / # OF OBS
   R 8   380   348   380   360   266   360                  PRN / # OF OBS
   R 9     0     0     0     0     0     0                  PRN / # OF OBS
   R10   701   664   701     0     0     0                  PRN / # OF OBS
   R11  1102  1080  1102  1065  1001  1065                  PRN / # OF OBS
   R12   981   963   981   959   910   959                  PRN / # OF OBS
   R13     0     0     0     0     0     0                  PRN / # OF OBS
   R14     0     0     0     0     0     0                  PRN / # OF OBS
   R15     0     0     0     0     0     0                  PRN / # OF OBS
   R16     0     0     0     0     0     0                  PRN / # OF OBS
   R17   602   534   602   547   372   547                  PRN / # OF OBS
   R18   820   743   820   725   514   725                  PRN / # OF OBS
   R19     0     0     0     0     0     0                  PRN / # OF OBS
   R20     0     0     0     0     0     0                  PRN / # OF OBS
   R21     0     0     0     0     0     0                  PRN / # OF OBS
   R22     0     0     0     0     0     0                  PRN / # OF OBS
   R23     0     0     0     0     0     0                  PRN / # OF OBS
   R24    52    40    52    40    20    40                  PRN / # OF OBS
                                                            END OF HEADER
 20  9 26  8 58 50.0000000  0 12G20G21G24G10G32G11R10R18R11R 1R17R 8
  20483959.760   107643936.33949       336.895    20483956.940    83878374.87348
       336.895  
  23067558.900   121220864.91045      -147.200    23067555.340    94457784.48445
      -147.199  
  20818290.960   109400850.49847       242.415    20818287.720    85247395.09144
       242.415  
  20520056.800   107833627.19449      -163.963    20520054.180    84026190.60348
      -163.964  
  22414072.020   117786743.71047      -520.478    22414065.480    91781870.93944
      -520.478  
  24096290.360   126626838.94145      -255.051    24096285.120    98670234.59344
      -255.048  
  21070149.960   112315756.58205       347.854           0.000           0.00000
         0.000  
  22553341.780   120391287.46205      -362.726           0.000           0.00000
         0.000  
  20672972.320   110470095.25607      -508.632    20672974.920    85921189.86907
      -508.634  
  19521847.240   104355462.32607       191.396    19521852.420    81165384.53506
       191.396  
  21433701.120   114696069.02206       314.229    21433703.320    89208054.15206
       314.228  
  22145125.720   118586133.71607       588.866    22145124.620    92233664.96106
       588.865  
 20  9 26  8 58 55.0000000  0 14G18G20G21G24G10G32G15R10R 2R18R11R 1
                                R17R 8
  24379056.580   128112796.81344       736.566    24379045.600    99828129.54143
       736.566  
  20485647.620   107652805.84949       339.014    20485644.900    83885286.18748
       339.013  
  23066826.080   121217013.90245      -145.084    23066823.940    94454783.72744
      -145.085  
  20819506.580   109407238.74548       244.662    20819503.820    85252372.88044
       244.664  
  20519240.440   107829337.68249      -161.791    20519237.800    84022848.13948
      -161.791  
  22411471.540   117773081.62447      -518.605    22411466.380    91771225.22745
      -518.608  
  23807609.680   125109833.13515       655.325           0.000           0.00000
         0.000  
  21071892.380   112325050.06304       350.301           0.000           0.00000
         0.000  
  21131372.640   112761042.82205      -542.821    21131374.860    87703048.80906
      -542.821  
  22551532.780   120381629.00206      -360.304    22551536.740           0.00000
      -360.304  
  20670433.040   110456524.95908      -506.370    20670435.420    85910635.19107
      -506.371  
  19522807.780   104360596.31607       193.529    19522812.420    81169377.64006
       193.529  
  21435276.160   114704497.65006       316.647    21435278.820    89214609.78705
       316.645  
  22148072.780   118601914.24207       590.771    22148071.720    92245938.75506
       590.770  
 20  9 26  8 59  0.0000000  0 12G20G21G24G10G32R10R 2R18R11R 1R17R 8
  20487342.740   107661713.70448       338.268    20487340.000    83892227.36748
       338.268  
  23066101.100           0.00040      -145.839    23066096.200           0.00040
      -145.839  
  20820729.980   109413667.80047       244.019    20820726.900    85257382.59744
       244.018  
  20518431.180   107825086.00449      -162.543    20518428.600    84019535.13648
      -162.543  
  22408877.580   117759449.95947      -519.639    22408873.920    91760603.23144
      -519.641  
  21073644.060   112334389.44704       349.902           0.000           0.00000
         0.000  
  21128653.720           0.00010      -543.732    21128659.000           0.00010
      -543.728  
  22549732.060   120372016.11806      -360.737    22549735.380    93622684.48204
      -360.734  
  20667901.740   110442997.94408      -506.933    20667903.480    85900114.15407
      -506.933  
  19523775.140   104365767.99207       192.733    19523779.440    81173400.05905
       192.733  
  21436859.920   114712972.82207       316.173    21436862.300    89221201.46006
       316.178  
  22151025.620   118617725.64507       589.651    22151025.460    92258236.52606
       589.649  
 20  9 26  8 59  5.0000000  0 14G18G20G24G10G32G15G11R10R 2R18R11R 1
                                R17R 8
  24386413.860           0.00010       735.190           0.000           0.00000
         0.000  
  20489032.900   107670595.51549       338.638    20489030.040    83899148.26548
       338.637  
  20821948.920   109420073.39148       244.439    20821946.080    85262373.92844
       244.440  
  20517616.940   107820807.98549      -162.230    20517614.440    84016201.61748
      -162.230  
  22406277.700   117745784.79147      -519.561    22406273.760    91749955.01343
      -519.561  
  23814157.320           0.00040       654.345    23814157.440           0.00040
       654.345  
  24092489.940   126606896.34744      -252.787    24092477.620    98654689.60444
      -252.787  
  21075392.680   112343709.62406       350.402           0.000           0.00000
         0.000  
  21125933.220           0.00000      -543.829           0.000           0.00000
         0.000  
  22547927.840   120362383.52906      -360.206    22547932.480    93615192.53105
      -360.208  
  20665366.100   110429448.54407      -506.445    20665367.900    85889575.76308
      -506.446  
  19524737.300   104370911.68707       193.030    19524741.220    81177400.72905
       193.029  
  21438439.900   114721428.82107       316.821    21438441.960           0.00010
       316.817  
  22153972.000   118633502.81707       589.666    22153971.880    92270507.62206
       589.669  
 20  9 26  8 59 10.0000000  0 13G18G20G21G24G10G32R10R18R11R 1R24R17
                                R 8
  24390088.620   128170803.94745       736.568    24390087.860    99873348.30944
       736.568  
  20490730.620   107679516.75849       340.556    20490727.600    83906099.88348
       340.556  
  23064647.780   121205531.77045      -143.524    23064641.040    94445864.60044
      -143.524  
  20823175.820   109426520.91548       246.470    20823173.360    85267398.00344
       246.470  
  20516810.140   107816568.96649      -160.300    20516807.760    84012898.48148
      -160.300  
  22403683.980   117732151.03847      -518.115    22403680.200    91739331.35744
      -518.117  
  21077150.100   112353076.88607       352.569           0.000           0.00000
         0.000  
  22546132.520   120352797.78707      -358.010           0.000           0.00000
         0.000  
  20662838.920   110415943.45908      -504.348    20662840.320    85879071.86207
      -504.351  
  19525706.860   104376094.24907       194.934    19525710.800    81181431.61106
       194.934  
  23240824.460   124279150.84004       784.928    23240830.860    96661572.49104
       784.928  
  21440029.080   114729932.54406       318.938    21440029.720           0.00000
       318.938  
  22156924.500   118649312.12306       591.379    22156923.780    92282803.71406
       591.382  
 20  9 26  8 59 15.0000000  0 11G20G24G10G32R10R 2R18R11R 1R17R 8
  20492428.160   107688436.80549       338.912    20492424.940    83913050.58748
       338.911  
  20824402.960   109432969.80548       244.899    20824400.820    85272423.10444
       244.899  
  20516003.040   107812328.36849      -161.974    20516000.600    84009594.12348
      -161.974  
  22401088.080   117718508.72248      -519.934    22401085.080    91728701.02745
      -519.935  
  21078908.900   112362450.18705       351.313           0.000           0.00000
         0.000  
  21120499.540   112703031.73016      -544.207    21120505.880    87657940.45817
      -544.207  
  22544337.940   120343217.60505      -359.412    22544343.760           0.00000
      -359.412  
  20660311.860   110402441.55106      -505.809    20660313.440    85868570.38308
      -505.809  
  19526675.920   104381274.19207       193.210    19526679.560    81185460.46905
       193.209  
  21441619.140   114738442.21006       317.607    21441618.980    89241011.02406
       317.606  
  22159875.340   118665112.25907       589.382    22159873.920    92295092.69807
       589.382  
 20  9 26  8 59 20.0000000  0 13G18G20G24G10G32R10R 2R18R11R 1R24R17
                                R 8
  24397446.020   128209434.10646       736.322    24397437.220    99903451.30144
       736.323  
  20494129.580   107697377.19749       341.132    20494126.000    83920017.12048
       341.132  
  20825634.300   109439441.45847       247.235    20825632.340    85277465.95245
       247.233  
  20515199.660   107808107.72849      -159.729    20515197.280    84006305.32348
      -159.729  
  22398494.720   117704878.86046      -518.086    22398490.980    91718080.24344
      -518.083  
  21080672.660   112371851.19105       353.801           0.000           0.00000
         0.000  
  21117784.920   112688544.22606      -542.254    21117789.300    87646672.44706
      -542.254  
  22542548.420   120333664.85206      -356.899    22542548.620           0.00000
      -356.897  
  20657789.580   110388964.37107      -503.417    20657791.820    85858088.10908
      -503.417  
  19527648.560   104386473.43307       195.389    19527652.360    81189504.32506
       195.389  
  23248662.120           0.00010       784.862           0.000           0.00000
         0.000  
  21443214.600   114746980.16307       320.195    21443214.180    89247651.61006
       320.196  
  22162828.380   118680925.07407       591.322    22162827.540    92307391.61807
       591.320  
 20  9 26  8 59 25.0000000  0 13G18G20G24G10G32G15R10R18R11R 1R24R17
                                R 8
  24401126.520   128228779.27446       736.262    24401122.380    99918525.49045
       736.261  
  20495836.280   107706345.72148       341.562    20495832.580    83927005.59348
       341.561  
  20826871.480   109445943.92647       247.733    20826868.660    85282532.83744
       247.735  
  20514401.640   107803914.98249      -159.342    20514399.340    84003038.25348
      -159.342  
  22395905.580   117691269.38247      -517.906    22395901.740    91707475.64344
      -517.911  
  23827253.220   125213042.61046       655.399    23827250.840    97568608.02644
       655.399  
  21082443.200   112381287.92404       354.397           0.000           0.00000
         0.000  
  22540765.600   120324147.36007      -356.162    22540769.360    93585453.37504
      -356.166  
  20655273.640   110375520.32707      -502.886    20655276.100    85847631.61608
      -502.884  
  19528626.240   104391699.85107       195.752    19528630.140    81193569.32006
       195.751  
  23252593.760           0.00000       784.890    23252592.040           0.00000
       784.890  
  21444816.760   114755554.19306       320.911    21444818.920    89254320.31307
       320.909  
  22165785.280   118696758.68605       591.563    22165784.400    92319706.59606
       591.565  
 20  9 26  8 59 30.0000000  0 15G18G20G21G24G10G32G15R10R 2R18R11R 1
                                R24R17R 8
  24404806.980   128248120.70346       736.267    24404802.920    99933596.67244
       736.266  
  20497544.620   107715322.94049       342.089    20497540.580    83934000.83148
       342.089  
  23061778.540           0.00040      -142.127    23061773.900           0.00040
      -142.127  
  20828110.960   109452457.57448       248.423    20828107.460    85287608.41144
       248.423  
  20513605.300   107799730.30549      -158.854    20513602.880    83999777.48448
      -158.854  
  22393315.960   117677661.12346      -517.808    22393312.100    91696871.78144
      -517.808  
  23830526.620           0.00010       655.554           0.000           0.00000
         0.000  
  21084216.360   112390740.36305       355.268           0.000           0.00000
         0.000  
  21112362.260           0.00000      -542.011    21112367.640           0.00000
      -542.011  
  22538985.360   120314645.48706      -355.391           0.000           0.00000
         0.000  
  20652760.060   110362089.27907      -502.261    20652762.700    85837185.27008
      -502.262  
  19529605.360   104396933.85407       196.249    19529609.400    81197640.22806
       196.250  
  23256514.760   124363031.93404       785.142    23256514.460    96726818.24104
       785.146  
  21446422.060   114764144.44607       321.644    21446424.020    89261001.60807
       321.645  
  22168742.300   118712593.12607       591.625    22168740.860    92332022.27207
       591.624  
 20  9 26  8 59 35.0000000  0 13G18G20G21G24G10G32R10R18R11R 1R24R17
                                R 8
  24408488.080   128267463.42747       736.312    24408484.160    99948668.94942
       736.310  
  20499255.540   107724313.63349       342.547    20499251.280    83941006.56848
       342.547  
  23061069.460   121186742.65146      -141.540    23061058.760    94431221.22444
      -141.533  
  20829353.380   109458987.12347       248.921    20829350.200    85292696.34145
       248.921  
  20512811.440   107795558.91949      -158.396    20512809.020    83996527.06548
      -158.397  
  22390727.360   117664058.54847      -517.503    22390723.300    91686272.39045
      -517.503  
  21085993.720   112400213.68706       356.019           0.000           0.00000
         0.000  
  22537209.220   120305164.36606      -354.729    22537214.100           0.00000
      -354.728  
  20650249.780   110348676.31707      -501.557    20650252.720    85826753.00108
      -501.557  
  19530586.720   104402180.12807       196.649    19530590.920    81201720.67106
       196.648  
  23260438.460   124384022.77504       785.091    23260442.060           0.00000
       785.091  
  21448031.320   114772755.71006       322.383    21448033.760    89267699.22906
       322.385  
  22171700.420   118728433.36107       591.814    22171698.820    92344342.47706
       591.814  
 20  9 26  8 59 40.0000000  0 15G18G20G21G24G10G32G15R10R 2R18R11R 1
                                R24R17R 8
  24412168.840   128286803.84444       735.054    24412165.440    99963739.45543
       735.050  
  20500968.320   107733314.25949       341.741    20500963.920    83948020.05448
       341.741  
  23060361.860   121183022.94546      -142.150    23060356.000    94428322.89744
      -142.155  
  20830598.280   109465529.01747       248.242    20830595.140    85297793.94544
       248.241  
  20512019.440   107791397.13649      -159.190    20512016.980    83993284.12348
      -159.191  
  22388139.800   117650458.14146      -518.625    22388135.300    91675674.75444
      -518.628  
  23837082.520           0.00040       654.205    23837083.860           0.00040
       654.205  
  21087774.320   112409704.31405       355.486           0.000           0.00000
         0.000  
  21106944.840           0.00000      -542.688    21106948.900           0.00000
      -542.690  
  22535436.160   120295699.95507      -355.289    22535441.060    93563340.59303
      -355.287  
  20647742.180   110335277.74008      -502.147    20647745.560    85816331.89207
      -502.148  
  19531569.840   104407435.18106       195.801    19531574.200    81205807.94006
       195.801  
  23264363.180   124405014.71403       784.279    23264369.560    96759465.55904
       784.277  
  21449643.960   114781384.59507       321.918    21449647.020    89274410.66307
       321.915  
  22174658.780   118744275.66406       590.662    22174657.140    92356664.33106
       590.660  
 20  9 26  8 59 45.0000000  0 14G18G20G21G24G10G32G15R10R 2R18R11R 1
                                R17R 8
  24415831.180   128306052.21446       733.426    24415828.120    99978738.07444
       733.428  
  20502665.860   107742234.96049       340.534    20502661.300    83954971.24448
       340.535  
  23059637.920   121179223.59646      -143.563    23059634.200    94425362.30044
      -143.560  
  20831828.440   109471993.68647       247.106    20831824.800    85302831.34544
       247.106  
  20511212.220   107787155.14549      -160.391    20511209.680    83989978.67848
      -160.392  
  22385535.280   117636770.47947      -519.878    22385530.100    91665009.15644
      -519.884  
  23840341.820           0.00040       652.592    23840339.040           0.00040
       652.592  
  21089541.180   112419120.94506       354.504           0.000           0.00000
         0.000  
  21104217.880   112616156.48906      -544.397    21104223.480    87590358.88207
      -544.395  
  22533649.240   120286161.39106      -356.194           0.000           0.00000
         0.000  
  20645220.220   110321802.44407      -503.287    20645223.820    85805851.07508
      -503.288  
  19532537.460   104412607.65907       194.584    19532541.860    81209830.98705
       194.583  
  21451242.620   114789939.42507       320.872    21451245.700    89281064.36606
       320.873  
  22177600.460   118760028.67207       589.203    22177598.940    92368916.59506
       589.205  
 20  9 26  8 59 50.0000000  0 15G18G20G21G24G10G32G15R10R 2R18R11R 1
                                R24R17R 8
  24419504.980   128325360.15545       736.086    24419502.140    99993783.18643
       736.086  
  20504377.120   107751227.69749       343.663    20504372.280    83961978.55547
       343.663  
  23058929.320   121175496.19746      -140.235    23058926.000    94422457.88045
      -140.238  
  20833072.840   109478532.84947       250.344    20833069.100    85307926.87745
       250.341  
  20510418.620   107782984.87049      -157.222    20510416.080    83986729.12948
      -157.221  
  22382939.640   117623152.19146      -517.252    22382932.940    91654368.38745
      -517.252  
  23843613.480   125299028.85847       655.493    23843610.660    97635597.04444
       655.494  
  21091322.760   112428617.64906       357.916           0.000           0.00000
         0.000  
  21101504.820   112601675.38307      -541.461    21101508.240    87579095.78307
      -541.460  
  22531877.200   120276702.91406      -352.771    22531884.580           0.00000
      -352.771  
  20642712.860   110308404.53708      -499.945    20642716.660    85795430.48508
      -499.945  
  19533518.600   104417851.88607       197.589    19533523.100    81213909.87506
       197.588  
  23272193.540   124446881.92705       785.319    23272199.160    96792038.41104
       785.319  
  21452856.420   114798574.93306       324.412    21452858.760    89287780.84707
       324.413  
  22180554.220   118775847.26107       592.134    22180553.060    92381219.99306
       592.133  
 20  9 26  8 59 55.0000000  0 15G18G20G21G24G10G32G15R10R 2R18R11R 1
                                R24R17R 8
  24423188.700   128344707.76345       736.558    24423184.360   100008872.85244
       736.558  
  20506098.640   107760274.25649       344.655    20506093.720    83969027.84947
       344.655  
  23058227.680   121171812.73505      -139.383           0.000           0.00000
         0.000  
  20834328.040   109485128.44748       251.457    20834324.100    85313066.20644
       251.458  
  20509635.220   107778868.16149      -156.342    20509632.700    83983521.29948
      -156.342  
  22380357.060   117609575.09747      -516.534    22380350.680    91643788.94444
      -516.534  
  23846890.660   125316260.46445       655.854    23846888.560    97649024.08945
       655.860  
  21093115.900   112438176.03006       359.137           0.000           0.00000
         0.000  
  21098799.660   112587241.02206      -540.714    21098803.760    87567869.08607
      -540.714  
  22530116.820   120267305.81406      -351.627    22530116.140           0.00000
      -351.627  
  20640216.620   110295066.13007      -498.828    20640220.460    85785056.13708
      -498.826  
  19534509.700   104423149.72607       198.526    19534514.340    81218030.39206
       198.526  
  23276121.060   124467874.46604       786.102    23276131.360           0.00000
       786.102  
  21454481.820   114807272.70206       325.433    21454484.340    89294545.77607
       325.433  
  22183516.880   118791712.75207       592.704    22183515.840    92393559.85006
       592.702  
 20  9 26  9  0  0.0000000  0 15G18G20G21G24G10G32G11R10R 2R18R11R 1
                                R24R17R 8
  24426872.800   128364060.39846       736.479    24426868.720   100023952.81542
       736.478  
  20507823.080   107769336.12449       345.027    20507817.980    83976089.07548
       345.026  
  23057533.320   121168154.57907      -139.037           0.000           0.00000
         0.000  
  20835586.360   109491741.76247       251.965    20835582.400    85318219.49844
       251.964  
  20508854.660   107774766.49649      -155.966    20508852.280    83980325.20848
      -155.966  
  22377775.140   117596005.40806      -516.264           0.000           0.00000
         0.000  
  24078778.000           0.00040      -245.227    24078770.200           0.00040
      -245.228  
  21094913.180   112447757.02704       359.753           0.000           0.00000
         0.000  
  21096096.540   112572814.57806      -540.636    21096100.780    87556648.50407
      -540.636  
  22528360.600   120257931.28906      -350.895    22528362.620           0.00010
      -350.895  
  20637724.160   110281747.42007      -498.246    20637728.160    85774697.17608
      -498.248  
  19535503.520   104428461.82207       198.880    19535508.140    81222162.05406
       198.878  
  23280054.500   124488894.19306       786.264    23280059.200           0.00000
       786.264  
  21456111.460   114815993.46707       326.131    21456114.180    89301328.65407
       326.130  
  22186480.940   118807585.74506       592.762    22186479.800    92405905.45105
       592.764  
 20  9 26  9  0  5.0000000  0 15G18G20G21G24G10G32G11R10R 2R18R11R 1
                                R24R17R 8
  24430555.660   128383411.22846       736.301    24430550.860   100039031.35543
       736.302  
  20509549.520   107778408.39349       345.420    20509544.400    83983158.32747
       345.420  
  23056840.560   121164507.02245      -138.599    23056836.340    94413880.62044
      -138.599  
  20836847.300   109498368.07048       252.330    20836843.400    85323382.86544
       252.330  
  20508076.100   107770675.02349      -155.568    20508073.820    83977137.06548
      -155.569  
  22375194.060   117582438.81947      -516.388    22375187.560    91622664.87445
      -516.387  
  24077556.000   126528393.06445      -244.800    24077551.680    98593515.73941
      -244.799  
  21096713.840   112457355.67805       360.429           0.000           0.00000
         0.000  
  21093393.640   112558389.03205      -540.663    21093397.720    87545431.08407
      -540.658  
  22526607.720   120248574.35505      -350.306    22526617.680           0.00000
      -350.306  
  20635234.500   110268443.95007      -497.734    20635238.680    85764350.08308
      -497.734  
  19536499.000   104433783.15607       199.170    19536503.620    81226300.85806
       199.171  
  23283986.400   124509915.76506       786.187    23283992.620    96841082.25605
       786.189  
  21457744.500   114824732.02607       326.840    21457747.200    89308125.26007
       326.841  
  22189445.520   118823461.64807       592.926    22189444.300    92418253.42605
       592.926  
 20  9 26  9  0 10.0000000  0 16G18G20G21G24G10G32G15G11R10R 2R18R11
                                R 1R24R17R 8
  24434237.980   128402758.85846       736.201    24434233.300   100054107.35844
       736.203  
  20511277.680   107787489.68649       345.769    20511272.500    83990234.70348
       345.768  
  23056148.500   121160868.66746      -138.236    23056141.420    94411055.60942
      -138.235  
  20838110.500   109505006.03447       252.828    20838106.640    85328555.25544
       252.831  
  20507299.200   107766592.26549      -155.263    20507297.020    83973955.69848
      -155.263  
  22372612.480   117568873.63146      -516.140    22372605.900    91612094.47344
      -516.137  
  23856727.480   125367982.41244       655.686    23856729.060    97689294.92944
       655.686  
  24076333.700   126521967.85345      -244.321    24076327.440    98588508.98141
      -244.322  
  21098517.640   112466970.52805       361.107           0.000           0.00000
         0.000  
  21090691.060   112543966.68006      -540.618    21090695.060           0.00000
      -540.619  
  22524857.580   120239233.34205      -349.774           0.000           0.00000
         0.000  
  20632747.440   110255154.08807      -497.259    20632751.720    85754013.43608
      -497.257  
  19537495.900   104439112.29607       199.500    19537500.740    81230445.72306
       199.501  
  23287916.640   124530937.58904       786.088    23287922.220    96857432.50705
       786.090  
  21459380.560   114833487.32007       327.472    21459383.540    89314934.97307
       327.473  
  22192410.440   118839338.68507       592.987    22192409.280    92430602.21505
       592.988  
 20  9 26  9  0 15.0000000  0 13G18G20G21G24G10G32G11R10R18R11R 1R17
                                R 8
  24437928.260   128422154.66045       736.723    24437924.360   100069221.12845
       736.716  
  20513017.340   107796631.63249       346.658    20513012.220    83997358.29248
       346.658  
  23055467.740   121157290.96706      -137.452           0.000           0.00000
         0.000  
  20839385.600   109511706.95847       253.827    20839381.840    85333776.81045
       253.827  
  20506533.800   107762569.92949      -154.364    20506531.700    83970821.42948
      -154.365  
  22370042.340   117555361.29346      -515.703    22370031.900    91601565.76744
      -515.717  
  24075122.380   126515606.10244      -243.247    24075115.680    98583551.81343
      -243.249  
  21100334.300   112476653.96205       362.305           0.000           0.00000
         0.000  
  22523120.320   120229939.24005      -348.340           0.000           0.00000
         0.000  
  20630272.700   110241930.31708      -496.102    20630277.200    85743728.37208
      -496.103  
  19538504.140   104444501.81807       200.337    19538508.920    81234637.60606
       200.337  
  21461029.660   114842311.49507       328.695    21461032.620    89321798.17907
       328.695  
  22195385.400   118855269.66407       593.656    22195383.840    92442992.95406
       593.657  
 20  9 26  9  0 20.0000000  0 14G18G20G21G24G10G32R10R 2R18R11R 1R24
                                R17R 8
  24441603.340   128441470.19546       734.986    24441600.600   100084272.15144
       734.987  
  20514744.040   107805705.61749       345.548    20514738.900    84004428.91948
       345.549  
  23054774.220   121153645.40546      -138.466    23054769.320    94405431.05143
      -138.467  
  20840648.200   109518342.36347       252.829    20840644.660    85338947.21445
       252.829  
  20505755.360   107758479.37849      -155.483    20505753.300    83967633.97848
      -155.483  
  22367457.520   117541773.49446      -517.088    22367445.680    91590977.81343
      -517.091  
  21102139.400   112486275.52105       361.274           0.000           0.00000
         0.000  
  21085291.520   112515153.03307      -541.257    21085296.160           0.00000
      -541.257  
  22521371.460   120220604.67004      -349.486    22521375.660           0.00000
      -349.486  
  20627786.080   110228642.05008      -496.953    20627790.480    85733393.03207
      -496.954  
  19539499.200   104449820.90107       199.176    19539503.960    81238774.65906
       199.175  
  23295787.300   124573033.05306       785.393    23295789.220    96890152.72103
       785.393  
  21462667.160   114851073.79907       327.839    21462670.000    89328613.32507
       327.839  
  22198345.860   118871123.20806       591.907    22198344.460    92455323.43606
       591.908  
 20  9 26  9  0 25.0000000  0 14G20G21G24G10G32G11R10R 2R18R11R 1R24
                                R17R 8
  20516476.060   107814807.31549       347.135    20516470.820    84011521.15148
       347.135  
  23054086.020   121150027.53447      -136.977    23054078.000    94402611.96443
      -136.979  
  20841916.540   109525007.96046       254.502    20841912.980    85344141.25145
       254.498  
  20504982.120   107754416.27949      -153.886    20504980.180    83964467.94148
      -153.887  
  22364875.720   117528205.89445      -515.816    22364863.500    91580405.68244
      -515.816  
  24072681.120   126502792.05345      -242.735    24072682.900    98573612.05154
      -242.735  
  21103950.960   112495932.89104       362.981           0.000           0.00000
         0.000  
  21082588.720   112500728.41606      -540.020    21082592.900    87500585.01906
      -540.019  
  22519629.400   120211305.41404      -347.387    22519638.420    93497721.37302
      -347.384  
  20625305.440   110215386.38708      -495.294    20625309.880    85723083.06608
      -495.294  
  19540499.320   104455166.91007       200.737    19540504.020    81242932.69506
       200.736  
  23299716.780   124594049.00807       786.638    23299723.380    96906498.48504
       786.639  
  21464311.300   114859871.65907       329.721    21464313.800    89335456.04106
       329.724  
  22201310.120   118886997.30407       593.495    22201308.960    92467670.02406
       593.494  
 20  9 26  9  0 30.0000000  0 15G18G20G21G24G10G32G11R10R 2R18R11R 1
                                R24R17R 8
  24448964.120           0.00040       736.147    24448957.960           0.00040
       736.147  
  20518213.360   107823936.81449       347.576    20518208.100    84018635.06448
       347.575  
  23053403.880           0.00040      -136.488    23053398.320           0.00040
      -136.488  
  20843190.700   109531703.84747       254.998    20843187.520    85349358.71745
       255.001  
  20504214.140   107750380.82749      -153.473    20504212.380    83961323.44548
      -153.474  
  22362297.100   117514658.58647      -515.674    22362285.580    91569849.16043
      -515.669  
  24071470.960   126496426.62645      -242.133    24071465.460    98568651.76145
      -242.137  
  21105769.300   112505624.69305       363.945           0.000           0.00000
         0.000  
  21079889.400   112486324.15406      -539.853    21079892.720           0.00000
      -539.852  
  22517894.280   120202041.30104      -346.943           0.000           0.00000
         0.000  
  20622830.980   110202163.55408      -494.661    20622835.360    85712798.64508
      -494.661  
  19541504.460   104460539.79907       201.138    19541509.160    81247111.59606
       201.139  
  23303650.900   124615084.62505       786.722           0.000           0.00000
         0.000  
  21465962.120   114868705.20207       330.418    21465964.640    89342326.66707
       330.415  
  22204278.240   118902891.52407       593.609    22204277.040    92480032.22805
       593.607  
 20  9 26  9  0 35.0000000  0 15G18G20G21G24G10G15G11R10R 2R18R11R 1
                                R24R17R 8
  24452646.960   128499536.72346       736.467    24452640.080   100129483.03344
       736.464  
  20519953.120   107833079.29149       348.308    20519947.860    84025759.06348
       348.308  
  23052721.040   121142862.11147      -135.866    23052713.400    94397056.67644
      -135.864  
  20844467.660   109538415.08246       255.864    20844465.120    85354588.34145
       255.863  
  20503448.660   107746358.15049      -152.746    20503446.980    83958188.87548
      -152.745  
  23873135.560           0.00040       656.184    23873130.740           0.00050
       656.184  
  24070263.980   126490076.96945      -241.248    24070255.900    98563704.06744
      -241.253  
  21107591.360   112515336.64005       364.859           0.000           0.00000
         0.000  
  21077191.380   112471925.50006      -539.479    21077193.880    87478178.77106
      -539.479  
  22516161.620   120192797.48605      -345.883           0.000           0.00000
         0.000  
  20620359.880   110188958.60908      -493.799    20620364.300    85702528.15908
      -493.798  
  19542511.820   104465924.60107       201.754    19542516.560    81251299.80606
       201.753  
  23307586.080   124636124.54407       787.110    23307588.380    96939223.83504
       787.110  
  21467616.760   114877559.17707       331.404    21467619.080    89349213.05607
       331.405  
  22207247.180   118918791.33207       594.047    22207246.100    92492398.70205
       594.049  
 20  9 26  9  0 40.0000000  0 16G18G20G21G24G10G32G15G11R10R 2R18R11
                                R 1R24R17R 8
  24456327.840   128518889.83746       736.437    24456323.340   100144563.43444
       736.436  
  20521696.360   107842240.10349       348.725    20521691.100    84032897.37448
       348.724  
  23052043.380   121139303.91945      -135.049    23052035.600    94394284.03244
      -135.047  
  20845748.700   109545147.25647       256.399    20845746.200    85359834.14345
       256.400  
  20502686.580   107742353.58449      -152.315    20502685.020    83955068.42448
      -152.314  
  22357145.120           0.00000      -515.075           0.000           0.00000
         0.000  
  23876413.720   125471409.24046       656.223    23876409.980    97769916.49645
       656.222  
  24069059.720   126483748.53244      -240.690    24069050.640    98558772.79944
      -240.691  
  21109418.120   112525074.17106       365.701           0.000           0.00000
         0.000  
  21074495.300   112457537.87907      -539.404    21074497.400    87466988.36107
      -539.403  
  22514435.480   120183579.40105      -344.973           0.000           0.00000
         0.000  
  20617893.200   110175776.83608      -493.195    20617897.500    85692275.63808
      -493.194  
  19543522.480   104471326.81807       202.239    19543527.220    81255501.49906
       202.240  
  23311522.420   124657174.29706       787.228    23311522.900    96955595.94303
       787.224  
  21469276.260   114886439.01808       332.051    21469278.360    89356119.54206
       332.052  
  22210218.140   118934701.62207       594.291    22210217.020    92504773.33905
       594.293  
 20  9 26  9  0 45.0000000  0 16G18G20G21G24G10G32G15G11R10R 2R18R11
                                R 1R24R17R 8
  24460009.440   128538243.47045       736.795    24460006.860   100159644.06244
       736.798  
  20523442.080   107851413.70049       349.569    20523436.760    84040045.61248
       349.569  
  23051369.840   121135757.64246      -134.489    23051368.240    94391537.60944
      -134.489  
  20847032.520   109551894.51447       257.298    20847030.140    85365091.76745
       257.297  
  20501926.920   107738361.63949      -151.511    20501925.420    83951957.85048
      -151.513  
  22354570.480   117474060.45845      -514.472    22354559.860    91538178.62143
      -514.473  
  23879695.520   125488656.51444       656.435    23879690.680    97783355.94043
       656.438  
  24067858.660   126477435.81645      -239.729    24067850.680    98553853.72744
      -239.728  
  21111248.560           0.00000       366.672           0.000           0.00000
         0.000  
  21071800.420           0.00000      -538.768    21071801.560           0.00010
      -538.768  
  22512712.680   120174381.37104      -343.885    22512715.860           0.00000
      -343.885  
  20615429.800   110162612.61808      -492.206    20615434.040    85682036.82608
      -492.206  
  19544535.260   104476740.66507       202.977    19544540.000    81259712.28606
       202.977  
  23315459.320   124678228.05905       787.708    23315456.140           0.00000
       787.713  
  21470939.560   114895339.28707       333.194    21470941.300    89363041.98607
       333.193  
  22213190.120   118950617.11207       594.671    22213189.040    92517152.06605
       594.670  
 20  9 26  9  0 50.0000000  0 16G18G20G21G24G10G32G15G11R10R 2R18R11
                                R 1R24R17R 8
  24463692.400   128557599.22246       736.545    24463688.380   100174726.46244
       736.547  
  20525190.580   107860601.98349       349.849    20525185.260    84047205.33748
       349.848  
  23050698.260   121132227.13647      -134.210    23050688.440    94388786.43443
      -134.209  
  20848319.660   109558658.98247       257.641    20848317.560    85370362.81845
       257.640  
  20501170.060   107734384.13449      -151.201    20501168.640    83948858.51448
      -151.202  
  22351996.340   117460541.54044      -514.011    22351989.120    91527644.69042
      -514.021  
  23882975.780   125505906.89344       656.366    23882973.740    97796797.75944
       656.369  
  24066660.840   126471140.65645      -239.307    24066654.200    98548948.46944
      -239.308  
  21113083.240   112544613.02304       367.293           0.000           0.00000
         0.000  
  21069105.080   112428788.46605      -538.854    21069105.260    87444621.55805
      -538.854  
  22510993.200   120165205.09404      -343.636           0.000           0.00000
         0.000  
  20612969.940   110149468.01608      -491.733    20612974.300    85671813.25108
      -491.734  
  19545550.660   104482168.18007       203.237    19545555.320    81263933.72206
       203.236  
  23319397.100   124699287.93206       787.729    23319398.960           0.00000
       787.725  
  21472607.000   114904261.68107       333.781    21472608.760    89369981.65306
       333.780  
  22216163.400   118966539.62007       594.694    22216162.280    92529536.21704
       594.695  
 20  9 26  9  0 55.0000000  0 14G18G20G21G24G10G15G11R10R 2R11R 1R24
                                R17R 8
  24467373.300   128576941.55746       735.932    24467368.080   100189798.39343
       735.932  
  20526938.840   107869789.13549       349.673    20526933.560    84054364.16948
       349.672  
  23050024.060   121128695.80845      -134.301    23050020.220    94386034.89144
      -134.307  
  20849607.080   109565424.90846       257.544    20849604.900    85375634.93445
       257.545  
  20500412.960   107730405.41849      -151.390    20500411.500    83945758.17548
      -151.389  
  23886255.620   125523145.35146       655.876    23886254.320    97810230.37344
       655.874  
  24065463.400   126464847.22345      -239.405    24065455.440    98544015.30444
      -239.396  
  21114919.160   112554398.13505       367.158           0.000           0.00000
         0.000  
  21066409.460   112414404.53206      -539.238    21066411.260    87433434.04605
      -539.238  
  20610510.840   110136326.89308      -491.738    20610515.280    85661592.38008
      -491.739  
  19546565.640   104487593.31207       202.950    19546570.260    81268153.26406
       202.950  
  23323333.680   124720337.72805       787.154    23323337.540    97004711.94204
       787.156  
  21474275.580   114913190.15808       333.810    21474276.980    89376926.00806
       333.811  
  22219134.900   118982452.91206       594.222    22219133.680    92541913.26806
       594.222  
 20  9 26  9  1  0.0000000  0 14G18G20G21G24G10G15G11R10R 2R11R 1R24
                                R17R 8
  24471057.100   128596298.16546       737.301    24471051.240   100204881.44144
       737.304  
  20528692.160   107879002.94949       351.500    20528686.920    84061543.76048
       351.500  
  23049358.660   121125191.24347      -132.474    23049354.540    94383304.11044
      -132.477  
  20850900.100   109572219.68247       259.447    20850897.520    85380929.54744
       259.447  
  20499660.880   107726453.19549      -149.553    20499659.440    83942678.53548
      -149.553  
  23889539.560   125540399.19646       657.384    23889537.860    97823674.92545
       657.384  
  24064274.780           0.00010      -237.444           0.000           0.00000
         0.000  
  21116761.040   112564217.26305       369.364           0.000           0.00000
         0.000  
  21063717.480   112400040.19006      -537.566    21063721.300    87422261.87906
      -537.570  
  20608057.700   110123217.54609      -489.745    20608062.200    85651396.25408
      -489.747  
  19547585.380   104493044.15807       204.755    19547589.980    81272392.79107
       204.755  
  23327272.400   124741405.59305       788.743    23327278.000           0.00000
       788.743  
  21475950.620   114922153.02607       335.952    21475951.860    89383897.18705
       335.950  
  22222110.120   118998385.65307       595.755    22222108.940    92554305.42105
       595.754  
 20  9 26  9  1  5.0000000  0 15G18G20G21G24G10G32G15R10R 2R18R11R 1
                                R24R17R 8
  24474738.740   128615649.33645       736.628    24474734.100   100219960.22142
       736.632  
  20530446.800   107888223.60248       351.384    20530441.540    84068728.69947
       351.384  
  23048693.760   121121693.75945      -132.398    23048688.560    94380578.67644
      -132.396  
  20852194.880   109579024.01847       259.578    20852192.000    85386231.83144
       259.569  
  20498910.060   107722507.66249      -149.741    20498908.620    83939604.13548
      -149.743  
  22344283.000           0.00040      -513.771    22344276.180           0.00040
      -513.771  
  23892822.180           0.00040       656.593    23892821.820           0.00040
       656.593  
  21118605.780           0.00000       369.463           0.000           0.00000
         0.000  
  21061025.620   112385674.78904      -537.975    21061029.720    87411088.88105
      -537.980  
  22505859.200   120137794.05105      -341.119           0.000           0.00000
         0.000  
  20605606.740   110110119.90509      -489.660    20605611.120    85641209.19208
      -489.660  
  19548606.200   104498500.72407       204.582    19548610.800    81276636.82805
       204.580  
  23331211.420   124762471.52006       788.182    23331221.040    97037500.70104
       788.179  
  21477628.240   114931130.13008       336.080    21477629.460    89390879.30606
       336.082  
  22225085.160   119014317.48907       595.396    22225084.400    92566696.83605
       595.397  
 20  9 26  9  1 10.0000000  0 15G18G20G21G24G10G32G15R10R 2R18R11R 1
                                R24R17R 8
  24478427.940   128635037.73446       736.992    24478424.540   100235068.16644
       736.991  
  20532210.920   107897493.89049       352.201    20532205.600    84075952.29448
       352.201  
  23048037.280   121118245.87845      -131.826    23048032.040    94377892.12144
      -131.827  
  20853499.620   109585880.32847       260.421    20853496.820    85391574.22644
       260.427  
  20498168.720   107718611.66849      -148.890    20498167.200    83936568.27948
      -148.890  
  22341719.140           0.00040      -513.154    22341723.160           0.00050
      -513.154  
  23896112.040   125574886.83746       657.176    23896111.360    97850577.37145
       657.175  
  21120461.300   112583941.88803       370.834           0.000           0.00000
         0.000  
  21058340.760           0.00000      -537.594    21058344.460           0.00010
      -537.595  
  22504160.580           0.00000      -339.912    22504164.880           0.00000
      -339.912  
  20603166.100   110097077.45908      -488.680    20603170.380    85631065.04008
      -488.680  
  19549636.140   104504006.58907       205.328    19549640.760    81280919.14106
       205.329  
  23335158.040   124783579.03105       788.647    23335165.940    97053917.66904
       788.648  
  21479316.680   114940165.10207       337.176    21479317.700    89397906.55506
       337.175  
  22228068.160   119030291.65007       595.799    22228067.120    92579121.18604
       595.797  
 20  9 26  9  1 15.0000000  0 15G18G20G21G24G10G15G11R10R 2R18R11R 1
                                R24R17R 8
  24482107.920   128654379.78045       736.616    24482105.360   100250139.81143
       736.618  
  20533968.560   107906730.22949       352.087    20533963.260    84083149.43348
       352.088  
  23047374.220   121114764.55647      -131.826    23047369.320    94375179.31541
      -131.821  
  20854798.420   109592705.17747       260.401    20854795.660    85396892.25845
       260.402  
  20497420.900   107714681.61349      -148.990    20497419.280    83933505.87248
      -148.989  
  23899393.500   125592129.60744       656.723    23899389.980    97864013.30243
       656.722  
  24060709.780   126439888.89704      -236.646           0.000           0.00000
         0.000  
  21122311.520   112593804.91705       370.762           0.000           0.00000
         0.000  
  21055648.200   112356963.94305      -537.913    21055652.620    87388770.59805
      -537.913  
  22502455.220   120119629.22505      -340.037    22502463.160    93426404.78504
      -340.037  
  20600719.860   110084005.23208      -488.591    20600724.100    85620897.79808
      -488.592  
  19550659.460   104509476.58807       205.181    19550664.140    81285173.59906
       205.181  
  23339096.580   124804642.97906       788.233           0.000           0.00000
         0.000  
  21481000.020   114949172.64407       337.377    21481000.580    89404912.43705
       337.376  
  22231043.160   119046223.44107       595.463    22231042.180    92591512.65004
       595.462  
 20  9 26  9  1 20.0000000  0 13G18G20G21G24G10G15R10R 2R11R 1R24R17
                                R 8
  24485791.540   128673736.50646       737.075    24485788.720   100265223.01543
       737.072  
  20535731.340   107915993.72448       353.162    20535726.100    84090367.72947
       353.161  
  23046717.000   121111310.32745      -130.893    23046713.000    94372487.69544
      -130.895  
  20856102.700   109599559.53846       261.538    20856099.780    85402233.39045
       261.535  
  20496678.260   107710778.57549      -147.948    20496676.540    83930464.57248
      -147.949  
  23902677.280   125609388.59946       657.304    23902674.440    97877461.91245
       657.302  
  21124168.300   112603702.08705       372.120           0.000           0.00000
         0.000  
  21052961.040   112342619.67906      -537.173    21052964.120           0.00010
      -537.179  
  20598279.620   110070965.35608      -487.373    20598283.820    85610755.66208
      -487.373  
  19551687.680   104514972.92507       206.174    19551692.360    81289448.50306
       206.175  
  23343038.360   124825725.56304       788.979           0.000           0.00000
         0.000  
  21482689.820   114958215.08908       338.702    21482689.820    89411945.46705
       338.703  
  22234021.800   119062174.94807       596.222    22234021.080    92603919.34005
       596.222  
 20  9 26  9  1 25.0000000  0 15G18G20G21G24G10G32G15R10R 2R18R11R 1
                                R24R17R 8
  24489477.480   128693104.43945       737.277    24489474.200   100280314.95744
       737.275  
  20537498.580   107925280.79949       353.813    20537493.440    84097604.41648
       353.813  
  23046063.700   121107879.95545      -130.155    23046060.200    94369814.74845
      -130.155  
  20857411.980   109606439.94046       262.357    20857409.120    85407594.76445
       262.356  
  20495940.060   107706899.05849      -147.327    20495938.300    83927441.56648
      -147.326  
  22334016.500   117366058.73745      -512.559    22334014.180    91454057.19445
      -512.559  
  23905963.500   125626659.87845       657.354    23905962.420    97890920.01245
       657.355  
  21126030.840   112613630.27105       372.992           0.000           0.00000
         0.000  
  21050275.500           0.00000      -536.795           0.000           0.00000
         0.000  
  22499067.720   120101552.51405      -337.693    22499075.660           0.00000
      -337.693  
  20595844.780   110057954.32008      -486.519    20595848.900    85600635.97108
      -486.519  
  19552720.100   104520492.08307       206.879    19552724.860    81293741.19906
       206.879  
  23346983.260   124846823.13304       789.118    23346991.860           0.00000
       789.119  
  21484385.520   114967288.69408       339.625    21484385.080    89419002.70305
       339.626  
  22237003.640   119078142.63307       596.553    22237003.200    92616338.57505
       596.555  
 20  9 26  9  1 30.0000000  0 11G18G20G21G24G10R10R 2R11R 1R17R 8
  24493162.440   128712469.11344       737.287    24493158.880   100295404.24042
       737.290  
  20539267.560   107934576.94948       354.383    20539262.460    84104848.16948
       354.383  
  23045412.680           0.00040      -129.532    23045407.240           0.00040
      -129.532  
  20858723.500   109613332.04247       262.923    20858720.480    85412965.23046
       262.924  
  20495203.580   107703028.49949      -146.754    20495201.800    83924425.55648
      -146.755  
  21127896.580   112623574.69405       373.827           0.000           0.00000
         0.000  
  21047590.180           0.00000      -536.305           0.000           0.00000
         0.000  
  20593412.640   110044957.27408      -485.807    20593416.620    85590527.14708
      -485.806  
  19553754.040   104526019.13307       207.337    19553758.800    81298040.02406
       207.337  
  21486084.280   114976378.73807       340.423           0.000           0.00000
         0.000  
  22239985.560   119094111.53907       596.829    22239985.260    92628758.90005
       596.828  
 20  9 26  9  1 35.0000000  0 12G18G20G21G24G10G15R10R 2R11R 1R17R 8
  24496839.860   128731793.82346       735.486    24496835.940   100310462.44143
       735.487  
  20541031.320   107943845.69448       353.083    20541026.260    84112070.53548
       353.084  
  23044756.860   121101013.69444      -130.837    23044753.560    94364408.89944
      -130.835  
  20860030.340   109620199.09947       261.741    20860027.120    85418316.17345
       261.740  
  20494461.860   107699130.47149      -148.032    20494460.040    83921388.13448
      -148.032  
  23912526.700   125661208.72745       655.902    23912525.620    97917859.04344
       655.902  
  21129758.340   112633497.96805       372.783           0.000           0.00000
         0.000  
  21044900.300   112299637.83406      -538.125    21044902.480    87344158.26905
      -538.125  
  20590976.160   110031937.05209      -486.912    20590979.980    85580400.31408
      -486.912  
  19554782.600   104531516.98207       206.022    19554787.260    81302316.10906
       206.022  
  21487779.140   114985448.12108       339.409    21487779.200    89433126.71206
       339.409  
  22242960.920   119110044.60907       595.223    22242960.440    92641151.28605
       595.224  
 20  9 26  9  1 40.0000000  0 13G18G20G24G10G15G11R10R 2R11R 1R24R17
                                R 8
  24500521.320   128751140.17645       737.087    24500516.600   100325537.45043
       737.091  
  20542801.500   107953148.45448       355.039    20542796.580    84119319.46048
       355.038  
  20861344.080   109627102.52447       263.825    20861340.900    85423695.41845
       263.826  
  20493726.560   107695266.39349      -146.045    20493724.700    83918377.14848
      -146.045  
  23915809.680   125678462.24645       657.356    23915809.540    97931303.35244
       657.356  
  24054832.840   126408994.56504      -232.768           0.000           0.00000
         0.000  
  21131627.720   112643462.84805       375.013           0.000           0.00000
         0.000  
  21042212.720   112285303.47105      -536.542    21042217.280    87333009.30105
      -536.542  
  20588547.060   110018956.33008      -484.727    20588550.840    85570304.23908
      -484.729  
  19555817.360   104537048.15607       207.883    19555821.980    81306618.15806
       207.883  
  23358816.660           0.00000       789.500    23358814.200           0.00000
       789.500  
  21489481.880   114994559.30308       341.712    21489482.100    89440213.16306
       341.713  
  22245941.160   119126004.38707       596.937    22245940.620    92653564.47805
       596.935  
 20  9 26  9  1 45.0000000  0 13G18G20G21G24G10G15G11R10R 2R11R 1R17
                                R 8
  24504208.160   128770515.06347       737.730    24504203.780   100340616.85043
       737.727  
  20544579.520   107962492.25449       356.290    20544574.680    84126600.35148
       356.290  
  23043466.180   121094224.05245      -127.756    23043464.680    94359130.63344
      -127.756  
  20862665.960   109634049.11646       265.083    20862662.920    85429108.47244
       265.079  
  20492999.040   107691443.25349      -144.864    20492997.140    83915398.11848
      -144.866  
  23919101.300   125695738.51745       658.271    23919101.060    97944772.87745
       658.271  
  24053672.560   126402887.68044      -231.819    24053665.720    98495748.62441
      -231.819  
  21133506.260   112653476.07806       376.353           0.000           0.00000
         0.000  
  21039533.540   112271003.05705      -535.435    21039539.100    87321894.93905
      -535.439  
  20586126.600   110006022.12609      -483.401    20586130.340    85560244.28807
      -483.401  
  19556859.700   104542619.89007       209.088    19556864.280    81310951.71606
       209.088  
  21491193.660   115003719.37508       343.104    21491193.320    89447337.73706
       343.103  
  22248927.800   119141998.15007       597.775    22248927.480    92666004.02405
       597.776  
 20  9 26  9  1 50.0000000  0 13G18G20G21G24G10G15R10R 2R11R 1R24R17
                                R 8
  24507899.700   128789913.18146       739.390    24507895.780   100355732.27444
       739.390  
  20546364.360   107971871.62548       358.193    20546359.480    84133908.90348
       358.195  
  23042830.060   121090894.13645      -125.829    23042830.140    94356524.39344
      -125.828  
  20863994.940   109641034.10146       267.021    20863992.120    85434551.29744
       267.022  
  20492278.300   107687655.71249      -142.944    20492276.400    83912446.79048
      -142.945  
  23922392.780   125713022.32645       659.579    23922394.780    97958242.50245
       659.579  
  21135392.960   112663532.41606       378.674           0.000           0.00000
         0.000  
  21036859.260   112256731.01505      -533.865           0.000           0.00000
         0.000  
  20583713.900   109993129.07108      -481.238    20583717.540    85550216.38508
      -481.239  
  19557908.620   104548226.58907       210.934    19557913.080    81315312.51106
       210.933  
  23366710.280   124952300.82115       792.021           0.000           0.00000
         0.000  
  21492913.600   115012922.91507       345.308    21492913.100    89454496.03805
       345.307  
