     2.11           OBSERVATION DATA    M                   RINEX VERSION / TYPE
LEICA GEO OFFICE 8.4                    30-9-20 21:26       PGM / RUN BY / DATE
                                                            OBSERVER / AGENCY
SAY1                                                        MARKER NAME
SAY1                                                        MARKER NUMBER
352348              LEICA GX1220GG      4.10                REC # / TYPE / VERS
                    LEIAX1202GG                             ANT # / TYPE
 -1197356.1526  3781140.9492  4979340.3252                  APPROX POSITION XYZ
        1.7610        0.0000        0.0000                  ANTENNA: DELTA H/E/N
L1PhaOff:   0.0644  L2PhaOff:   0.0640                      COMMENT
     1     1                                                WAVELENGTH FACT L1/2
     6    C1    L1    D1    P2    L2    D2                  # / TYPES OF OBSERV
  2020     9    30     7    14   35.0000000     GPS         TIME OF FIRST OBS
  2020     9    30     8    46   20.0000000     GPS         TIME OF LAST OBS
    18                                                      LEAP SECONDS
    23                                                      # OF SATELLITES
          C1    L1    D1    P2    L2    D2                  COMMENT
   G 1     0     0     0     0     0     0                  PRN / # OF OBS
   G 2     0     0     0     0     0     0                  PRN / # OF OBS
   G 3     0     0     0     0     0     0                  PRN / # OF OBS
   G 4     0     0     0     0     0     0                  PRN / # OF OBS
   G 5     0     0     0     0     0     0                  PRN / # OF OBS
   G 6     0     0     0     0     0     0                  PRN / # OF OBS
   G 7     0     0     0     0     0     0                  PRN / # OF OBS
   G 8   535   535   535   527   527   527                  PRN / # OF OBS
   G 9     0     0     0     0     0     0                  PRN / # OF OBS
   G10  1102  1102  1102  1102  1102  1102                  PRN / # OF OBS
   G11   153   153   153   144   144   144                  PRN / # OF OBS
   G12    51    51    51    50    50    50                  PRN / # OF OBS
   G13   442   442   442   441   441   441                  PRN / # OF OBS
   G14     0     0     0     0     0     0                  PRN / # OF OBS
   G15  1102  1102  1102  1102  1102  1102                  PRN / # OF OBS
   G16     0     0     0     0     0     0                  PRN / # OF OBS
   G17     0     0     0     0     0     0                  PRN / # OF OBS
   G18  1102  1102  1102  1102  1102  1102                  PRN / # OF OBS
   G19     0     0     0     0     0     0                  PRN / # OF OBS
   G20  1102  1102  1102  1102  1102  1102                  PRN / # OF OBS
   G21  1042  1042  1042  1033  1033  1033                  PRN / # OF OBS
   G22     0     0     0     0     0     0                  PRN / # OF OBS
   G23     0     0     0     0     0     0                  PRN / # OF OBS
   G24  1102  1102  1102  1102  1102  1102                  PRN / # OF OBS
   G25     0     0     0     0     0     0                  PRN / # OF OBS
   G26     0     0     0     0     0     0                  PRN / # OF OBS
   G27   533   533   533   533   533   533                  PRN / # OF OBS
   G28     0     0     0     0     0     0                  PRN / # OF OBS
   G29     0     0     0     0     0     0                  PRN / # OF OBS
   G30     0     0     0     0     0     0                  PRN / # OF OBS
   G31     0     0     0     0     0     0                  PRN / # OF OBS
   G32   734   734   734   727   727   727                  PRN / # OF OBS
   R 1     0     0     0     0     0     0                  PRN / # OF OBS
   R 2     0     0     0     0     0     0                  PRN / # OF OBS
   R 3    94    94    94    94    94    94                  PRN / # OF OBS
   R 4  1102  1102  1102  1102  1102  1102                  PRN / # OF OBS
   R 5  1102  1102  1102  1102  1102  1102                  PRN / # OF OBS
   R 6   707   707   707     0     0     0                  PRN / # OF OBS
   R 7     0     0     0     0     0     0                  PRN / # OF OBS
   R 8     0     0     0     0     0     0                  PRN / # OF OBS
   R 9     0     0     0     0     0     0                  PRN / # OF OBS
   R10     0     0     0     0     0     0                  PRN / # OF OBS
   R11     0     0     0     0     0     0                  PRN / # OF OBS
   R12     0     0     0     0     0     0                  PRN / # OF OBS
   R13   186   186   186   186   186   186                  PRN / # OF OBS
   R14  1055  1055  1055  1052  1052  1052                  PRN / # OF OBS
   R15   926   926   926   925   925   925                  PRN / # OF OBS
   R16     0     0     0     0     0     0                  PRN / # OF OBS
   R17     0     0     0     0     0     0                  PRN / # OF OBS
   R18     0     0     0     0     0     0                  PRN / # OF OBS
   R19    32    32    32    32    32    32                  PRN / # OF OBS
   R20   712   712   712   712   712   712                  PRN / # OF OBS
   R21  1102  1102  1102  1102  1102  1102                  PRN / # OF OBS
   R22   131   131   131     0     0     0                  PRN / # OF OBS
   R23     0     0     0     0     0     0                  PRN / # OF OBS
   R24     0     0     0     0     0     0                  PRN / # OF OBS
                                                            END OF HEADER
 20 09 30 07 14 35.0000000  0 13G15G18G20G 8G27G24G10G13R 4R 3R21R 5
                                R20
  20827821.640   109450940.38949     -2118.929    20827821.609    85286448.78848
     -1651.116  
  21108579.839   110926327.05749     -2194.770    21108579.704    86436097.56848
     -1710.215  
  20183724.488   106066198.98149      1115.589    20183723.232    82648983.38848
       869.288  
  24681800.063   129703737.22846       778.797    24681802.810   101067855.79944
       606.847  
  23996283.671   126101325.96245     -1077.371    23996287.406    98260769.43845
      -839.516  
  21343148.383   112159014.79448      2295.996    21343150.316    87396660.25947
      1789.085  
  22512170.590   118302273.39449      2788.672    22512172.848    92183610.07747
      2172.991  
  23197168.392   121901928.32948     -3344.640    23197168.007    94988520.86745
     -2606.218  
  19731767.726   105662720.90409     -1443.530    19731771.046    82182127.36708
     -1122.746  
  23203342.758   124209319.96605     -3474.640    23203349.538    96607266.97604
     -2702.496  
  22476967.435   120278811.84407      3102.026    22476970.961    93550196.81205
      2412.688  
  20193000.884   107943200.99208      1983.632    20193005.200    83955854.82708
      1542.823  
  20455982.814   109387337.07705     -1167.520    20455988.669    85079067.32308
      -908.073  
 20 09 30 07 14 40.0000000  0 14G15G18G20G 8G27G24G10G13R 4R 3R14R21
                                R 5R20
  20829839.142   109461542.90149     -2121.530    20829839.222    85294710.48448
     -1653.145  
  21110669.806   110937310.19149     -2197.891    21110669.723    86444655.84448
     -1712.645  
  20182664.718   106060629.25549      1112.852    20182663.319    82644643.34648
       867.156  
  24681061.034   129699853.57246       775.046    24681063.932   101064829.59044
       603.937  
  23997310.629   126106723.60145     -1080.780    23997314.542    98264975.41944
      -842.172  
  21340965.483   112147543.45548      2292.895    21340967.333    87387721.55847
      1786.671  
  22509518.069   118288334.71049      2787.366    22509520.193    92172748.77047
      2171.968  
  23200351.630   121918656.13647     -3345.875    23200351.335    95001555.53045
     -2607.176  
  19733116.961   105669945.49609     -1445.730    19733120.166    82187746.49708
     -1124.457  
  23206589.059   124226696.44705     -3475.878    23206596.863    96620782.01104
     -2703.461  
  21671756.100   115522656.39915      2879.414           0.000           0.0000 
         0.000  
  22474070.842   120263311.02706      3098.695    22474074.047    93538140.63006
      2410.098  
  20191146.993   107933290.22509      1981.406    20191151.291    83948146.45008
      1541.094  
  20457076.658   109393186.82605     -1172.179    20457082.699    85083617.12508
      -911.699  
 20 09 30 07 14 45.0000000  0 14G15G18G20G 8G27G24G10G13R 4R 3R14R21
                                R 5R20
  20831858.754   109472155.09949     -2123.835    20831858.556    85302979.72348
     -1654.941  
  21112762.254   110948306.26849     -2200.992    21112762.425    86453224.20348
     -1715.063  
  20181606.853   106055070.57849      1110.258    20181605.415    82640311.90648
       865.137  
  24680324.898   129695984.52646       772.000    24680327.712   101061814.76644
       601.562  
  23998340.242   126112135.75345     -1084.547    23998344.381    98269192.68843
      -845.101  
  21338785.050   112136085.57548      2289.831    21338787.048    87378793.34547
      1784.285  
  22506866.494   118274400.21449      2786.042    22506868.566    92161890.74048
      2170.941  
  23203535.415   121935387.51047     -3347.004    23203535.134    95014592.93845
     -2608.059  
  19734467.889   105677179.84609     -1448.354    19734471.206    82193373.21708
     -1126.503  
  23209835.718   124244073.94104     -3475.500    23209843.018    96634297.86304
     -2703.168  
  21669056.028   115508269.90505      2875.566    21669062.118    89839785.06013
      2236.547  
  22471176.896   120247825.53107      3095.070    22471180.084    93526096.35406
      2407.277  
  20189294.625   107923388.41409      1978.918    20189299.029    83940445.04808
      1539.159  
  20458174.743   109399058.99905     -1176.964    20458180.796    85088184.37608
      -915.421  
 20 09 30 07 14 50.0000000  0 14G15G18G20G 8G27G24G10G13R 4R 3R14R21
                                R 5R20
  20833880.656   109482780.01649     -2125.964    20833880.296    85311258.87948
     -1656.598  
  21114857.777   110959318.31249     -2203.698    21114858.056    86461805.02348
     -1717.172  
  20180551.665   106049525.96149      1107.793    20180550.463    82635991.42848
       863.211  
  24679592.174   129692133.09946       769.434    24679595.024   101058813.65845
       599.559  
  23999373.246   126117565.44645     -1087.316    23999377.281    98273423.67844
      -847.250  
  21336607.859   112124644.29748      2287.058    21336609.953    87369878.06647
      1782.125  
  22504216.056   118260472.94249      2785.159    22504218.433    92151038.32647
      2170.253  
  23206720.528   121952125.60948     -3347.836    23206720.480    95027635.61745
     -2608.703  
  19735821.228   105684426.94509     -1450.316    19735824.420    82199009.83908
     -1128.026  
  23213082.084   124261455.55605     -3476.008    23213089.892    96647816.86504
     -2703.570  
  21666360.995   115493901.67205      2872.362    21666364.592    89828609.70003
      2234.046  
  22468286.470   120232358.34107      3092.120    22468289.550    93514066.31805
      2404.980  
  20187444.504   107913498.57809      1977.078    20187448.702    83932752.96908
      1537.727  
  20459277.731   109404956.41805     -1181.539    20459283.679    85092771.25308
      -918.980  
 20 09 30 07 14 55.0000000  0 14G15G18G20G 8G27G24G10G13R 4R 3R14R21
                                R 5R20
  20835904.422   109493415.10049     -2127.891    20835903.989    85319545.96948
     -1658.097  
  21116955.751   110970343.77449     -2206.281    21116956.122    86470396.28348
     -1719.184  
  20179498.776   106043992.80749      1105.604    20179497.490    82631679.86848
       861.508  
  24678862.041   129688296.78746       766.132    24678865.389   101055824.32944
       596.987  
  24000409.004   126123009.98445     -1089.749    24000413.179    98277666.13245
      -849.159  
  21334433.107   112113216.99448      2284.246    21334435.327    87360973.68348
      1779.933  
  22501566.775   118246550.34649      2784.172    22501568.987    92140189.56848
      2169.483  
  23209906.388   121968867.82447     -3348.812    23209906.401    95040681.49445
     -2609.468  
  19737176.617   105691684.21009     -1452.312    19737179.773    82204654.36608
     -1129.582  
  23216330.128   124278838.74905     -3476.503    23216337.451    96661337.15704
     -2703.948  
  21663668.254   115479548.94204      2868.438    21663669.947    89817446.47202
      2231.007  
  22465398.758   120216906.98306      3088.788    22465401.806    93502048.58306
      2402.391  
  20185596.267   107903618.16309      1975.305    20185600.501    83925068.20108
      1536.347  
  20460384.816   109410876.78305     -1185.374    20460390.620    85097375.97508
      -921.960  
 20 09 30 07 15  0.0000000  0 14G15G18G20G 8G27G24G10G13R 4R 3R14R21
                                R 5R20
  20837929.712   109504058.69749     -2129.672    20837929.417    85327839.66748
     -1659.487  
  21119056.021   110981380.98449     -2208.741    21119056.349    86478996.70848
     -1721.101  
  20178447.787   106038469.53849      1103.527    20178446.716    82627376.03248
       859.891  
  24678134.562   129684473.88946       763.414    24678138.010   101052845.46045
       594.784  
  24001447.411   126128467.97545     -1092.694    24001451.836    98281919.10442
      -851.457  
  21332261.036   112101802.11848      2281.651    21332263.145    87352078.99047
      1777.909  
  22498917.891   118232630.80549      2783.565    22498920.328    92129343.15947
      2169.012  
  23213092.806   121985612.49748     -3349.301    23213092.882    95053729.28545
     -2609.847  
  19738533.328   105698949.86609     -1454.163    19738536.568    82210305.43308
     -1131.019  
  23219577.625   124296221.69904     -3476.477    23219584.731    96674857.25704
     -2703.921  
  21660978.865   115465210.10905      2866.445    21660980.410    89806294.10703
      2229.461  
  22462513.840   120201469.73607      3085.906    22462516.827    93490041.85406
      2400.147  
  20183749.315   107893745.58309      1973.620    20183753.478    83917389.52008
      1535.035  
  20461495.933   109416818.17205     -1190.933    20461501.917    85101997.06008
      -926.285  
 20 09 30 07 15  5.0000000  0 14G15G18G20G 8G27G24G10G13R 4R 3R14R21
                                R 5R20
  20839957.695   109514715.47349     -2132.757    20839957.307    85336143.66448
     -1661.891  
  21121159.533   110992434.57649     -2212.543    21121159.776    86487609.88947
     -1724.062  
  20177399.489   106032960.73049      1100.152    20177398.395    82623083.45848
       857.261  
  24677410.656   129680669.11246       758.960    24677414.007   101049880.69445
       591.397  
  24002489.330   126133943.85645     -1097.620    24002493.744    98286186.04145
      -855.292  
  21330092.025   112090404.20448      2277.530    21330094.362    87343197.49947
      1774.699  
  22496270.522   118218718.94249      2781.472    22496272.936    92118502.74847
      2167.379  
  23216280.613   122002364.22848     -3351.121    23216280.504    95066782.59845
     -2611.261  
  19739892.612   105706228.76909     -1457.262    19739895.836    82215966.79808
     -1133.382  
  23222826.186   124313609.24705     -3478.297    23222832.164    96688380.86904
     -2705.347  
  21658293.381   115450890.00205      2862.066    21658294.694    89795156.23803
      2226.047  
  22459632.591   120186051.34007      3081.844    22459635.497    93478049.78206
      2396.984  
  20181904.828   107883885.49108      1970.694    20181908.870    83909720.56508
      1532.761  
  20462611.777   109422785.49905     -1196.597    20462617.789    85106638.30508
      -930.691  
 20 09 30 07 15 10.0000000  0 15G15G18G20G 8G27G24G10G13R 4R 3R14R21
                                R13R 5R20
  20841987.744   109525383.57949     -2134.492    20841987.394    85344456.46648
     -1663.245  
  21123265.714   111003502.69649     -2214.898    21123266.068    86496234.39647
     -1725.897  
  20176353.661   106027464.61349      1098.258    20176352.496    82618800.76748
       855.781  
  24676689.619   129676880.66446       756.124    24676693.272   101046928.65345
       589.183  
  24003534.338   126139435.84945     -1099.499    24003538.421    98290465.50745
      -856.765  
  21327925.835   112079021.57848      2275.285    21327928.269    87334327.92748
      1772.949  
  22493624.286   118204812.91049      2780.867    22493626.713    92107666.87647
      2166.906  
  23219469.319   122019121.20848     -3351.581    23219469.198    95079839.95345
     -2611.628  
  19741254.000   105713518.90709     -1458.992    19741257.172    82221636.90008
     -1134.777  
  23226074.697   124330999.28304     -3478.257    23226080.670    96701906.44704
     -2705.315  
  21655610.433   115436586.50405      2859.770    21655612.738    89784031.30404
      2224.265  
  22456754.321   120170649.91807      3078.801    22456757.326    93466070.88905
      2394.617  
  21786141.872   116336782.94014     -1014.391    21786147.731    90484188.99315
      -788.969  
  20180062.161   107874035.97508      1968.965    20180066.168    83902059.84408
      1531.418  
  20463732.109   109428776.69805     -1200.473    20463738.158    85111298.12208
      -933.703  
 20 09 30 07 15 15.0000000  0 14G15G18G20G 8G27G24G10G13R 4R 3R14R21
                                R 5R20
  20844019.475   109536060.83949     -2136.327    20844019.200    85352776.40348
     -1664.672  
  21125374.371   111014583.23349     -2217.343    21125374.585    86504868.57848
     -1727.804  
  20175309.929   106021979.10949      1096.090    20175308.770    82614526.35348
       854.093  
  24675971.392   129673106.32646       753.809    24675975.005   101043987.62843
       587.378  
  24004581.860   126144941.89545     -1103.020    24004586.274    98294755.85243
      -859.508  
  21325762.320   112067652.00848      2272.702    21325764.861    87325468.54148
      1770.937  
  22490978.793   118190910.62448      2780.140    22490981.212    92096833.92947
      2166.344  
  23222658.630   122035881.37048     -3352.363    23222658.612    95092899.81945
     -2612.234  
  19742617.220   105720818.26809     -1460.793    19742620.382    82227314.18407
     -1136.175  
  23229322.949   124348389.80603     -3477.983    23229329.243    96715432.36702
     -2705.102  
  21652930.001   115422297.82304      2856.820    21652933.186    89772917.90104
      2221.973  
  22453879.033   120155263.48406      3075.758    22453882.002    93454103.65806
      2392.253  
  20178221.149   107864194.83709      1967.425    20178225.240    83894405.63008
      1530.218  
  20464856.641   109434789.70405     -1204.535    20464862.373    85115974.90808
      -936.863  
 20 09 30 07 15 20.0000000  0 13G15G18G20G 8G27G24G10G13R 4R14R21R 5
                                R20
  20846053.138   109546747.58749     -2138.402    20846052.746    85361103.74548
     -1666.292  
  21127485.310   111025676.51249     -2219.945    21127485.527    86513512.69047
     -1729.827  
  20174268.072   106016504.49249      1093.719    20174267.006    82610260.41148
       852.245  
  24675255.759   129669346.61645       750.395    24675259.424   101041057.97344
       584.719  
  24005632.322   126150462.08045     -1105.129    24005636.803    98299057.27944
      -861.145  
  21323601.297   112056296.00948      2269.660    21323603.847    87316619.70448
      1768.563  
  22488334.042   118177012.42848      2779.308    22488336.667    92086004.18147
      2165.694  
  23225848.490   122052644.97648     -3353.195    23225848.741    95105962.39845
     -2612.879  
  19743982.130   105728127.13909     -1462.852    19743985.023    82232998.86507
     -1137.773  
  21650252.633   115408024.16205      2853.159    21650256.445    89761816.18304
      2219.129  
  22451006.522   120139892.19307      3072.582    22451009.582    93442148.20306
      2389.784  
  20176381.874   107854362.63909      1965.390    20176385.984    83886758.36308
      1528.652  
  20465985.212   109440824.83305     -1209.742    20465990.974    85120668.90308
      -940.909  
 20 09 30 07 15 25.0000000  0 13G15G18G20G 8G27G24G10G13R 4R14R21R 5
                                R20
  20848088.718   109557444.16749     -2140.148    20848088.245    85369438.74448
     -1667.647  
  21129598.684   111036782.92549     -2222.378    21129599.173    86522167.02847
     -1731.726  
  20173228.529   106011041.18649      1091.651    20173227.466    82606003.29248
       850.632  
  24674543.037   129665601.83046       747.933    24674546.782   101038139.95045
       582.800  
  24006685.629   126155997.05647     -1107.859    24006689.939    98303370.28943
      -863.269  
  21321442.740   112044953.84148      2267.246    21321445.552    87307781.66048
      1766.683  
  22485690.079   118163118.71548      2778.565    22485692.664    92075177.92848
      2165.116  
  23229039.315   122069412.40948     -3353.706    23229039.328    95119027.91245
     -2613.277  
  19745348.734   105735445.77509     -1464.629    19745351.805    82238691.12108
     -1139.124  
  21647578.004   115393766.07104      2849.887    21647582.643    89750726.61704
      2216.582  
  22448137.028   120124536.60407      3069.788    22448139.691    93430204.96106
      2387.608  
  20174544.268   107844539.61309      1963.870    20174548.406    83879118.23008
      1527.456  
  20467118.011   109446882.48505     -1213.827    20467123.949    85125380.40308
      -944.093  
 20 09 30 07 15 30.0000000  0 13G15G18G20G 8G27G24G10G13R 4R14R21R 5
                                R20
  20850126.199   109568151.95249     -2142.991    20850125.944    85377782.47048
     -1669.866  
  21131714.920   111047903.79149     -2225.836    21131715.229    86530832.64147
     -1734.418  
  20172191.253   106005590.54349      1088.605    20172190.350    82601756.03848
       848.266  
  24673833.517   129661873.31045       743.527    24673837.203   101035234.62344
       579.371  
  24007742.096   126161548.01746     -1111.968    24007745.971    98307695.69243
      -866.472  
  21319287.194   112033626.90248      2263.699    21319290.141    87298955.48947
      1763.921  
  22483047.235   118149230.85148      2776.839    22483050.123    92064356.22947
      2163.769  
  23232231.081   122086185.00247     -3355.147    23232231.214    95132097.46445
     -2614.401  
  19746717.575   105742775.76008     -1467.406    19746720.522    82244392.21907
     -1141.304  
  21644906.338   115379524.65205      2846.327    21644911.451    89739649.93404
      2213.808  
  22445270.825   120109198.06807      3065.683    22445273.483    93418275.01406
      2384.421  
  20172708.761   107834727.27509      1961.054    20172712.783    83871486.41408
      1525.266  
  20468255.368   109452964.03405     -1219.555    20468261.227    85130110.48508
      -948.546  
 20 09 30 07 15 35.0000000  0 14G15G18G20G 8G27G24G10G13R 4R14R21R13
                                R 5R20
  20852165.972   109578870.68749     -2144.655    20852165.648    85386134.71748
     -1671.163  
  21133833.790   111059038.87449     -2228.152    21133834.268    86539509.31648
     -1736.227  
  20171156.437   106000152.33249      1086.617    20171155.433    82597518.47848
       846.715  
  24673126.869   129658160.62845       741.323    24673130.564   101032341.65044
       577.660  
  24008801.439   126167114.77547     -1114.925    24008805.358    98312033.48344
      -868.770  
  21317134.547   112022314.91348      2260.983    21317137.384    87290140.96547
      1761.805  
  22480405.510   118135348.58748      2775.925    22480408.301    92053538.87848
      2163.059  
  23235423.576   122102962.55247     -3355.737    23235423.646    95145170.87544
     -2614.862  
  19748088.428   105750116.68108     -1469.241    19748091.109    82250101.85107
     -1142.742  
  21642237.888   115365299.96705      2843.512    21642243.280    89728586.31104
      2211.620  
  22442407.534   120093876.26907      3062.996    22442410.313    93406358.05606
      2382.332  
  21790940.781   116362407.78214     -1035.859    21790945.828    90504116.62815
      -805.668  
  20170875.087   107824925.14409      1959.632    20170879.113    83863862.52708
      1524.155  
  20469397.001   109459069.13905     -1223.590    20469402.776    85134858.89608
      -951.684  
 20 09 30 07 15 40.0000000  0 15G15G18G20G 8G27G24G10G13R 4R 3R14R21
                                R13R 5R20
  20854207.855   109589600.29249     -2147.961    20854207.553    85394495.44548
     -1673.738  
  21135955.528   111070188.08749     -2232.304    21135956.014    86548197.01048
     -1739.461  
  20170123.889   105994726.47249      1083.003    20170122.966    82593290.54048
       843.898  
  24672423.527   129654464.01145       736.313    24672427.339   101029461.15344
       573.750  
  24009864.001   126172697.20546     -1119.020    24009867.780    98316383.39244
      -871.972  
  21314984.777   112011017.76348      2257.078    21314987.574    87281337.97847
      1758.761  
  22477764.733   118121471.86248      2773.637    22477767.734    92042725.85448
      2161.273  
  23238617.039   122119744.96647     -3357.891    23238617.361    95158248.07345
     -2616.542  
  19749461.359   105757468.53909     -1472.554    19749463.837    82255819.96407
     -1145.448  
  23245569.527   124435354.53814     -3480.913    23245577.941    96783086.93914
     -2707.386  
  21639572.562   115351091.81105      2838.792    21639577.643    89717535.53404
      2207.949  
  22439547.443   120078571.34407      3058.491    22439550.291    93394454.23306
      2378.827  
  21791913.304   116367600.28404     -1040.957    21791918.286    90508155.24805
      -809.633  
  20169043.285   107815133.33009      1956.313    20169047.368    83856246.67808
      1521.535  
  20470542.960   109465197.84905     -1228.926    20470548.922    85139625.67708
      -955.831  
 20 09 30 07 15 45.0000000  0 15G15G18G20G 8G27G24G10G13R 4R 3R14R21
                                R13R 5R20
  20856253.137   109600348.54049     -2150.124    20856252.876    85402870.69848
     -1675.426  
  21138081.276   111081359.22049     -2234.922    21138081.670    86556901.77947
     -1741.499  
  20169095.157   105989320.79449      1080.491    20169094.375    82589078.32048
       841.938  
  24671724.421   129650791.24745       733.628    24671728.497   101026599.23045
       571.655  
  24010930.907   126178303.14346     -1122.137    24010934.274    98320751.63344
      -874.394  
  21312839.415   111999743.40348      2254.108    21312842.183    87272552.77347
      1756.449  
  22475126.652   118107608.46848      2772.785    22475129.811    92031923.21748
      2160.613  
  23241812.963   122136539.94547     -3358.905    23241813.270    95171335.07045
     -2617.331  
  19750837.865   105764839.26109     -1474.742    19750840.146    82261552.74507
     -1147.023  
  23248821.804   124452764.51504     -3481.983    23248830.786    96796627.98804
     -2708.218  
  21636911.773   115336908.09205      2835.847    21636916.613    89706503.79604
      2205.663  
  22436692.051   120063291.09307      3054.824    22436694.761    93382569.60306
      2375.973  
  21792891.480   116372823.49804     -1046.339    21792896.276    90512217.74705
      -813.823  
  20167214.826   107805359.79709      1954.276    20167219.210    83848645.05308
      1519.991  
  20471695.050   109471358.06105     -1233.526    20471700.883    85144416.95408
      -959.414  
 20 09 30 07 15 50.0000000  0 16G15G18G20G 8G21G27G24G10G13R 4R 3R14
                                R21R13R 5R20
  20858299.001   109611099.91049     -2150.309    20858298.929    85411248.38048
     -1675.569  
  21140208.139   111092536.70648     -2235.761    21140208.781    86565611.50648
     -1742.156  
  20168067.373   105983919.68949      1080.120    20168066.526    82584869.66848
       841.647  
  24671026.890   129647126.57146       732.277    24671030.748   101023743.66044
       570.605  
  25211286.445   132486200.00755      2898.183    25211283.586   103236006.12454
      2258.253  
  24011999.060   126183916.98246     -1123.367    24012002.744    98325126.05945
      -875.355  
  21310695.367   111988476.19948      2253.016    21310698.223    87263773.14647
      1755.597  
  22472488.031   118093742.88748      2773.574    22472491.149    92021118.87147
      2161.226  
  23245008.344   122153331.97048     -3357.808    23245008.448    95184419.75645
     -2616.476  
  19752214.723   105772212.95709     -1474.722    19752216.988    82267287.86507
     -1147.008  
  23252073.156   124470169.00405     -3480.145    23252082.515    96810164.85804
     -2706.776  
  21634252.745   115322733.13405      2834.941    21634257.176    89695478.79103
      2204.949  
  22433838.098   120048019.76607      3053.941    22433840.958    93370691.91306
      2375.289  
  21793872.487   116378061.61804     -1048.754    21793877.136    90516291.82605
      -815.703  
  20165386.920   107795588.56009      1954.288    20165391.299    83841045.20708
      1520.003  
  20472849.818   109477533.90405     -1236.500    20472856.052    85149220.38808
      -961.723  
 20 09 30 07 15 55.0000000  0 16G15G18G20G 8G21G27G24G10G13R 4R 3R14
                                R21R13R 5R20
  20860346.382   109621858.15749     -2153.042    20860346.186    85419631.43048
     -1677.698  
  21142337.072   111103724.26648     -2239.152    21142337.819    86574329.09048
     -1744.797  
  20167041.105   105978526.92649      1077.073    20167040.385    82580667.51348
       839.276  
  24670331.716   129643473.81346       728.508    24670335.607   101020897.36144
       567.667  
  25208529.515   132471712.43245      2896.793    25208526.848   103224717.14943
      2257.246  
  24013069.643   126189542.46646     -1126.917    24013073.326    98329509.53544
      -878.125  
  21308553.221   111977219.95948      2249.320    21308556.205    87255002.03547
      1752.714  
  22469849.723   118079878.83148      2772.097    22469852.910    92010315.72047
      2160.074  
  23248203.913   122170124.79747     -3359.280    23248204.153    95197505.07145
     -2617.624  
  19753593.035   105779593.44309     -1477.441    19753595.354    82273028.24507
     -1149.121  
  23255324.038   124487571.48105     -3480.808    23255333.793    96823700.07404
     -2707.304  
  21631595.775   115308570.70605      2830.655    21631599.878    89684463.52303
      2201.613  
  22430986.688   120032761.16807      3049.608    22430989.749    93358824.11206
      2371.913  
  21794857.082   116383318.48304     -1055.004    21794861.568    90520380.48805
      -820.563  
  20163560.167   107785823.57909      1951.707    20163564.619    83833450.22708
      1517.995  
  20474008.479   109483729.06505     -1241.711    20474014.564    85154038.84508
      -965.776  
 20 09 30 07 16  0.0000000  0 16G15G18G20G 8G21G27G24G10G13R 4R 3R14
                                R21R13R 5R20
  20862396.053   109632629.40649     -2155.183    20862395.898    85428024.59948
     -1679.367  
  21144469.056   111114928.13348     -2242.104    21144469.788    86583059.36848
     -1747.097  
  20166017.700   105973148.74149      1074.492    20166016.913    82576476.72148
       837.262  
  24669640.185   129639839.17146       725.418    24669643.771   101018065.15944
       565.258  
  25205773.034   132457232.52645      2895.398    25205770.990   103213434.05943
      2256.152  
  24014143.486   126195185.83046     -1130.124    24014147.246    98333906.93645
      -880.624  
  21306414.543   111965980.94348      2246.273    21306417.325    87246244.36647
      1750.343  
  22467212.979   118066022.55248      2770.781    22467216.139    91999518.61847
      2159.051  
  23251400.845   122186924.60247     -3360.284    23251400.813    95210595.82845
     -2618.402  
  19754973.780   105786987.14608     -1479.633    19754975.942    82278778.90608
     -1150.823  
  23258575.920   124504978.43604     -3481.601    23258585.381    96837238.82804
     -2707.913  
  21628942.676   115294427.16305      2827.249    21628946.058    89673462.99203
      2198.968  
  22428138.734   120017521.66307      3046.573    22428141.981    93346971.16307
      2369.554  
  21795846.115   116388600.11904     -1058.133    21795850.604    90524488.42805
      -822.996  
  20161735.822   107776071.09809      1949.621    20161740.088    83825864.96608
      1516.370  
  20475171.763   109489950.04305     -1246.101    20475178.080    85158877.37208
      -969.195  
 20 09 30 07 16  5.0000000  0 17G15G18G20G 8G21G27G24G10G13R 4R 3R14
                                R21R13R 5R20R19
  20864447.638   109643410.36949     -2157.168    20864447.562    85436425.35248
     -1680.909  
  21146603.311   111126144.94148     -2244.680    21146604.207    86591799.73848
     -1749.104  
  20164996.386   105967781.82749      1072.124    20164995.615    82572294.70748
       835.417  
  24668951.244   129636219.41945       722.038    24668954.935   101015244.58245
       562.625  
  25203017.911   132442756.91045      2894.676    25203017.167   103202154.42643
      2255.602  
  24015220.196   126200843.69546     -1133.262    24015224.077    98338315.66145
      -883.066  
  21304278.519   111954755.81248      2243.496    21304281.148    87237497.51347
      1748.180  
  22464576.965   118052170.70448      2769.800    22464580.016    91988724.97947
      2158.284  
  23254598.538   122203728.03247     -3360.979    23254598.458    95223689.40345
     -2618.949  
  19756356.167   105794390.57808     -1481.690    19756358.751    82284537.13108
     -1152.426  
  23261828.345   124522386.45404     -3481.566    23261837.572    96850778.43704
     -2707.882  
  21626292.404   115280299.03605      2823.823    21626295.493    89662474.45603
      2196.305  
  22425293.725   120002297.78807      3042.902    22425297.065    93335130.37006
      2366.699  
  21796839.098   116393903.43404     -1062.527    21796843.780    90528613.22205
      -826.410  
  20159913.031   107766327.76509      1947.589    20159917.462    83818286.81108
      1514.788  
  20476339.250   109496193.27905     -1250.996    20476345.703    85163733.22608
      -973.000  
  22874173.073   122361401.11913     -4543.313    22874173.506    95169981.53316
     -3533.690  
 20 09 30 07 16 10.0000000  0 17G15G18G20G 8G21G27G24G10G13R 4R 3R14
                                R21R13R 5R20R19
  20866500.533   109654198.53349     -2158.531    20866500.436    85444831.71348
     -1681.977  
  21148739.886   111137372.18348     -2246.625    21148740.859    86600548.22248
     -1750.621  
  20163976.788   105962423.64449      1070.539    20163976.033    82568119.50248
       834.187  
  24668264.817   129632612.06346       719.594    24668268.491   101012433.64844
       560.723  
  25200263.437   132428283.11546      2894.527    25200266.349   103190876.13142
      2255.477  
  24016299.173   126206513.54146     -1135.401    24016303.002    98342733.70744
      -884.734  
  21302144.579   111943541.94448      2241.563    21302147.149    87228759.42847
      1746.668  
  22461941.346   118038320.74848      2769.612    22461944.344    91977932.80947
      2158.085  
  23257796.251   122220532.59647     -3361.234    23257796.170    95236783.87345
     -2619.144  
  19757740.073   105801801.11109     -1482.965    19757742.496    82290300.88008
     -1153.418  
  23265080.104   124539793.00004     -3481.108    23265089.298    96864316.82604
     -2707.539  
  21623644.362   115266183.91905      2821.574    21623647.565    89651496.03903
      2194.554  
  22422451.157   119987087.04007      3040.745    22422454.502    93323299.80407
      2365.023  
  21797835.742   116399225.80204     -1066.026    21797840.348    90532752.84905
      -829.132  
  20158091.740   107756591.01509      1946.496    20158096.024    83810713.78108
      1513.937  
  20477510.545   109502456.37705     -1254.706    20477516.912    85168604.52608
      -975.883  
  22878419.461   122384118.11604     -4544.460    22878420.433    95187650.27206
     -3534.589  
 20 09 30 07 16 15.0000000  0 16G15G18G20G 8G21G27G24G10G13R 4R 3R14
                                R21R13R 5R20
  20868555.699   109664998.47249     -2161.487    20868555.779    85453247.24948
     -1684.281  
  21150879.107   111148614.46348     -2250.367    21150880.195    86609308.44548
     -1753.535  
  20162959.675   105957078.87149      1067.187    20162958.872    82563954.74448
       831.569  
  24667581.430   129629021.61945       715.777    24667585.200   101009635.90445
       557.745  
  25197509.910   132413815.86045      2892.370    25197511.760   103179602.98841
      2253.804  
  24017381.436   126212200.02546     -1139.043    24017385.189    98347164.73945
      -887.570  
  21300013.697   111932343.98848      2237.547    21300016.131    87220033.76647
      1743.543  
  22459307.029   118024477.37948      2767.581    22459309.949    91967145.77747
      2156.558  
  23260995.085   122237342.89147     -3363.120    23260995.075    95249882.82045
     -2620.613  
  19759126.045   105809223.55808     -1486.148    19759128.618    82296073.90608
     -1155.894  
  23268332.637   124557202.81404     -3482.687    23268341.823    96877857.73303
     -2708.765  
  21620999.523   115252086.53205      2817.254    21621002.706    89640531.34703
      2191.194  
  22419611.921   119971894.27407      3036.473    22419615.620    93311483.21407
      2361.698  
  21798836.702   116404571.96604     -1072.250    21798841.534    90536910.97405
      -833.973  
  20156272.319   107746865.60709      1943.495    20156276.746    83803149.57708
      1511.605  
  20478686.174   109508743.80505     -1260.159    20478692.692    85173494.74608
      -980.124  
 20 09 30 07 16 20.0000000  0 16G15G18G20G 8G21G27G24G10G13R 4R 3R14
                                R21R13R 5R20
  20870613.324   109675811.77049     -2163.386    20870613.533    85461673.18848
     -1685.762  
  21153021.548   111159873.34748     -2253.004    21153022.695    86618081.59048
     -1755.590  
  20161945.617   105951749.02049      1064.968    20161944.636    82559801.61748
       829.847  
  24666901.639   129625449.54546       713.495    24666905.704   101006852.45045
       555.969  
  25194758.486   132399356.68545      2891.429    25194759.812   103168336.06344
      2253.055  
  24018466.942   126217904.68347     -1142.297    24018470.691    98351609.93944
      -890.105  
  21297886.248   111921163.57948      2234.886    21297888.530    87211321.74947
      1741.465  
  22456674.289   118010642.14748      2766.820    22456677.270    91956365.08747
      2155.964  
  23264195.417   122254160.50347     -3363.706    23264195.473    95262987.41645
     -2621.078  
  19760514.671   105816659.46209     -1487.979    19760517.406    82301857.37808
     -1157.320  
  23271586.079   124574617.36504     -3482.184    23271595.045    96891402.47505
     -2708.352  
  21618358.494   115238008.26805      2814.746    21618361.445    89629581.63403
      2189.241  
  22416776.432   119956721.00007      3033.359    22416780.044    93299681.79207
      2359.281  
  21799842.667   116409943.20104     -1076.398    21799847.530    90541088.60505
      -837.199  
  20154455.481   107737153.09709      1941.723    20154459.896    83795595.40808
      1510.230  
  20479867.089   109515057.43805     -1264.882    20479873.426    85178405.35107
      -983.800  
 20 09 30 07 16 25.0000000  0 15G15G18G20G 8G21G27G24G10G13R 4R14R21
                                R13R 5R20
  20872671.158   109686625.85249     -2163.647    20872671.284    85470099.74348
     -1685.964  
  21155164.764   111171136.23948     -2253.847    21155165.913    86626857.86747
     -1756.250  
  20160931.758   105946421.49749      1064.468    20160930.910    82555650.29648
       829.453  
  24666223.000   129621883.52245       712.133    24666227.173   101004073.76244
       554.909  
  25192005.857   132384892.86546      2892.777    25192007.121   103157065.53643
      2254.098  
  24019553.620   126223614.86946     -1143.301    24019557.438    98356059.42343
      -890.886  
  21295759.748   111909988.18148      2233.757    21295761.940    87202613.65847
      1740.590  
  22454040.591   117996802.46748      2767.534    22454043.380    91945580.93147
      2156.520  
  23267394.619   122270972.76448     -3362.440    23267394.558    95276087.88345
     -2620.090  
  19761903.470   105824096.00809     -1488.207    19761906.190    82307641.36408
     -1157.496  
  21615718.438   115223936.69004      2812.655    21615721.308    89618637.11103
      2187.624  
  22413942.053   119941554.41807      3031.602    22413945.889    93287885.56607
      2357.914  
  21800850.764   116415327.00604     -1078.141    21800855.890    90545276.02005
      -838.555  
  20152638.494   107727440.60409      1941.636    20152643.054    83788041.23708
      1510.156  
  20481050.276   109521384.28505     -1267.503    20481056.501    85183326.22307
      -985.840  
 20 09 30 07 16 30.0000000  0 15G15G18G20G 8G21G27G24G10G13R 4R14R21
                                R13R 5R20
  20874731.999   109697455.58049     -2167.828    20874732.190    85478538.49548
     -1689.215  
  21157311.627   111182418.05248     -2258.652    21157312.800    86635648.88448
     -1759.992  
  20159921.341   105941111.28549      1059.921    20159920.304    82551512.46948
       825.909  
  24665548.368   129618338.33745       706.679    24665552.844   101001311.24745
       550.655  
  25189255.308   132370439.57246      2888.906    25189256.156   103145803.29344
      2251.097  
  24020644.304   126229345.57947     -1148.519    24020647.900    98360524.93245
      -894.949  
  21293636.832   111898832.55748      2228.641    21293639.036    87193920.97047
      1736.601  
  22451409.009   117982973.25748      2764.491    22451411.729    91934804.92047
      2154.148  
  23270595.760   122287794.68848     -3365.741    23270595.614    95289195.86345
     -2622.660  
  19763295.015   105831548.48209     -1492.516    19763297.849    82313437.73008
     -1160.847  
  21613082.503   115209886.83105      2807.777    21613085.339    89607709.43303
      2183.827  
  22411111.913   119926409.67207      3026.612    22411115.832    93276106.33107
      2354.031  
  21801864.232   116420738.40004     -1084.726    21801869.118    90549484.87805
      -843.675  
  20150824.523   107717743.51409      1937.581    20150829.117    83780499.05208
      1507.003  
  20482238.772   109527739.45605     -1274.121    20482244.874    85188269.12807
      -990.988  
 20 09 30 07 16 35.0000000  0 15G15G18G20G 8G21G27G24G10G13R 4R14R21
                                R13R 5R20
  20876795.641   109708300.06448     -2169.995    20876795.764    85486988.79848
     -1690.897  
  21159461.733   111193717.87048     -2261.581    21159463.067    86644453.93147
     -1762.276  
  20158913.961   105935817.46949      1057.363    20158912.899    82547387.41048
       823.913  
  24664877.304   129614812.96945       703.598    24664882.101   100998564.22744
       548.254  
  25186506.576   132355995.76146      2888.026    25186507.342   103134548.35941
      2250.401  
  24021738.654   126235095.86047     -1151.632    24021742.100    98365005.62545
      -897.383  
  21291517.712   111887696.03548      2225.617    21291520.009    87185243.15847
      1734.241  
  22448779.213   117969153.67949      2763.281    22448782.004    91924036.41747
      2153.202  
  23273798.638   122304625.33147     -3366.742    23273798.304    95302310.62245
     -2623.441  
  19764689.431   105839015.82709     -1494.668    19764692.333    82319245.61408
     -1162.526  
  21610450.640   115195857.70705      2803.875    21610453.383    89596797.83103
      2180.781  
  22408285.697   119911285.99007      3022.859    22408289.503    93264343.45806
      2351.112  
  21802882.540   116426176.48304     -1090.066    21802887.528    90553714.50405
      -847.828  
  20149013.159   107708060.70209      1935.398    20149017.553    83772967.98308
      1505.309  
  20483432.483   109534122.20305     -1279.023    20483438.338    85193233.49007
      -994.796  
 20 09 30 07 16 40.0000000  0 15G15G18G20G 8G21G27G24G10G13R 4R14R21
                                R13R 5R20
  20878860.971   109719154.04248     -2171.702    20878861.315    85495446.41448
     -1692.237  
  21161614.513   111205030.43248     -2263.878    21161615.806    86653268.91247
     -1764.066  
  20157908.650   105930534.77149      1055.566    20157907.681    82543271.02248
       822.520  
  24664209.318   129611302.33245       700.976    24664214.074   100995828.67445
       546.215  
  25183759.101   132341556.15346      2887.499    25183759.187   103123296.71944
      2249.996  
  24022835.834   126240860.45947     -1154.559    24022839.009    98369497.59644
      -899.648  
  21289401.070   111876573.28848      2223.249    21289403.415    87176576.09247
      1732.401  
  22446150.400   117955338.39149      2762.711    22446153.005    91913271.25947
      2152.758  
  23277002.055   122321459.33747     -3367.058    23277001.723    95315428.02545
     -2623.687  
  19766085.694   105846492.66109     -1496.292    19766088.480    82325060.95208
     -1163.785  
  21607821.713   115181843.98604      2801.242    21607824.739    89585898.27103
      2178.733  
  22405462.406   119896177.95807      3020.105    22405466.194    93252592.77707
      2348.973  
  21803904.886   116431635.91204     -1093.858    21803909.681    90557960.73605
      -850.784  
  20147203.460   107698386.92109      1933.859    20147207.849    83765443.92908
      1504.121  
  20484630.370   109540527.15605     -1282.921    20484636.149    85198215.12107
      -997.832  
 20 09 30 07 16 45.0000000  0 15G15G18G20G 8G21G27G24G10G13R 4R14R21
                                R13R 5R20
  20880928.213   109730018.21849     -2173.840    20880928.821    85503912.00648
     -1693.906  
  21163769.776   111216356.41648     -2266.718    21163771.196    86662094.34247
     -1766.276  
  20156905.598   105925263.94649      1053.144    20156904.443    82539163.89748
       820.633  
  24663544.254   129607807.11945       697.573    24663549.105   100993105.08145
       543.555  
  25181012.256   132327121.54246      2886.905    25181012.640   103112049.00643
      2249.433  
  24023935.842   126246640.06847     -1157.203    24023938.900    98374001.15145
      -901.723  
  21287287.066   111865464.99748      2220.504    21287289.540    87167920.28247
      1730.261  
  22443522.525   117941528.16049      2761.737    22443524.979    91902510.02547
      2152.000  
  23280206.284   122338297.48648     -3368.019    23280205.682    95328548.64045
     -2624.434  
  19767483.838   105853979.74909     -1498.269    19767486.759    82330884.23408
     -1165.324  
  21605196.040   115167846.45104      2797.882    21605199.059    89575011.31602
      2176.132  
  22402642.219   119881086.34806      3016.659    22402645.969    93240854.87207
      2346.293  
  21804931.452   116437117.34304     -1097.808    21804936.349    90562224.07005
      -853.854  
  20145395.596   107688722.78509      1931.805    20145400.029    83757927.39508
      1502.515  
  20485832.327   109546954.84205     -1288.051    20485838.051    85203214.42008
     -1001.820  
 20 09 30 07 16 50.0000000  0 15G15G18G20G 8G21G27G24G10G13R 4R14R21
                                R13R 5R20
  20882997.394   109740892.46449     -2176.559    20882998.003    85512385.43048
     -1696.020  
  21165927.534   111227695.73049     -2269.848    21165929.067    86670930.18548
     -1768.711  
  20155904.820   105920004.88949      1049.996    20155903.652    82535065.92348
       818.176  
  24662882.021   129604327.21346       693.574    24662886.829   100990393.48745
       540.445  
  25178266.278   132312691.92145      2884.805    25178267.281   103100805.12543
      2247.894  
  24025038.487   126252434.63347     -1161.089    24025041.380    98378516.37544
      -904.749  
  21285176.081   111854371.07548      2216.651    21285178.341    87159275.68247
      1727.261  
  22440895.436   117927722.90149      2759.866    22440897.776    91891752.69447
      2150.546  
  23283411.285   122355139.63347     -3369.698    23283410.610    95341672.41145
     -2625.738  
  19768884.032   105861477.06908     -1501.031    19768886.736    82336715.49608
     -1167.472  
  21602573.410   115153865.17105      2794.199    21602576.239    89564136.99703
      2173.266  
  22399824.990   119866011.13207      3012.977    22399828.922    93229129.69107
      2343.422  
  21805962.076   116442620.87804     -1104.203    21805966.947    90566504.60005
      -858.824  
  20143589.659   107679068.33209      1929.128    20143593.894    83750418.36708
      1500.429  
  20487038.840   109553405.13705     -1293.145    20487044.257    85208231.31207
     -1005.781  
 20 09 30 07 16 55.0000000  0 15G15G18G20G 8G21G27G24G10G13R 4R14R21
                                R13R 5R20
  20885069.220   109751780.23548     -2178.257    20885069.867    85520869.43048
     -1697.343  
  21168088.500   111239051.74348     -2272.086    21168090.110    86679779.01348
     -1770.461  
  20154906.902   105914760.97749      1047.941    20154905.838    82530979.75948
       816.577  
  24662223.477   129600866.04446       690.854    24662228.156   100987696.48746
       538.327  
  25175522.052   132298270.57545      2883.999    25175522.783   103089567.70743
      2247.269  
  24026144.720   126258247.42947     -1163.562    24026147.444    98383045.76945
      -906.683  
  21283068.330   111843295.07948      2213.878    21283070.771    87150645.03547
      1725.101  
  22438270.036   117913925.95449      2759.109    22438272.197    91881001.82447
      2149.956  
  23286617.771   122371989.20747     -3370.281    23286616.869    95354801.91245
     -2626.194  
  19770286.495   105868987.94808     -1502.883    19770289.355    82342557.26208
     -1168.914  
  21599954.374   115139903.42205      2791.511    21599957.105    89553277.83301
      2171.168  
  22397011.424   119850955.67307      3009.741    22397015.466    93217419.92807
      2340.914  
  21806997.389   116448149.73604     -1107.535    21807002.275    90570804.80205
      -861.422  
  20141786.087   107669427.01608      1927.554    20141790.158    83742919.56308
      1499.206  
  20488249.799   109559881.80405     -1297.167    20488255.276    85213268.71908
     -1008.914  
 20 09 30 07 17  0.0000000  0 15G15G18G20G 8G21G27G24G10G13R 4R14R21
                                R13R 5R20
  20887142.200   109762674.75648     -2179.941    20887142.971    85529358.69448
     -1698.651  
  21170251.371   111250417.86648     -2274.550    21170252.843    86688635.73048
     -1772.382  
  20153910.714   105909525.60349      1045.765    20153909.702    82526900.24748
       814.882  
  24661566.996   129597416.89846       688.206    24661571.625   100985008.85146
       536.269  
  25172777.918   132283850.92745      2883.503    25172778.480   103078331.65343
      2246.890  
  24027253.139   126264071.89447     -1166.324    24027255.926    98387584.28944
      -908.831  
  21280962.697   111832230.21648      2211.671    21280965.161    87142023.07147
      1723.378  
  22435644.995   117900130.74149      2758.577    22435647.197    91870252.32647
      2149.543  
  23289824.254   122388839.51148     -3370.464    23289823.515    95367932.02845
     -2626.335  
  19771690.467   105876505.68108     -1504.565    19771693.162    82348404.37908
     -1170.227  
  21597337.691   115125954.52905      2788.655    21597340.303    89542428.74603
      2168.952  
  22394200.484   119835913.26207      3006.656    22394204.677    93205720.26407
      2338.512  
  21808036.278   116453697.40504     -1111.359    21808041.094    90575119.66305
      -864.395  
  20139983.490   107659791.97909      1926.210    20139987.582    83735425.64208
      1498.159  
  20489464.600   109566377.85905     -1301.461    20489470.118    85218321.21207
     -1012.245  
 20 09 30 07 17  5.0000000  0 15G15G18G20G 8G21G27G24G10G13R 4R14R21
                                R13R 5R20
  20889217.298   109773579.43849     -2182.155    20889218.015    85537855.80848
     -1700.390  
  21172416.940   111261797.31849     -2277.340    21172418.277    86697502.82047
     -1774.555  
  20152916.796   105904302.02549      1043.469    20152915.550    82522829.92648
       813.090  
  24660913.802   129593983.12546       685.245    24660918.409   100982333.16845
       533.949  
  25170034.918   132269436.24145      2882.296    25170036.064   103067099.45143
      2245.949  
  24028364.588   126269911.22347     -1169.323    24028367.061    98392134.44945
      -911.160  
  21278859.739   111821179.78548      2208.308    21278862.235    87133412.34747
      1720.762  
  22433020.896   117886340.57249      2757.374    22433022.936    91859506.73147
      2148.605  
  23293031.484   122405693.90147     -3371.229    23293030.835    95381065.30945
     -2626.937  
  19773096.289   105884033.64209     -1506.659    19773098.914    82354259.47808
     -1171.843  
  21594723.967   115112021.84305      2784.813    21594726.446    89531592.18303
      2165.960  
  22391392.592   119820887.22906      3003.499    22391396.682    93194033.38307
      2336.058  
  21809079.344   116459267.04205     -1116.319    21809084.068    90579451.59405
      -868.249  
  20138182.956   107650166.75209      1923.866    20138186.985    83727939.35908
      1496.335  
  20490683.808   109572896.67005     -1306.319    20490689.100    85223391.39708
     -1016.027  
 20 09 30 07 17 10.0000000  0 15G15G18G20G 8G21G27G24G10G13R 4R14R21
                                R13R 5R20
  20891294.530   109784495.08149     -2184.191    20891295.250    85546361.49048
     -1701.972  
  21174584.992   111273190.97849     -2280.198    21174586.419    86706380.99948
     -1776.781  
  20151925.147   105899091.15749      1040.984    20151924.117    82518769.51548
       811.152  
  24660263.440   129590565.54146       681.723    24660267.958   100979670.11745
       531.355  
  25167292.990   132255027.40445      2881.109    25167294.157   103055871.73444
      2245.008  
  24029478.847   126275766.38547     -1172.535    24029481.270    98396696.91845
      -913.664  
  21276759.830   111810144.59548      2205.358    21276762.209    87124813.49847
      1718.457  
  22430397.943   117872556.29449      2756.363    22430399.848    91848765.74747
      2147.815  
  23296239.884   122422553.18747     -3372.534    23296239.122    95394202.39745
     -2627.953  
  19774504.142   105891572.66208     -1508.977    19774506.820    82360123.16808
     -1173.648  
  21592113.785   115098106.38804      2780.984    21592115.887    89520769.10303
      2162.988  
  22388587.725   119805878.59907      2999.852    22388592.075    93182360.01207
      2333.215  
  21810126.614   116464859.56205     -1120.554    21810131.320    90583801.35105
      -871.546  
  20136384.291   107640551.94509      1921.973    20136388.314    83720461.17408
      1494.863  
  20491907.369   109579439.16405     -1310.815    20491912.663    85228480.00708
     -1019.526  
 20 09 30 07 17 15.0000000  0 15G15G18G20G 8G21G27G24G10G13R 4R14R21
                                R13R 5R20
  20893373.491   109795420.66149     -2186.543    20893374.198    85554874.93248
     -1703.805  
  21176755.706   111284597.81148     -2282.808    21176757.204    86715269.43947
     -1778.815  
  20150935.604   105893891.98149      1038.543    20150934.878    82514718.21548
       809.253  
  24659616.054   129587163.25646       678.406    24659620.304   100977018.98745
       528.625  
  25164551.931   132240623.38646      2880.230    25164553.430   103044647.85345
      2244.339  
  24030595.995   126281636.34847     -1175.819    24030598.574    98401270.90345
      -916.223  
  21274662.586   111799123.81448      2202.414    21274664.874    87116225.88547
      1716.167  
  22427775.750   117858776.89049      2755.203    22427777.814    91838028.55047
      2146.906  
  23299448.844   122439416.29347     -3373.449    23299448.026    95407342.47745
     -2628.663  
  19775913.869   105899121.65208     -1511.015    19775916.470    82365994.59308
     -1175.238  
  21589506.165   115084206.77604      2778.074    21589508.246    89509958.31101
      2160.727  
  22385786.006   119790886.25407      2996.613    22385790.376    93170699.30407
      2330.699  
  21811177.983   116470473.87304     -1125.312    21811182.636    90588168.02405
      -875.245  
  20134587.458   107630946.75309      1919.862    20134591.406    83712990.47708
      1493.226  
  20493135.072   109586004.21305     -1315.465    20493140.380    85233586.14508
     -1023.145  
 20 09 30 07 17 20.0000000  0 15G15G18G20G 8G21G27G24G10G13R 4R14R21
                                R13R 5R20
  20895454.573   109806356.53749     -2188.097    20895455.347    85563396.39048
     -1705.012  
  21178929.030   111296018.23948     -2285.405    21178930.425    86724168.47748
     -1780.835  
  20149948.509   105888704.91849      1036.445    20149947.801    82510676.36448
       807.621  
  24658971.466   129583776.54946       675.625    24658975.667   100974379.99445
       526.461  
  25161812.058   132226224.59746      2879.327    25161813.736   103033428.01544
      2243.629  
  24031715.968   126287521.37646     -1178.210    24031718.640    98405856.60544
      -918.089  
  21272568.168   111788117.72948      2199.733    21272570.524    87107649.71547
      1714.078  
  22425154.665   117845002.81048      2754.477    22425156.741    91827295.50747
      2146.343  
  23302658.600   122456283.70547     -3373.827    23302657.663    95420485.90745
     -2628.960  
  19777325.661   105906681.14008     -1512.793    19777328.295    82371874.19808
     -1176.616  
  21586901.930   115070323.92304      2774.609    21586903.804    89499160.49701
      2158.027  
  22382987.335   119775910.65406      2993.703    22382991.751    93159051.61007
      2328.437  
  21812233.658   116476110.46205     -1129.422    21812238.047    90592552.04405
      -878.441  
  20132792.533   107621351.53809      1918.187    20132796.485    83705527.54408
      1491.921  
  20494367.037   109592592.14505     -1319.702    20494372.446    85238710.08908
     -1026.441  
 20 09 30 07 17 25.0000000  0 15G15G18G20G 8G21G27G24G10G13R 4R14R21
                                R13R 5R20
  20897537.946   109817304.08049     -2190.667    20897538.429    85571926.95148
     -1707.015  
  21181105.051   111307453.52448     -2288.585    21181106.538    86733079.07847
     -1783.316  
  20148964.073   105883531.26749      1033.378    20148963.166    82506644.94848
       805.230  
  24658330.172   129580406.74246       672.620    24658334.727   100971754.17045
       524.117  
  25159073.574   132211832.39546      2877.813    25159074.923   103022213.28545
      2242.449  
  24032838.964   126293422.94746     -1181.843    24032841.874    98410455.25044
      -920.917  
  21270476.795   111777127.67748      2196.214    21270479.370    87099086.03948
      1711.336  
  22422534.893   117831235.31249      2752.745    22422536.890    91816567.59247
      2144.996  
  23305869.508   122473156.67247     -3374.957    23305868.543    95433633.67245
     -2629.840  
  19778739.497   105914252.38709     -1515.487    19778742.043    82377762.94108
     -1178.718  
  21584300.921   115056458.86204      2771.589    21584303.184    89488376.65902
      2155.688  
  22380192.186   119760953.18607      2989.339    22380196.743    93147418.00507
      2325.038  
  21813293.593   116481770.54904     -1134.593    21813297.813    90596954.34005
