     2.11           OBSERVATION DATA    M                   RINEX VERSION / TYPE
LEICA GEO OFFICE 8.4                    30-9-20 21:26       PGM / RUN BY / DATE
                                                            OBSERVER / AGENCY
SAYA                                                        MARKER NAME
SAYA                                                        MARKER NUMBER
352348              LEICA GX1220GG      4.10                REC # / TYPE / VERS
                    LEIAX1202GG                             ANT # / TYPE
 -1197356.7969  3781141.3944  4979341.0668                  APPROX POSITION XYZ
        1.8580        0.0000        0.0000                  ANTENNA: DELTA H/E/N
L1PhaOff:   0.0644  L2PhaOff:   0.0640                      COMMENT
     1     1                                                WAVELENGTH FACT L1/2
     6    C1    L1    D1    P2    L2    D2                  # / TYPES OF OBSERV
  2020     9    30     5    39   45.0000000     GPS         TIME OF FIRST OBS
  2020     9    30     7    10   45.0000000     GPS         TIME OF LAST OBS
    18                                                      LEAP SECONDS
    21                                                      # OF SATELLITES
          C1    L1    D1    P2    L2    D2                  COMMENT
   G 1     0     0     0     0     0     0                  PRN / # OF OBS
   G 2     0     0     0     0     0     0                  PRN / # OF OBS
   G 3     0     0     0     0     0     0                  PRN / # OF OBS
   G 4     0     0     0     0     0     0                  PRN / # OF OBS
   G 5   483   483   483   462   462   462                  PRN / # OF OBS
   G 6     0     0     0     0     0     0                  PRN / # OF OBS
   G 7     0     0     0     0     0     0                  PRN / # OF OBS
   G 8    24    24    24    23    23    23                  PRN / # OF OBS
   G 9     0     0     0     0     0     0                  PRN / # OF OBS
   G10   804   804   804   803   803   803                  PRN / # OF OBS
   G11     0     0     0     0     0     0                  PRN / # OF OBS
   G12     0     0     0     0     0     0                  PRN / # OF OBS
   G13  1093  1093  1093  1093  1093  1093                  PRN / # OF OBS
   G14     0     0     0     0     0     0                  PRN / # OF OBS
   G15  1093  1093  1093  1093  1093  1093                  PRN / # OF OBS
   G16     0     0     0     0     0     0                  PRN / # OF OBS
   G17     0     0     0     0     0     0                  PRN / # OF OBS
   G18  1093  1093  1093  1093  1093  1093                  PRN / # OF OBS
   G19     0     0     0     0     0     0                  PRN / # OF OBS
   G20  1093  1093  1093  1093  1093  1093                  PRN / # OF OBS
   G21     0     0     0     0     0     0                  PRN / # OF OBS
   G22     0     0     0     0     0     0                  PRN / # OF OBS
   G23     0     0     0     0     0     0                  PRN / # OF OBS
   G24   913   913   913   913   913   913                  PRN / # OF OBS
   G25     0     0     0     0     0     0                  PRN / # OF OBS
   G26     0     0     0     0     0     0                  PRN / # OF OBS
   G27   990   990   990   986   986   986                  PRN / # OF OBS
   G28     0     0     0     0     0     0                  PRN / # OF OBS
   G29   354   354   354   354   354   354                  PRN / # OF OBS
   G30   362   362   362   352   352   352                  PRN / # OF OBS
   G31     0     0     0     0     0     0                  PRN / # OF OBS
   G32     0     0     0     0     0     0                  PRN / # OF OBS
   R 1     0     0     0     0     0     0                  PRN / # OF OBS
   R 2     0     0     0     0     0     0                  PRN / # OF OBS
   R 3  1093  1093  1093  1093  1093  1093                  PRN / # OF OBS
   R 4  1093  1093  1093  1093  1093  1093                  PRN / # OF OBS
   R 5  1070  1070  1070  1068  1068  1068                  PRN / # OF OBS
   R 6     0     0     0     0     0     0                  PRN / # OF OBS
   R 7     0     0     0     0     0     0                  PRN / # OF OBS
   R 8     0     0     0     0     0     0                  PRN / # OF OBS
   R 9     0     0     0     0     0     0                  PRN / # OF OBS
   R10     0     0     0     0     0     0                  PRN / # OF OBS
   R11     0     0     0     0     0     0                  PRN / # OF OBS
   R12   797   797   797   793   793   793                  PRN / # OF OBS
   R13   597   597   597   597   597   597                  PRN / # OF OBS
   R14   238   238   238   226   226   226                  PRN / # OF OBS
   R15     0     0     0     0     0     0                  PRN / # OF OBS
   R16     0     0     0     0     0     0                  PRN / # OF OBS
   R17     0     0     0     0     0     0                  PRN / # OF OBS
   R18   460   460   460   460   460   460                  PRN / # OF OBS
   R19   957   957   957   948   948   948                  PRN / # OF OBS
   R20  1091  1091  1091  1091  1091  1091                  PRN / # OF OBS
   R21   212   212   212   211   211   211                  PRN / # OF OBS
   R22     0     0     0     0     0     0                  PRN / # OF OBS
   R23     0     0     0     0     0     0                  PRN / # OF OBS
   R24     0     0     0     0     0     0                  PRN / # OF OBS
                                                            END OF HEADER
 20 09 30 05 39 45.0000000  0 12G15G18G20G29G 5G30G13R 4R 3R18R12R19
  20189011.364   106093969.73359      1158.277    20189011.518    82670627.34958
       902.551  
  20638267.441   108454827.97459      1322.663    20638267.486    84510255.71758
      1030.645  
  22544509.652   118472198.12558      2961.894    22544508.864    92315993.62255
      2307.965  
  23520879.049   123603056.59257     -3498.030    23520878.214    96314065.99055
     -2725.741  
  22804287.586   119837336.53557     -3020.468    22804287.694    93379743.10057
     -2353.616  
  24031953.542   126288767.68257     -1290.965    24031956.191    98406840.21255
     -1005.940  
  20622462.576   108371772.69459      -958.191    20622462.163    84445535.24757
      -746.647  
  19673088.918   105348495.73919      1472.699    19673091.174    81937729.83518
      1145.433  
  20021139.130   107174722.53919     -2176.296    20021142.604    83358135.78518
     -1692.679  
  21710600.607   115892655.02017     -4127.375    21710607.581    90138762.12417
     -3210.183  
  22611245.701   120785215.57217       406.719    22611250.979    93944080.57817
       316.336  
  19528891.427   104466398.63316      -923.823    19528893.675    81251653.53417
      -718.534  
 20 09 30 05 39 50.0000000  0 12G15G18G20G29G 5G30G13R 4R 3R18R12R19
  20187913.204   106088198.79649      1150.938    20187913.339    82666130.51948
       896.835  
  20637012.650   108448233.60049      1315.819    20637012.741    84505117.24748
      1025.316  
  22541694.305   118457403.34248      2956.766    22541693.662    92304465.21646
      2303.969  
  23524210.249   123620561.76147     -3503.543    23524209.412    96327706.37345
     -2730.042  
  22807164.061   119852452.07647     -3025.315    22807163.618    93391521.43247
     -2357.395  
  24033185.552   126295241.03247     -1297.699    24033187.853    98411884.35245
     -1011.203  
  20623378.132   108376583.75549      -965.582    20623377.701    84449284.13147
      -752.402  
  19671717.421   105341151.65409      1465.651    19671719.681    81932017.77208
      1139.949  
  20023175.252   107185622.46908     -2182.707    20023178.830    83366613.52708
     -1697.659  
  21714469.732   115913309.23707     -4133.499    21714476.657    90154826.49607
     -3214.949  
  22610869.466   120783205.38207       398.296    22610874.611    93942517.11506
       309.784  
  19529759.286   104471039.40606      -932.297    19529761.542    81255263.02507
      -725.125  
 20 09 30 05 39 55.0000000  0 13G15G18G20G29G 5G30G13R 4R 3R18R12R20
                                R19
  20186816.717   106082436.50349      1150.660    20186816.895    82661640.42048
       896.613  
  20635758.979   108441645.72949      1315.894    20635758.989    84499983.84248
      1025.366  
  22538878.268   118442605.78148      2958.648    22538877.690    92292934.65646
      2305.440  
  23527541.322   123638065.47847     -3501.679    23527539.864    96341345.61245
     -2728.586  
  22810039.677   119867564.88447     -3022.929    22810039.183    93403297.64247
     -2355.531  
  24034418.736   126301721.73547     -1298.116    24034421.211    98416934.21345
     -1011.530  
  20624295.368   108381403.48849      -965.835    20624294.720    84453039.76347
      -752.601  
  19670347.188   105333814.02609      1465.776    19670349.423    81926310.72408
      1140.051  
  20025211.959   107196525.74708     -2182.145    20025215.532    83375093.84808
     -1697.227  
  21718339.675   115933966.03407     -4132.676    21718346.240    90170892.88307
     -3214.309  
  22610495.688   120781209.57407       396.574    22610500.686    93940964.83406
       308.351  
  21932372.891   117282252.40915      3516.413    21932379.263    91219556.04717
      2734.987  
  19530629.811   104475695.75306      -933.715    19530632.071    81258884.62607
      -726.226  
 20 09 30 05 40  0.0000000  0 13G15G18G20G29G 5G30G13R 4R 3R18R12R20
                                R19
  20185725.195   106076700.01549      1144.526    20185725.318    82657170.43948
       891.840  
  20634509.818   108435081.53049      1310.246    20634509.853    84494868.89948
      1020.973  
  22536065.144   118427822.65648      2954.854    22536064.742    92281415.35446
      2302.484  
  23530875.255   123655584.97747     -3505.715    23530873.842    96354997.16546
     -2731.729  
  22812918.534   119882692.22347     -3026.843    22812917.615    93415085.18247
     -2358.578  
  24035656.768   126308226.91847     -1303.468    24035659.375    98422003.19445
     -1015.694  
  20625217.556   108386249.08649      -972.137    20625216.882    84456815.54947
      -757.511  
  19668981.287   105326500.40609      1460.210    19668983.859    81920622.35508
      1135.715  
  20027252.510   107207449.63208     -2187.086    20027256.402    83383590.17908
     -1701.070  
  21722213.133   115954642.87807     -4137.671    21722219.733    90186974.87507
     -3218.190  
  22610128.101   120779245.67507       389.358    22610133.212    93939437.35006
       302.831  
  21929086.835   117264684.51605      3510.589    21929094.076    91205892.13207
      2730.456  
  19531506.337   104480385.13706      -941.305    19531508.821    81262531.91907
      -732.129  
 20 09 30 05 40  5.0000000  0 14G15G18G20G29G 5G30G13R 4R 3R18R12R 5
                                R20R19
  20184637.284   106070983.91249      1141.726    20184637.673    82652716.34148
       889.655  
  20633264.137   108428535.53149      1307.843    20633264.349    84489768.11448
      1019.097  
  22533253.763   118413048.46648      2954.539    22533253.281    92269902.98646
      2302.233  
  23534211.176   123673114.76847     -3506.444    23534209.863    96368656.76844
     -2732.297  
  22815798.759   119897828.53247     -3027.741    22815797.850    93426879.70247
     -2359.285  
  24036898.524   126314751.20546     -1306.133    24036901.060    98427087.06345
     -1017.766  
  20626143.569   108391115.06649      -974.727    20626142.964    84460607.23247
      -759.526  
  19667618.897   105319205.27409      1457.667    19667621.666    81914948.37008
      1133.742  
  20029295.828   107218388.70408     -2188.687    20029299.948    83392098.36608
     -1702.312  
  21726089.538   115975334.11407     -4139.226    21726096.221    90203068.05507
     -3219.401  
  22609765.696   120777308.08307       385.612    22609770.348    93937930.33406
       299.917  
  23303736.863   124571832.31815      3689.133           0.000           0.0000 
         0.000  
  21925804.605   117247133.89305      3508.930    21925812.031    91192241.65607
      2729.167  
  19532388.081   104485101.87206      -945.819    19532390.670    81266200.49107
      -735.640  
 20 09 30 05 40 10.0000000  0 14G15G18G20G29G 5G30G13R 4R 3R18R12R 5
                                R20R19
  20183552.786   106065284.17649      1138.229    20183552.921    82648274.99248
       886.933  
  20632021.152   108422003.72349      1304.789    20632021.287    84484678.39048
      1016.714  
  22530443.289   118398279.23348      2952.965    22530442.975    92258394.50446
      2301.011  
  23537548.208   123690650.70847     -3507.800    23537546.898    96382321.11846
     -2733.354  
  22818679.904   119912969.86647     -3029.249    22818679.366    93438678.12246
     -2360.456  
  24038142.862   126321290.49647     -1309.374    24038145.311    98432182.62645
     -1020.296  
  20627072.583   108395997.37949      -978.147    20627071.956    84464411.64347
      -762.194  
  19666259.136   105311924.50309      1454.683    19666262.034    81909285.55008
      1131.418  
  20031341.302   107229338.72508     -2191.094    20031345.733    83400615.03708
     -1704.187  
  21729967.492   115996035.67507     -4141.542    21729974.102    90219169.26407
     -3221.202  
  22609407.173   120775392.67307       380.608    22609411.417    93936440.56606
       296.026  
  23300287.040   124553389.41705      3687.277    23300293.761    96874879.19713
      2867.883  
  21922525.334   117229596.47005      3505.913    21922532.707    91178601.43607
      2726.819  
  19533274.553   104489842.02306      -950.301    19533276.858    81269887.27207
      -739.125  
 20 09 30 05 40 15.0000000  0 14G15G18G20G29G 5G30G13R 4R 3R18R12R 5
                                R20R19
  20182471.330   106059601.11849      1135.132    20182471.600    82643846.63548
       884.519  
  20630781.018   108415486.46449      1302.202    20630781.178    84479600.00648
      1014.698  
  22527633.796   118383515.24648      2952.418    22527633.560    92246890.10646
      2300.586  
  23540886.686   123708193.24848     -3509.074    23540885.043    96395990.60945
     -2734.347  
  22821562.004   119928116.49547     -3029.762    22821561.558    93450480.68446
     -2360.858  
  24039390.321   126327845.09147     -1312.354    24039392.866    98437290.09045
     -1022.612  
  20628004.823   108400896.33549      -981.355    20628004.374    84468229.01947
      -764.691  
  19664902.165   105304658.36409      1451.878    19664905.233    81903634.11408
      1129.233  
  20033389.076   107240300.17908     -2193.293    20033393.410    83409140.61108
     -1705.898  
  21733847.569   116016747.97507     -4143.285    21733854.033    90235278.82907
     -3222.559  
  22609052.932   120773499.75307       376.328    22609057.070    93934968.31306
       292.699  
  23296837.615   124534951.82505      3687.468    23296843.970    96860538.83004
      2868.026  
  21919248.155   117212072.63705      3503.977    21919255.587    91164971.78907
      2725.315  
  19534164.904   104494605.80106      -955.042    19534167.404    81273592.43407
      -742.815  
 20 09 30 05 40 20.0000000  0 14G15G18G20G29G 5G30G13R 4R 3R18R12R 5
                                R20R19
  20181392.570   106053932.54149      1132.370    20181392.961    82639429.56848
       882.366  
  20629543.147   108408981.53249      1299.886    20629543.248    84474531.23548
      1012.897  
  22524824.841   118368754.33648      2951.929    22524824.647    92235388.10746
      2300.202  
  23544225.772   123725740.07447     -3509.602    23544224.151    96409663.45045
     -2734.757  
  22824444.776   119943266.16047     -3030.090    22824444.294    93462285.60046
     -2361.112  
  24040640.091   126334412.83347     -1314.965    24040642.540    98442407.82844
     -1024.648  
  20628939.744   108405809.72249      -983.961    20628939.269    84472057.63347
      -766.722  
  19663547.422   105297404.61709      1449.586    19663550.570    81897992.30608
      1127.452  
  20035438.230   107251270.71208     -2194.874    20035442.998    83417673.23808
     -1707.129  
  21737729.174   116037468.53007     -4144.805    21737735.725    90251394.80107
     -3223.745  
  22608702.524   120771627.18707       372.647    22608706.342    93933511.87606
       289.835  
  23293387.232   124516517.48404      3686.054    23293395.944    96846201.02003
      2866.930  
  21915972.713   117194559.91205      3501.637    21915980.608    91151350.79907
      2723.495  
  19535059.744   104499391.00106      -959.113    19535061.961    81277314.25607
      -745.977  
 20 09 30 05 40 25.0000000  0 14G15G18G20G29G 5G30G13R 4R 3R18R12R 5
                                R20R19
  20180316.838   106048279.50349      1128.680    20180317.262    82635024.60348
       879.487  
  20628307.753   108402489.99049      1296.593    20628307.795    84469472.88348
      1010.331  
  22522016.636   118353997.56148      2950.589    22522016.391    92223889.33346
      2299.160  
  23547565.802   123743292.30047     -3511.440    23547564.350    96423340.50445
     -2736.190  
  22827328.210   119958419.89647     -3031.714    22827327.924    93474093.70746
     -2362.374  
  24041892.704   126340994.70347     -1317.832    24041894.986    98447536.54245
     -1026.887  
  20629877.685   108410738.63649      -987.813    20629877.347    84475898.34347
      -769.726  
  19662195.434   105290164.44309      1446.229    19662198.467    81892361.06308
      1124.848  
  20037489.585   107262251.40108     -2197.621    20037494.210    83426213.78308
     -1709.262  
  21741612.545   116058198.51007     -4147.262    21741619.274    90267518.10907
     -3225.651  
  22608355.945   120769776.01207       367.644    22608360.231    93932072.08906
       285.945  
  23289938.897   124498087.50404      3684.559    23289948.185    96831866.60303
      2865.770  
  21912700.222   117177059.52105      3497.421    21912708.041    91137739.39807
      2720.219  
  19535958.152   104504198.78206      -963.961    19535960.598    81281053.64207
      -749.745  
 20 09 30 05 40 30.0000000  0 14G15G18G20G29G 5G30G13R 4R 3R18R12R 5
                                R20R19
  20179244.333   106042643.97849      1125.749    20179244.973    82630633.29048
       877.206  
  20627075.420   108396013.85349      1294.121    20627075.527    84464426.54948
      1008.406  
  22519209.605   118339246.88848      2950.105    22519209.422    92212395.29246
      2298.781  
  23550907.270   123760851.86648     -3512.332    23550905.898    96437023.27345
     -2736.886  
  22830213.009   119973579.68247     -3032.340    22830212.936    93485906.50546
     -2362.867  
  24043148.362   126347592.79547     -1320.757    24043150.395    98452677.88945
     -1029.164  
  20630819.041   108415685.05449      -990.609    20630818.572    84479752.69247
      -771.905  
  19660846.151   105282939.78009      1443.676    19660848.975    81886741.88208
      1122.859  
  20039543.178   107273244.28808     -2199.456    20039547.818    83434763.80208
     -1710.691  
  21745497.983   116078939.99407     -4148.910    21745504.731    90283650.36607
     -3226.934  
  22608013.849   120767948.34407       363.698    22608018.145    93930650.56006
       283.008  
  23286491.221   124479663.76004      3684.441    23286502.315    96817537.00403
      2865.675  
  21909430.514   117159573.67404      3496.995    21909437.920    91124139.29807
      2719.887  
  19536861.589   104509031.15606      -968.336    19536864.073    81284812.16007
      -753.148  
 20 09 30 05 40 35.0000000  0 14G15G18G20G29G 5G30G13R 4R 3R18R12R 5
                                R20R19
  20178174.703   106037022.94449      1122.133    20178175.350    82626253.26848
       874.391  
  20625845.517   108389550.10449      1291.047    20625845.457    84459389.86448
      1006.008  
  22516403.354   118324499.31348      2948.660    22516402.932    92200903.68846
      2297.656  
  23554249.626   123778415.75047     -3513.750    23554248.195    96450709.38846
     -2737.995  
  22833098.300   119988742.58147     -3033.578    22833098.288    93497721.72746
     -2363.836  
  24044406.643   126354204.01347     -1324.371    24044408.529    98457829.48645
     -1031.980  
  20631762.886   108420645.93449      -994.222    20631762.719    84483618.31347
      -774.723  
  19659499.393   105275727.60609      1440.698    19659502.123    81881132.41708
      1120.543  
  20041598.460   107284246.18608     -2201.847    20041603.147    83443320.83308
     -1712.551  
  21749385.211   116099689.81007     -4151.425    21749392.003    90299789.13207
     -3228.886  
  22607675.615   120766141.02707       358.645    22607679.935    93929244.84806
       279.098  
  23283045.358   124461243.33804      3683.430    23283056.021    96803209.99004
      2864.883  
  21906162.952   117142099.14505      3492.933    21906169.900    91110548.00107
      2716.726  
  19537768.727   104513884.88606      -973.484    19537771.435    81288587.28807
      -757.155  
 20 09 30 05 40 40.0000000  0 13G15G18G20G29G 5G30G13R 4R 3R18R12R20
                                R19
  20177108.507   106031419.10649      1119.358    20177108.899    82621886.64448
       872.227  
  20624618.287   108383101.43849      1288.382    20624618.331    84454364.92848
      1003.929  
  22513598.080   118309757.55948      2947.984    22513597.709    92189416.61246
      2297.129  
  23557593.195   123795986.60847     -3514.589    23557591.604    96464400.96546
     -2738.645  
  22835984.844   120003911.22347     -3034.043    22835984.811    93509541.43246
     -2364.190  
  24045667.746   126360831.02547     -1326.594    24045669.668    98462993.39045
     -1033.715  
  20632710.157   108425623.94049      -997.031    20632710.018    84487497.28547
      -776.905  
  19658155.392   105268530.60409      1438.120    19658157.946    81875534.74908
      1118.534  
  20043655.975   107295260.07108     -2203.690    20043660.863    83451887.17708
     -1713.983  
  21753274.443   116120450.76507     -4152.878    21753281.167    90315936.53207
     -3230.020  
  22607341.566   120764356.69307       355.159    22607346.223    93927857.01506
       276.229  
  21902897.717   117124638.68905      3490.851    21902904.396    91096967.63507
      2715.102  
  19538680.532   104518762.86706      -977.867    19538683.368    81292381.27307
      -760.566  
 20 09 30 05 40 45.0000000  0 13G15G18G20G29G 5G30G13R 4R 3R18R12R20
                                R19
  20176044.961   106025830.32249      1116.120    20176045.360    82617531.75548
       869.702  
  20623393.507   108376665.67549      1285.738    20623393.875    84449350.04848
      1001.871  
  22510793.551   118295019.41048      2947.124    22510793.187    92177932.34645
      2296.456  
  23560937.697   123813562.26947     -3515.640    23560936.371    96478096.28846
     -2739.460  
  22838871.999   120019083.44747     -3034.819    22838871.897    93521363.94346
     -2364.800  
  24046931.263   126367471.69547     -1329.534    24046933.085    98468167.96345
     -1035.995  
  20633660.292   108430616.89949     -1000.093    20633660.025    84491387.90347
      -779.293  
  19656813.780   105261346.67609      1435.359    19656816.473    81869947.24708
      1116.386  
  20045715.223   107306283.45108     -2205.828    20045720.042    83460460.92108
     -1715.644  
  21757165.424   116141220.46107     -4154.968    21757171.980    90332090.71707
     -3231.648  
  22607011.515   120762593.34007       350.636    22607016.120    93926485.51906
       272.718  
  21899634.812   117107190.21705      3488.480    21899641.316    91083396.60207
      2713.261  
  19539596.531   104523662.72106      -982.176    19539599.441    81296192.26807
      -763.917  
 20 09 30 05 40 50.0000000  0 13G15G18G20G29G 5G30G13R 4R 3R18R12R20
                                R19
  20174984.466   106020257.25749      1112.922    20174984.992    82613189.10148
       867.206  
  20622171.433   108370243.53649      1282.976    20622171.632    84444345.79148
       999.723  
  22507989.750   118280285.58748      2946.206    22507989.409    92166451.43446
      2295.741  
  23564283.125   123831143.45747     -3517.077    23564281.879    96491795.89746
     -2740.589  
  22841759.927   120034259.95647     -3035.976    22841759.941    93533189.81146
     -2365.698  
  24048197.584   126374126.66747     -1332.410    24048199.444    98473353.64945
     -1038.245  
  20634613.444   108435625.49549     -1003.270    20634613.183    84495290.70947
      -781.770  
  19655474.772   105254176.44709      1432.578    19655477.470    81864370.40808
      1114.226  
  20047776.483   107317317.06808     -2207.749    20047781.342    83469042.62708
     -1717.141  
  21761058.082   116161999.70307     -4156.891    21761064.693    90348252.35107
     -3233.141  
  22606685.392   120760851.59007       346.117    22606690.163    93925130.81606
       269.163  
  21896374.253   117089754.32305      3485.887    21896380.631    91069835.37307
      2711.246  
  19540516.767   104528585.36206      -986.784    19540519.599    81300020.98107
      -767.504  
 20 09 30 05 40 55.0000000  0 13G15G18G20G29G 5G30G13R 4R 3R18R12R20
                                R19
  20173927.016   106014700.10449      1109.851    20173927.289    82608858.85848
       864.816  
  20620951.980   108363835.20749      1280.184    20620952.282    84439352.29048
       997.546  
  22505186.923   118265556.31948      2945.308    22505186.584    92154974.08645
      2295.046  
  23567629.686   123848730.28347     -3518.190    23567628.682    96505499.90346
     -2741.452  
  22844648.745   120049440.86147     -3036.628    22844648.999    93545019.05546
     -2366.211  
  24049466.754   126380796.16747     -1335.391    24049468.414    98478550.64944
     -1040.563  
  20635569.496   108440649.92849     -1006.641    20635569.285    84499205.84947
      -784.397  
  19654138.328   105247020.03709      1429.754    19654141.137    81858804.31508
      1112.030  
  20049839.638   107328361.17208     -2209.964    20049844.509    83477632.47508
     -1718.867  
  21764952.604   116182788.76507     -4158.616    21764959.160    90364421.61107
     -3234.484  
  22606363.326   120759131.57707       341.647    22606368.382    93923793.04906
       265.726  
  21893115.933   117072331.24805      3483.500    21893122.439    91056284.07307
      2709.386  
  19541441.257   104533530.91306      -991.371    19541444.329    81303867.52607
      -771.069  
 20 09 30 05 41  0.0000000  0 14G15G18G20G29G 5G30G13R 4R 3R18R12R 5
                                R20R19
  20172872.235   106009157.94149      1106.598    20172872.756    82604540.28448
       862.280  
  20619734.847   108357439.78449      1277.394    20619735.151    84434368.84148
       995.371  
  22502384.654   118250830.67248      2944.237    22502384.307    92143499.57346
      2294.210  
  23570976.925   123866321.86447     -3519.391    23570976.301    96519207.62546
     -2742.387  
  22847538.346   120064625.25547     -3037.718    22847538.433    93556851.05446
     -2367.055  
  24050738.362   126387479.26447     -1338.199    24050740.133    98483758.28644
     -1042.758  
  20636528.578   108445689.28149     -1009.706    20636528.278    84503132.60947
      -786.788  
  19652804.207   105239876.59609      1426.973    19652807.212    81853248.31708
      1109.866  
  20051904.493   107339414.87709     -2212.133    20051909.350    83486229.79708
     -1720.551  
  21768848.754   116203586.39607     -4160.772    21768855.349    90380597.55407
     -3236.156  
  22606045.044   120757432.46907       337.312    22606050.231    93922471.49505
       262.351  
  23265827.910   124369181.55314      3677.858    23265837.826    96731631.35713
      2860.550  
  21889860.058   117054920.11905      3481.108    21889866.472    91042742.09507
      2707.530  
  19542370.087   104538498.21406      -995.847    19542372.852    81307730.97607
      -774.550  
 20 09 30 05 41  5.0000000  0 14G15G18G20G29G 5G30G13R 4R 3R18R12R 5
                                R20R19
  20171821.069   106003633.83849      1102.988    20171821.394    82600235.79048
       859.472  
  20618520.962   108351060.34149      1274.328    20618521.169    84429397.84948
       992.984  
  22499583.702   118236111.69448      2943.034    22499583.509    92132030.24246
      2293.272  
  23574325.921   123883921.11247     -3520.749    23574325.420    96532921.30245
     -2743.449  
  22850429.083   120079816.26947     -3038.719    22850429.113    93568688.18446
     -2367.839  
  24052012.992   126394178.98747     -1341.848    24052014.689    98488978.84545
     -1045.593  
  20637490.903   108450746.58349     -1013.257    20637490.636    84507073.36347
      -789.550  
  19651473.311   105232749.27109      1423.690    19651476.227    81847704.84408
      1107.315  
  20053971.936   107350481.15508     -2214.507    20053976.586    83494836.90208
     -1722.397  
  21772747.259   116224396.03707     -4163.355    21772753.784    90396782.81807
     -3238.167  
  22605731.349   120755757.32707       332.401    22605736.711    93921168.61506
       258.565  
  23262387.729   124350790.78104      3677.895    23262396.124    96717327.46701
      2860.594  
  21886607.071   117037524.06305      3477.569    21886613.147    91029211.81807
      2704.772  
  19543303.408   104543490.66706     -1001.277    19543306.161    81311613.99507
      -778.769  
 20 09 30 05 41 10.0000000  0 13G15G18G20G29G 5G30G13R 4R 3R18R12R20
                                R19
  20170772.931   105998125.40049      1100.094    20170773.190    82595943.50648
       857.215  
  20617309.547   108344694.46649      1271.727    20617309.858    84424437.42048
       990.952  
  22496783.696   118221397.00448      2942.543    22496783.425    92120564.24246
      2292.891  
  23577675.688   123901525.69647     -3521.405    23577675.528    96546639.15046
     -2743.957  
  22853320.574   120095011.47147     -3039.660    22853320.446    93580528.61747
     -2368.565  
  24053290.464   126400892.93046     -1344.465    24053292.331    98494210.48346
     -1047.641  
  20638456.270   108455819.43249     -1016.176    20638455.971    84511026.24947
      -791.824  
  19650144.815   105225635.54609      1421.301    19650147.853    81842171.93208
      1105.453  
  20056041.039   107361557.69308     -2216.312    20056045.686    83503451.98208
     -1723.800  
  21776647.200   116245214.97007     -4164.487    21776654.073    90412975.31407
     -3239.051  
  22605421.558   120754103.70107       328.633    22605427.203    93919882.46806
       255.602  
  21883356.340   117020140.56905      3474.918    21883362.531    91015691.34407
      2702.715  
  19544240.869   104548505.60806     -1005.081    19544243.717    81315514.49707
      -781.734  
 20 09 30 05 41 15.0000000  0 13G15G18G20G29G 5G30G13R 4R 3R18R12R20
                                R19
  20169727.850   105992633.05549      1096.593    20169727.894    82591663.75648
       854.484  
  20616100.773   108338342.56849      1268.648    20616100.993    84419487.88548
       988.554  
  22493984.244   118206686.96748      2941.116    22493984.135    92109101.89946
      2291.781  
  23581026.606   123919135.97947     -3523.074    23581026.516    96560361.41945
     -2745.257  
  22856213.062   120110211.19447     -3040.647    22856212.759    93592372.56146
     -2369.340  
  24054570.777   126407621.49146     -1347.656    24054572.667    98499453.55745
     -1050.116  
  20639424.694   108460908.19149     -1019.520    20639424.236    84514991.51047
      -794.434  
  19648818.979   105218535.88409      1418.218    19648822.102    81836649.97408
      1103.055  
  20058112.186   107372644.64308     -2218.668    20058116.981    83512075.17708
     -1725.628  
  21780549.216   116266043.75907     -4167.191    21780556.088    90429175.47507
     -3241.152  
  22605116.172   120752472.00607       323.707    22605121.778    93918613.38106
       251.855  
  21880108.235   117002770.24205      3472.770    21880114.306    91002181.09207
      2701.043  
  19545182.707   104553543.52306     -1010.194    19545185.370    81319432.88607
      -785.706  
 20 09 30 05 41 20.0000000  0 13G15G18G20G29G 5G30G13R 4R 3R18R12R20
                                R19
  20168685.820   105987157.34149      1093.640    20168685.792    82587396.96048
       852.184  
  20614894.846   108332005.22249      1266.195    20614895.073    84414549.68548
       986.641  
  22491186.127   118191982.23148      2940.691    22491185.973    92097643.67446
      2291.448  
  23584378.861   123936752.45147     -3523.769    23584378.807    96574088.55446
     -2745.792  
  22859106.496   120125416.07547     -3041.211    22859106.118    93604220.50746
     -2369.773  
  24055853.940   126414365.21546     -1350.163    24055855.871    98504708.40645
     -1052.074  
  20640396.138   108466013.44549     -1022.555    20640395.650    84518969.62847
      -796.800  
  19647495.935   105211450.75709      1415.805    19647499.252    81831139.32108
      1101.176  
  20060185.452   107383742.87408     -2220.434    20060190.222    83520707.12508
     -1727.008  
  21784453.085   116286882.87907     -4168.617    21784459.971    90445383.67407
     -3242.261  
  22604814.726   120750862.86307       319.582    22604820.520    93917361.82305
       248.577  
  21876862.361   116985413.43805      3470.405    21876868.536    90988681.33707
      2699.199  
  19546128.982   104558605.08506     -1014.882    19546131.567    81323369.65207
      -789.354  
 20 09 30 05 41 25.0000000  0 13G15G18G20G29G 5G30G13R 4R 3R18R12R20
                                R19
  20167646.457   105981695.79349      1091.171    20167646.586    82583141.21148
       850.261  
  20613691.049   108325679.94249      1264.034    20613691.352    84409620.89948
       984.961  
  22488388.416   118177280.31948      2940.323    22488388.309    92086187.64546
      2291.160  
  23587731.791   123954372.71847     -3524.301    23587731.876    96587818.65246
     -2746.206  
  22862000.290   120140623.59347     -3041.270    22862000.043    93616070.52346
     -2369.824  
  24057139.424   126421121.66546     -1352.358    24057141.659    98509973.14845
     -1053.788  
  20641370.257   108471132.72749     -1025.172    20641369.720    84522958.66147
      -798.840  
  19646175.105   105204377.77409      1413.530    19646178.500    81825638.12308
      1099.413  
  20062260.359   107394849.60708     -2221.902    20062264.902    83529345.69108
     -1728.148  
  21788358.476   116307729.68507     -4169.992    21788365.222    90461597.86407
     -3243.327  
  22604517.205   120749273.71407       316.105    22604523.087    93916125.81105
       245.909  
  21873618.653   116968067.80905      3468.699    21873624.932    90975190.30307
      2697.879  
  19547079.092   104563687.56306     -1018.331    19547081.578    81327322.69407
      -792.038  
 20 09 30 05 41 30.0000000  0 13G15G18G20G29G 5G30G13R 4R 3R18R12R20
                                R19
  20166609.933   105976248.82449      1087.313    20166609.843    82578896.82648
       847.258  
  20612489.928   108319367.16549      1260.645    20612490.090    84404701.86948
       982.320  
  22485591.304   118162581.61748      2938.757    22485591.348    92074734.08845
      2289.938  
  23591085.648   123971997.19847     -3525.938    23591085.815    96601552.00545
     -2747.483  
  22864894.852   120155834.08747     -3042.914    22864894.500    93627922.87146
     -2371.104  
  24058427.641   126427891.22947     -1355.745    24058429.821    98515248.14745
     -1056.429  
  20642347.237   108476266.44749     -1028.820    20642346.476    84526958.96847
      -801.679  
  19644856.673   105197317.28809      1410.198    19644859.884    81820146.63008
      1096.815  
  20064336.890   107405965.34508     -2224.530    20064341.453    83537991.26908
     -1730.194  
  21792265.347   116328584.79407     -4172.656    21792272.180    90477818.48607
     -3245.402  
  22604223.468   120747704.93607       311.198    22604229.519    93914905.67205
       242.042  
  21870377.246   116950733.86105      3465.145    21870383.466    90961708.35407
      2695.112  
  19548033.224   104568791.55706     -1023.711    19548035.660    81331292.45407
      -796.223  
 20 09 30 05 41 35.0000000  0 13G15G18G20G29G 5G30G13R 4R 3R18R12R20
                                R19
  20165576.857   105970819.81449      1084.172    20165576.788    82574666.42048
       844.805  
  20611291.654   108313070.28849      1257.944    20611292.000    84399795.20548
       980.215  
  22482795.505   118147889.43848      2937.905    22482795.338    92063285.64446
      2289.273  
  23594440.906   123989629.35547     -3526.917    23594440.907    96615291.35746
     -2748.249  
  22867790.654   120171051.06847     -3044.034    22867790.299    93639780.24646
     -2371.979  
  24059718.908   126434677.25847     -1358.694    24059720.944    98520535.95245
     -1058.727  
  20643327.450   108481417.93849     -1032.082    20643326.880    84530973.12247
      -804.222  
  19643541.080   105190272.81709      1407.534    19643544.422    81814667.59408
      1094.746  
  20066415.649   107417093.51308     -2226.609    20066420.132    83546646.51308
     -1731.813  
  21796174.473   116349451.44007     -4174.453    21796181.214    90494048.10206
     -3246.797  
  22603934.453   120746160.10307       306.336    22603940.492    93913704.12105
       238.258  
  21867138.605   116933414.83305      3462.203    21867144.582    90948237.98507
      2692.820  
  19548992.028   104573920.47806     -1028.073    19548994.333    81335281.62707
      -799.612  
 20 09 30 05 41 40.0000000  0 13G15G18G20G29G 5G30G13R 4R 3R18R12R20
                                R19
  20164546.611   105965405.92949      1081.022    20164546.414    82570447.80548
       842.352  
  20610095.861   108306786.48149      1255.229    20610096.103    84394898.73848
       978.102  
  22480000.459   118133201.02748      2936.956    22480000.277    92051840.11946
      2288.535  
  23597797.095   124007266.08847     -3527.867    23597797.036    96629034.23846
     -2748.992  
  22870686.984   120186271.57247     -3044.570    22870686.697    93651640.38446
     -2372.390  
  24061012.586   126441476.92547     -1361.293    24061014.963    98525834.40345
     -1060.746  
  20644310.719   108486584.39449     -1035.108    20644309.754    84534998.92147
      -806.582  
  19642228.090   105183241.34509      1404.874    19642231.339    81809198.67808
      1092.679  
  20068496.300   107428231.27508     -2228.753    20068500.739    83555309.22608
     -1733.477  
  21800085.070   116370326.85107     -4176.289    21800091.749    90510284.51207
     -3248.233  
  22603649.195   120744636.24207       302.371    22603654.930    93912518.93005
       235.176  
  21863902.320   116916108.11905      3460.066    21863908.326    90934777.20507
      2691.160  
  19549954.947   104579071.38306     -1032.839    19549957.164    81339287.88207
      -803.324  
 20 09 30 05 41 45.0000000  0 13G15G18G20G29G 5G30G13R 4R 3R18R12R20
                                R19
  20163519.614   105960008.49249      1077.761    20163519.508    82566242.01448
       839.812  
  20608902.896   108300517.09449      1252.344    20608903.173    84390013.48348
       975.848  
  22477206.169   118118517.68448      2936.218    22477205.933    92040398.56046
      2287.960  
  23601154.225   124024908.89547     -3529.199    23601154.014    96642781.87746
     -2750.027  
  22873584.459   120201497.06347     -3045.441    22873584.065    93663504.37546
     -2373.074  
  24062309.284   126448291.55547     -1364.628    24062311.784    98531144.47944
     -1063.351  
  20645297.044   108491767.13149     -1038.327    20645296.065    84539037.41547
      -809.089  
  19640917.756   105176224.31409      1401.789    19640920.926    81803740.98008
      1090.277  
  20070578.865   107439379.93808     -2230.968    20070583.245    83563980.40608
     -1735.198  
  21803997.733   116391212.37707     -4178.108    21804004.200    90526528.81607
     -3249.640  
  22603368.036   120743134.77807       297.733    22603373.980    93911351.12305
       231.565  
  21860668.387   116898815.04505      3457.202    21860674.454    90921327.05707
      2688.937  
  19550922.175   104584245.55706     -1037.270    19550924.548    81343312.23607
      -806.770  
 20 09 30 05 41 50.0000000  0 14G15G18G20G29G 5G30G13R 4R 3R18R12R 5
                                R20R19
  20162495.478   105954626.83849      1074.444    20162495.260    82562048.51848
       837.226  
  20607712.394   108294261.43249      1249.461    20607712.684    84385138.94448
       973.605  
  22474412.843   118103838.78448      2935.257    22474412.613    92028960.47346
      2287.214  
  23604512.471   124042556.94347     -3530.512    23604512.549    96656533.61046
     -2751.051  
  22876482.549   120216726.75347     -3046.805    22876482.144    93675371.67846
     -2374.132  
  24063608.701   126455120.47347     -1367.476    24063611.218    98536465.72645
     -1065.565  
  20646286.205   108496965.45949     -1041.542    20646285.321    84543088.06647
      -811.593  
  19639610.016   105169221.02409      1399.058    19639613.146    81798293.99708
      1088.156  
  20072663.461   107450538.81808     -2233.163    20072667.696    83572659.53108
     -1736.910  
  21807912.087   116412107.18507     -4180.031    21807918.591    90542780.32607
     -3251.141  
  22603091.041   120741654.90107       293.336    22603096.681    93910200.07905
       228.148  
  23231467.897   124185509.09314      3669.437           0.000           0.0000 
         0.000  
  21857436.822   116881534.79105      3454.331    21857442.792    90907886.85007
      2686.702  
  19551893.675   104589442.48906     -1042.105    19551896.077    81347354.30407
      -810.527  
 20 09 30 05 41 55.0000000  0 13G15G18G20G29G 5G30G13R 4R 3R18R12R20
                                R19
  20161474.583   105949261.53249      1071.844    20161474.210    82557867.76848
       835.203  
  20606524.735   108288020.05149      1247.203    20606525.105    84380275.53548
       971.848  
  22471620.490   118089164.86848      2934.729    22471620.281    92017526.28046
      2286.809  
  23607871.908   124060210.84247     -3530.870    23607872.013    96670289.86345
     -2751.336  
  22879381.717   120231961.26847     -3046.535    22879381.055    93687242.73646
     -2373.926  
  24064910.949   126461964.21146     -1369.832    24064913.593    98541798.51645
     -1067.402  
  20647278.389   108502179.92049     -1044.070    20647277.530    84547151.27947
      -813.566  
  19638304.919   105162232.09809      1396.812    19638308.268    81792858.16508
      1086.410  
  20074750.050   107461708.43208     -2234.613    20074754.343    83581347.01708
     -1738.030  
  21811828.102   116433011.92007     -4181.675    21811834.643    90559039.55006
     -3252.417  
  22602818.367   120740197.29307       289.813    22602823.633    93909066.41505
       225.410  
  21854207.734   116864267.93505      3452.953    21854214.003    90894457.09307
      2685.629  
  19552869.468   104594662.63706     -1046.120    19552871.918    81351414.40507
      -813.651  
 20 09 30 05 42  0.0000000  0 13G15G18G20G29G 5G30G13R 4R 3R18R12R20
                                R19
  20160456.315   105943910.21549      1068.484    20160455.867    82553697.91648
       832.585  
  20605339.154   108281790.62849      1244.332    20605339.693    84375421.44048
       969.609  
  22468828.722   118074493.58848      2933.620    22468828.390    92006094.10846
      2285.937  
  23611232.086   124077868.19647     -3532.245    23611232.181    96684048.84646
     -2752.398  
  22882281.278   120247198.18847     -3048.238    22882280.601    93699115.64146
     -2375.254  
  24066215.455   126468820.40646     -1372.848    24066218.165    98547140.95546
     -1069.758  
  20648273.452   108507408.16749     -1047.339    20648272.435    84551225.24947
      -816.109  
  19637001.833   105155254.94409      1393.875    19637005.311    81787431.48708
      1084.125  
  20076838.174   107472886.38808     -2236.909    20076842.188    83590040.95808
     -1739.823  
  21815745.759   116453924.10807     -4183.387    21815752.107    90575304.57306
     -3253.754  
  22602549.221   120738759.59608       285.121    22602554.159    93907948.19004
       221.710  
  21850980.951   116847012.28205      3449.577    21850987.133    90881036.03708
      2683.004  
  19553849.250   104599903.52706     -1050.711    19553851.564    81355490.65207
      -817.223  
 20 09 30 05 42  5.0000000  0 13G15G18G20G29G 5G30G13R 4R 3R18R12R20
                                R19
  20159441.107   105938575.85949      1065.395    20159440.909    82549541.27248
       830.171  
  20604156.636   108275576.14349      1241.563    20604157.015    84370578.97748
       967.449  
  22466037.867   118059827.92348      2932.741    22466037.545    91994666.31746
      2285.253  
  23614593.383   124095532.02147     -3533.348    23614593.549    96697812.86846
     -2753.262  
  22885181.770   120262440.50147     -3048.852    22885181.061    93710992.75945
     -2375.730  
  24067523.066   126475692.07146     -1375.749    24067525.795    98552495.51545
     -1072.011  
  20649271.552   108512653.09349     -1050.425    20649270.564    84555312.20147
      -818.511  
  19635701.746   105148292.78809      1391.230    19635705.221    81782016.47408
      1082.062  
  20078928.372   107484075.72008     -2238.746    20078932.443    83598743.77708
     -1741.245  
  21819665.096   116474846.79707     -4185.332    21819671.497    90591577.77807
     -3255.257  
  22602284.354   120737344.63208       280.987    22602288.790    93906847.65004
       218.542  
  21847756.664   116829770.57005      3447.168    21847762.698    90867625.82407
      2681.129  
  19554833.436   104605168.23006     -1054.984    19554835.797    81359585.41707
      -820.543  
 20 09 30 05 42 10.0000000  0 13G15G18G20G29G 5G30G13R 4R 3R18R12R20
                                R19
  20158429.506   105933259.32849      1061.395    20158429.164    82545398.53148
       827.063  
  20602977.018   108269377.45949      1237.969    20602977.484    84365748.83848
       964.647  
  22463248.324   118045168.74448      2930.879    22463247.911    91983243.57446
      2283.801  
  23617956.016   124113203.09347     -3535.625    23617956.337    96711582.51646
     -2755.035  
  22888083.537   120277689.16947     -3050.641    22888082.788    93722874.81345
     -2377.129  
  24068833.727   126482580.01747     -1379.098    24068836.491    98557862.75246
     -1074.624  
  20650272.899   108517915.67649     -1054.597    20650271.879    84559412.91847
      -821.766  
  19634404.637   105141346.42109      1387.430    19634408.010    81776613.75808
      1079.112  
  20081020.989   107495277.26008     -2241.789    20081025.129    83607456.09208
     -1743.612  
  21823586.731   116495780.84307     -4188.113    21823593.011    90607859.80206
     -3257.425  
  22602023.954   120735953.49507       275.585    22602028.183    93905765.64205
       214.339  
  21844535.157   116812544.06905      3443.753    21844541.281    90854227.44907
      2678.476  
  19555822.171   104610457.79606     -1060.823    19555824.596    81363699.52907
      -825.090  
 20 09 30 05 42 15.0000000  0 13G15G18G20G29G 5G30G13R 4R 3R18R12R20
                                R19
  20157420.944   105927959.63949      1058.172    20157420.560    82541268.90648
       824.551  
  20601800.267   108263193.61749      1235.227    20601800.883    84360930.26348
       962.516  
  22460459.848   118030515.11248      2930.070    22460459.531    91971825.18546
      2283.172  
  23621319.729   124130880.48846     -3536.098    23621320.385    96725357.10746
     -2755.406  
  22890986.237   120292943.08747     -3051.374    22890985.436    93734760.98545
     -2377.699  
  24070147.216   126489483.29346     -1382.433    24070149.940    98563241.91945
     -1077.227  
  20651277.467   108523194.84149     -1057.578    20651276.570    84563526.55347
      -824.085  
  19633110.153   105134414.89509      1384.757    19633113.665    81771222.57608
      1077.034  
  20083115.475   107506489.99008     -2243.616    20083119.709    83616177.10308
     -1745.039  
  21827510.471   116516725.22307     -4189.992    21827516.453    90624149.86407
     -3258.887  
  22601767.868   120734585.18507       271.230    22601771.955    93904701.42605
       211.007  
  21841316.188   116795331.67005      3440.690    21841322.486    90840840.03807
      2676.094  
  19556815.533   104615771.08006     -1065.090    19556817.955    81367832.07607
      -828.405  
 20 09 30 05 42 20.0000000  0 13G15G18G20G29G 5G30G13R 4R 3R18R12R20
                                R19
  20156415.625   105922676.09249      1055.109    20156415.140    82537151.84848
       822.159  
  20600626.180   108257023.93749      1232.473    20600626.715    84356122.70748
       960.362  
  22457672.131   118015866.28048      2929.262    22457671.898    91960410.51546
      2282.542  
  23624684.651   124148563.46447     -3537.272    23624685.454    96739136.06446
     -2756.315  
  22893889.674   120308201.53247     -3051.961    22893889.072    93746650.70246
     -2378.152  
  24071463.588   126496401.12247     -1385.034    24071466.389    98568632.43246
     -1079.253  
  20652285.087   108528489.92249     -1060.516    20652284.227    84567652.58647
      -826.378  
  19631818.472   105127497.50309      1382.101    19631821.912    81765842.37708
      1074.964  
  20085212.248   107517713.30409     -2245.526    20085216.180    83624906.33408
     -1746.522  
  21831435.905   116537679.27007     -4191.683    21831441.882    90640447.45407
     -3260.202  
  22601515.755   120733238.82008       267.046    22601519.976    93903654.26405
       207.702  
  21838099.906   116778132.54505      3438.339    21838105.891    90827462.93307
      2674.262  
  19557812.981   104621107.25406     -1069.515    19557815.384    81371982.43507
      -831.844  
 20 09 30 05 42 25.0000000  0 13G15G18G20G29G 5G30G13R 4R 3R18R12R20
                                R19
  20155412.984   105917407.01949      1052.440    20155412.667    82533046.07448
       820.082  
  20599454.581   108250866.70649      1230.257    20599454.975    84351324.87748
       958.641  
  22454884.970   118001220.61848      2929.039    22454884.994    91948998.32846
      2282.367  
  23628050.321   124166250.33647     -3537.504    23628051.234    96752918.02845
     -2756.500  
  22896793.684   120323462.92847     -3052.710    22896793.091    93758542.67245
     -2378.742  
  24072782.305   126503331.93447     -1387.511    24072785.409    98574033.06746
     -1081.183  
  20653295.552   108533799.22949     -1063.188    20653294.549    84571789.71647
      -828.457  
  19630529.021   105120592.48809      1379.742    19630532.293    81760471.81708
      1073.133  
  20087310.489   107528945.28908     -2247.323    20087314.335    83633642.33008
     -1747.918  
  21835362.860   116558641.14808     -4193.413    21835368.718    90656751.13606
     -3261.547  
  22601267.546   120731912.80907       263.223    22601271.692    93902622.89405
       204.727  
  21834885.979   116760945.14205      3435.995    21834891.564    90814094.95207
      2672.438  
  19558814.418   104626464.79706     -1073.972    19558816.942    81376149.41107
      -835.312  
 20 09 30 05 42 30.0000000  0 14G15G18G20G29G 5G30G13R 4R 3R18R12R 5
                                R20R19
  20154413.038   105912152.70749      1049.281    20154412.667    82528951.80748
       817.620  
  20598285.470   108244722.23749      1227.426    20598285.659    84346536.97648
       956.438  
  22452098.598   117986578.41448      2927.956    22452098.516    91937588.82346
      2281.523  
  23631416.768   124183941.38147     -3538.554    23631417.708    96766703.24046
     -2757.320  
  22899698.503   120338727.41547     -3053.448    22899697.993    93770437.07545
     -2379.315  
  24074103.681   126510275.90747     -1389.988    24074106.627    98579443.95345
     -1083.112  
  20654308.639   108539123.00849     -1066.094    20654307.813    84575938.11047
      -830.727  
  19629241.994   105113700.17209      1376.972    19629245.307    81755111.12608
      1070.976  
  20089410.444   107540186.41608     -2249.391    20089414.213    83642385.43008
     -1749.527  
  21839291.326   116579611.19407     -4194.863    21839296.928    90673061.18206
     -3262.675  
  22601023.326   120730607.44608       258.867    22601027.602    93901607.63806
       201.340  
  23204041.206   124038897.08615      3661.691    23204046.844    96474723.15814
      2847.983  
  21831674.002   116743769.75605      3433.559    21831679.687    90800736.31607
      2670.546  
  19559819.970   104631843.79106     -1078.222    19559822.587    81380333.07807
      -838.616  
 20 09 30 05 42 35.0000000  0 14G15G18G20G29G 5G30G13R 4R 3R18R12R 5
                                R20R19
  20153415.952   105906912.98649      1046.098    20153415.612    82524868.90948
       815.137  
  20597118.631   108238590.36549      1224.687    20597118.765    84341758.89748
       954.301  
  22449312.839   117971939.46548      2926.894    22449312.837    91926181.84046
      2280.695  
  23634784.041   124201636.45947     -3539.933    23634784.859    96780491.59846
     -2758.398  
  22902603.658   120353994.85847     -3054.035    22902603.137    93782333.77944
     -2379.772  
  24075427.508   126517232.94447     -1393.125    24075430.685    98584865.02745
     -1085.555  
  20655324.383   108544461.12049     -1069.378    20655323.475    84580097.67347
      -833.285  
  19627957.225   105106820.32409      1374.453    19627960.439    81749760.13608
      1069.019  
  20091512.068   107551436.35608     -2251.214    20091515.792    83651135.36708
     -1750.948  
  21843221.190   116600589.32707     -4196.937    21843226.698    90689377.48307
     -3264.289  
  22600782.801   120729322.54107       254.262    22600787.323    93900608.24205
       197.859  
  23200616.893   124020589.92005      3660.813    23200622.060    96460484.26604
      2847.296  
  21828464.332   116726606.17705      3431.020    21828469.787    90787386.87207
      2668.565  
  19560829.694   104637244.29106     -1082.710    19560832.079    81384533.46807
      -842.109  
 20 09 30 05 42 40.0000000  0 14G15G18G20G29G 5G30G13R 4R 3R18R12R 5
                                R20R19
  20152422.098   105901689.43549      1043.214    20152421.726    82520798.61148
       812.890  
  20595954.479   108232472.63949      1222.222    20595954.578    84336991.83948
       952.382  
  22446528.050   117957305.30048      2926.761    22446528.084    91914778.61346
      2280.593  
  23638152.319   124219336.97147     -3540.250    23638153.284    96794284.20246
     -2758.641  
  22905509.780   120369266.85247     -3054.465    22905509.461    93794234.03445
     -2380.105  
  24076754.191   126524204.49147     -1395.433    24076757.262    98590297.39145
     -1087.354  
  20656343.169   108549815.09749     -1072.245    20656342.365    84584269.60647
      -835.515  
  19626675.048   105099954.63509      1371.824    19626678.232    81744420.16408
      1066.972  
  20093615.542   107562696.79408     -2253.000    20093619.293    83659893.49108
     -1752.332  
  21847152.785   116621576.85407     -4198.367    21847158.433    90705701.13107
     -3265.398  
  22600546.339   120728059.65507       250.479    22600551.180    93899626.03506
       194.819  
  23197193.410   124002287.72305      3659.840    23197198.170    96446249.24004
      2846.542  
  21825257.228   116709456.00405      3429.054    21825262.503    90774047.83707
      2667.039  
  19561843.409   104642667.70406     -1086.577    19561845.899    81388751.67907
      -845.117  
 20 09 30 05 42 45.0000000  0 14G15G18G20G29G 5G30G13R 4R 3R18R12R 5
                                R20R19
  20151431.295   105896482.76049      1039.844    20151431.019    82516741.45548
       810.265  
  20594793.189   108226369.80249      1219.316    20594793.362    84332236.38348
       950.113  
  22443744.234   117942676.71448      2925.395    22443744.339    91903379.70846
      2279.523  
  23641521.963   124237043.73047     -3541.772    23641522.657    96808081.69246
     -2759.823  
  22908417.023   120384544.07647     -3055.320    22908416.574    93806138.36445
     -2380.772  
  24078083.746   126531191.35147     -1398.569    24078086.698    98595741.70745
     -1089.800  
  20657365.009   108555185.62249     -1075.352    20657364.370    84588454.42347
      -837.941  
  19625395.655   105093103.70309      1369.077    19625398.681    81739091.65908
      1064.840  
  20095721.263   107573968.38508     -2255.168    20095724.914    83668660.28708
     -1754.022  
  21851086.480   116642574.59008     -4200.215    21851091.900    90722032.68607
     -3266.836  
  22600314.237   120726819.58707       246.097    22600319.165    93898661.50806
       191.401  
  23193770.937   123983991.29705      3658.984    23193774.974    96432018.73104
      2845.883  
  21822052.804   116692320.04405      3426.180    21822057.887    90760719.86707
      2664.801  
  19562861.611   104648114.83206     -1091.164    19562864.280    81392988.33607
      -848.684  
 20 09 30 05 42 50.0000000  0 14G15G18G20G29G 5G30G13R 4R 3R18R12R 5
                                R20R19
  20150443.526   105891291.62249      1036.227    20150443.210    82512696.41948
       807.449  
  20593634.569   108220280.52349      1216.070    20593634.572    84327491.49148
       947.582  
  22440961.361   117928052.27648      2924.026    22440961.561    91891984.04046
      2278.461  
  23644892.502   124254755.37447     -3543.184    23644893.033    96821882.97245
     -2760.926  
  22911324.869   120399825.16547     -3057.019    22911324.404    93818045.69045
     -2382.098  
  24079415.991   126538192.12447     -1401.785    24079418.841    98601196.83146
     -1092.304  
  20658389.912   108560571.39749     -1079.116    20658389.302    84592651.12847
      -840.875  
  19624118.900   105086266.20709      1365.617    19624121.765    81733773.60008
      1062.145  
  20097828.656   107585249.79708     -2257.487    20097832.233    83677434.71508
     -1755.828  
  21855021.848   116663581.28707     -4202.640    21855027.267    90738371.22807
     -3268.723  
  22600086.019   120725600.95907       241.229    22600091.179    93897713.69105
       187.555  
  23190349.065   123965699.33705      3657.183    23190352.401    96417791.68204
      2844.480  
  21818850.485   116675196.96105      3423.074    21818855.628    90747401.92107
      2662.390  
  19563884.172   104653584.25106     -1096.629    19563886.751    81397242.32307
      -852.937  
 20 09 30 05 42 55.0000000  0 14G15G18G20G29G 5G30G13R 4R 3R18R12R 5
                                R20R19
  20149458.978   105886117.53849      1033.335    20149458.595    82508664.67748
       805.194  
  20592478.777   108214206.29649      1213.608    20592478.760    84322758.31948
       945.664  
  22438179.429   117913433.62648      2923.039    22438179.435    91880592.88546
      2277.688  
  23648264.026   124272473.38147     -3544.062    23648264.783    96835689.19245
     -2761.608  
  22914233.687   120415111.66747     -3057.604    22914233.450    93829957.24945
     -2382.551  
  24080751.091   126545208.34047     -1404.409    24080754.177    98606664.02645
     -1094.343  
  20659417.870   108565973.91549     -1081.953    20659417.189    84596860.87347
