     2.11           OBSERVATION DATA    M                   RINEX VERSION / TYPE
LEICA GEO OFFICE 8.4                    2-10-20 22:22       PGM / RUN BY / DATE
                                                            OBSERVER / AGENCY
skr3                                                        MARKER NAME
skr3                                                        MARKER NUMBER
470876              LEICA GX1230GG      5.62                REC # / TYPE / VERS
                    LEIAX1202                               ANT # / TYPE
 -1214544.5283  3787136.0639  4970503.2162                  APPROX POSITION XYZ
        1.6630        0.0000        0.0000                  ANTENNA: DELTA H/E/N
L1PhaOff:   0.0648  L2PhaOff:   0.0622                      COMMENT
     1     1                                                WAVELENGTH FACT L1/2
     6    C1    L1    D1    P2    L2    D2                  # / TYPES OF OBSERV
  2020    10     2     6    40    0.0000000     GPS         TIME OF FIRST OBS
  2020    10     2     8    11   20.0000000     GPS         TIME OF LAST OBS
    18                                                      LEAP SECONDS
    21                                                      # OF SATELLITES
          C1    L1    D1    P2    L2    D2                  COMMENT
   G 1     0     0     0     0     0     0                  PRN / # OF OBS
   G 2     0     0     0     0     0     0                  PRN / # OF OBS
   G 3     0     0     0     0     0     0                  PRN / # OF OBS
   G 4     0     0     0     0     0     0                  PRN / # OF OBS
   G 5     0     0     0     0     0     0                  PRN / # OF OBS
   G 6     0     0     0     0     0     0                  PRN / # OF OBS
   G 7     0     0     0     0     0     0                  PRN / # OF OBS
   G 8   505   505   505   504   504   504                  PRN / # OF OBS
   G 9     0     0     0     0     0     0                  PRN / # OF OBS
   G10  1097  1097  1097  1097  1097  1097                  PRN / # OF OBS
   G11     0     0     0     0     0     0                  PRN / # OF OBS
   G12     0     0     0     0     0     0                  PRN / # OF OBS
   G13   591   591   591   590   590   590                  PRN / # OF OBS
   G14     0     0     0     0     0     0                  PRN / # OF OBS
   G15  1097  1097  1097  1097  1097  1097                  PRN / # OF OBS
   G16     0     0     0     0     0     0                  PRN / # OF OBS
   G17     0     0     0     0     0     0                  PRN / # OF OBS
   G18  1097  1097  1097  1097  1097  1097                  PRN / # OF OBS
   G19     0     0     0     0     0     0                  PRN / # OF OBS
   G20  1097  1097  1097  1097  1097  1097                  PRN / # OF OBS
   G21   648   648   648   647   647   647                  PRN / # OF OBS
   G22     0     0     0     0     0     0                  PRN / # OF OBS
   G23  1097  1097  1097  1097  1097  1097                  PRN / # OF OBS
   G24  1097  1097  1097  1097  1097  1097                  PRN / # OF OBS
   G25     0     0     0     0     0     0                  PRN / # OF OBS
   G26     0     0     0     0     0     0                  PRN / # OF OBS
   G27   853   853   853   853   853   853                  PRN / # OF OBS
   G28     0     0     0     0     0     0                  PRN / # OF OBS
   G29     0     0     0     0     0     0                  PRN / # OF OBS
   G30     0     0     0     0     0     0                  PRN / # OF OBS
   G31     0     0     0     0     0     0                  PRN / # OF OBS
   G32   492   492   492   491   491   491                  PRN / # OF OBS
   R 1     0     0     0     0     0     0                  PRN / # OF OBS
   R 2     0     0     0     0     0     0                  PRN / # OF OBS
   R 3     0     0     0     0     0     0                  PRN / # OF OBS
   R 4     0     0     0     0     0     0                  PRN / # OF OBS
   R 5   369   369   369   318   318   318                  PRN / # OF OBS
   R 6  1097  1097  1097     0     0     0                  PRN / # OF OBS
   R 7  1097  1097  1097  1097  1097  1097                  PRN / # OF OBS
   R 8   348   348   348   348   348   348                  PRN / # OF OBS
   R 9     0     0     0     0     0     0                  PRN / # OF OBS
   R10     0     0     0     0     0     0                  PRN / # OF OBS
   R11     0     0     0     0     0     0                  PRN / # OF OBS
   R12     0     0     0     0     0     0                  PRN / # OF OBS
   R13     0     0     0     0     0     0                  PRN / # OF OBS
   R14     0     0     0     0     0     0                  PRN / # OF OBS
   R15   813   813   813   804   804   804                  PRN / # OF OBS
   R16  1092  1092  1092  1092  1092  1092                  PRN / # OF OBS
   R17     0     0     0     0     0     0                  PRN / # OF OBS
   R18     0     0     0     0     0     0                  PRN / # OF OBS
   R19     0     0     0     0     0     0                  PRN / # OF OBS
   R20     0     0     0     0     0     0                  PRN / # OF OBS
   R21   673   673   673   673   673   673                  PRN / # OF OBS
   R22  1097  1097  1097  1097  1097  1097                  PRN / # OF OBS
   R23   870   870   870   869   869   869                  PRN / # OF OBS
   R24    25    25    25    25    25    25                  PRN / # OF OBS
                                                            END OF HEADER
 20 10 02 06 40  0.0000000  0 15G13G27G15G18G20G23G24G10R15R 5R21R 6
                                R16R 7R22
  22235919.721   116850578.21748     -2954.031    22235919.098    91052419.58546
     -2301.847  
  23844469.087   125303529.62747       -43.097    23844470.647    97639125.81349
       -33.586  
  20291483.631   106632525.16049     -1352.234    20291483.084    83090294.93949
     -1053.691  
  20583450.641   108166792.21749     -1231.789    20583450.863    84285807.12348
      -959.835  
  20635087.561   108438162.43649      1812.940    20635086.227    84497278.80448
      1412.676  
  20971254.263   110204723.97149      1905.147    20971253.876    85873833.28948
      1484.527  
  22143071.670   116362648.54248      3081.597    22143074.265    90672204.14349
      2401.245  
  23410347.851   123022218.09948      3047.815    23410350.716    95861475.45449
      2374.918  
  21715540.316   116041269.40608       481.223    21715544.592    90254347.84908
       374.284  
  22390675.081   119691010.72507     -3375.832    22390679.214    93093051.96006
     -2625.651  
  21022879.113   112497665.32307     -3453.202    21022882.302    87498211.24207
     -2685.828  
  19268575.654   102820857.54608      -310.637           0.000           0.0000 
         0.000  
  22588175.439   120661970.84005      3770.508    22588178.651    93848223.99605
      2932.617  
  21217347.879   113578163.82207      2746.594    21217351.960    88338586.42207
      2136.238  
  20332113.654   108534214.89808       455.819    20332116.618    84415514.54104
       354.523  
 20 10 02 06 40  5.0000000  0 15G13G27G15G18G20G23G24G10R15R 5R21R 6
                                R16R 7R22
  22238731.123   116865352.17248     -2955.676    22238730.449    91063931.75546
     -2303.125  
  23844511.815   125303753.78947       -46.277    23844513.235    97639300.48549
       -36.062  
  20292771.471   106639292.89849     -1354.977    20292770.949    83095568.49749
     -1055.828  
  20584624.149   108172958.94549     -1234.969    20584624.414    84290612.36848
      -962.315  
  20633363.528   108429102.42749      1811.007    20633362.164    84490219.05748
      1411.175  
  20969442.383   110195202.54149      1903.347    20969442.009    85866413.99548
      1483.128  
  22140140.622   116347246.06148      3079.445    22140143.278    90660202.20749
      2399.565  
  23407448.217   123006980.70448      3047.155    23407451.128    95849602.15949
      2374.402  
  21715092.153   116038874.40608       476.781    21715096.422    90252485.06807
       370.828  
  22393832.870   119707890.51107     -3376.332    22393836.928    93106180.68607
     -2626.047  
  21026107.175   112514938.98808     -3456.097    21026110.275    87511646.30707
     -2688.078  
  19268868.002   102822417.54208      -313.406           0.000           0.0000 
         0.000  
  22584646.977   120643123.14605      3768.362    22584650.367    93833564.70405
      2930.953  
  21214783.313   113564435.27707      2744.800    21214787.459    88327908.67008
      2134.843  
  20331688.907   108531947.63008       451.147    20331691.873    84413751.10304
       350.891  
 20 10 02 06 40 10.0000000  0 15G13G27G15G18G20G23G24G10R15R 5R21R 6
                                R16R 7R22
  22241543.958   116880133.59648     -2956.652    22241543.209    91075449.75746
     -2303.887  
  23844557.688   125303994.60347       -49.609    23844559.028    97639488.12649
       -38.660  
  20294061.794   106646073.62449     -1357.144    20294061.285    83100852.17749
     -1057.520  
  20585800.604   108179141.29049     -1237.738    20585800.897    84295429.77348
      -964.477  
  20631641.299   108420051.95649      1809.418    20631639.955    84483166.74248
      1409.934  
  20967632.148   110185689.66349      1902.051    20967631.761    85859001.36648
      1482.113  
  22137211.581   116331853.84548      3077.788    22137214.230    90648208.27849
      2398.277  
  23404549.138   122991746.12648      3046.844    23404552.085    95837731.09249
      2374.168  
  21714648.155   116036501.59608       472.694    21714652.393    90250639.56007
       367.652  
  22396991.158   119724773.21507     -3376.421    22396995.193    93119311.67206
     -2626.108  
  21029338.084   112532227.67508     -3458.952    21029341.069    87525093.05107
     -2690.300  
  19269162.699   102823989.91408      -315.422           0.000           0.0000 
         0.000  
  22581120.479   120624284.76105      3767.027    22581123.712    93818912.65105
      2929.910  
  21212220.138   113550714.27507      2743.569    21212224.367    88317236.78307
      2133.886  
  20331268.547   108529703.78208       446.499    20331271.504    84412005.89704
       347.277  
 20 10 02 06 40 15.0000000  0 15G13G27G15G18G20G23G24G10R15R 5R21R 6
                                R16R 7R22
  22244358.259   116894922.68748     -2958.870    22244357.444    91086973.73646
     -2305.613  
  23844606.731   125304252.38746       -53.354    23844608.077    97639689.00349
       -41.578  
  20295354.668   106652867.72049     -1360.297    20295354.196    83106146.27649
     -1059.977  
  20586980.102   108185339.62749     -1241.496    20586980.431    84300259.64648
      -967.401  
  20629920.940   108411011.35049      1806.913    20629919.593    84476122.11748
      1407.984  
  20965823.582   110176185.70949      1899.772    20965823.219    85851595.68748
      1480.344  
  22134284.560   116316472.27848      3075.085    22134287.230    90636222.63849
      2396.171  
  23401650.670   122976514.79348      3045.926    23401653.641    95825862.51049
      2373.449  
  21714208.375   116034151.38808       467.691    21714212.604    90248811.64107
       363.762  
  22400150.028   119741659.05507     -3377.722    22400154.035    93132445.09107
     -2627.078  
  21032571.908   112549531.76907     -3462.508    21032574.775    87538551.79307
     -2693.065  
  19269459.690   102825574.71408      -318.472           0.000           0.0000 
         0.000  
  22577595.579   120605456.18805      3764.605    22577598.997    93804268.22105
      2928.027  
  21209658.452   113537001.15407      2741.440    21209662.693    88306571.02307
      2132.226  
  20330852.673   108527483.88308       441.503    20330855.674    84410279.31604
       343.390  
 20 10 02 06 40 20.0000000  0 15G13G27G15G18G20G23G24G10R15R 5R21R 6
                                R16R 7R22
  22247174.253   116909720.52448     -2960.120    22247173.370    91098504.51346
     -2306.589  
  23844659.175   125304528.01547       -56.832    23844660.539    97639903.76749
       -44.284  
  20296650.225   106659675.98349     -1362.812    20296649.798    83111451.42349
     -1061.933  
  20588162.812   108191554.77949     -1244.637    20588163.150    84305102.62048
      -969.848  
  20628202.632   108401981.48249      1805.039    20628201.305    84469085.85848
      1406.523  
  20964016.899   110166691.52449      1898.093    20964016.529    85844197.62348
      1479.035  
  22131359.763   116301102.14548      3073.109    22131362.439    90624245.92149
      2394.629  
  23398752.949   122961287.51148      3045.104    23398755.979    95813997.09949
      2372.809  
  21713772.940   116031824.65008       463.117    21713777.132    90247001.94807
       360.202  
  22403309.710   119758548.90207     -3378.147    22403313.642    93145581.62307
     -2627.503  
  21035808.626   112566852.07208     -3465.621    21035811.556    87552023.14107
     -2695.487  
  19269759.213   102827173.08708      -320.866           0.000           0.0000 
         0.000  
  22574072.820   120586638.21005      3763.098    22574076.226    93789632.05205
      2926.858  
  21207098.345   113523296.91807      2740.007    21207102.659    88295912.18207
      2131.116  
  20330441.415   108525288.65208       436.844    20330444.424    84408571.90604
       339.762  
 20 10 02 06 40 25.0000000  0 15G13G27G15G18G20G23G24G10R15R 5R21R 6
                                R16R 7R22
  22249991.452   116924524.88348     -2961.429    22249990.536    91110040.36745
     -2307.612  
  23844714.659   125304819.45847       -59.887    23844716.008    97640130.86849
       -46.667  
  20297948.143   106666496.46449     -1365.246    20297947.746    83116766.08449
     -1063.828  
  20589348.336   108197784.74949     -1247.391    20589348.720    84309957.14348
      -971.995  
  20626485.994   108392960.36449      1803.405    20626484.681    84462056.41348
      1405.245  
  20962211.697   110157205.12649      1896.616    20962211.288    85836805.62348
      1477.882  
  22128436.759   116285741.50448      3071.327    22128439.431    90612276.59849
      2393.241  
  23395855.607   122946062.34648      3044.499    23395858.696    95802133.33649
      2372.336  
  21713341.551   116029519.37308       458.972    21713345.632    90245208.95007
       356.977  
  22406469.760   119775440.86607     -3378.750    22406473.667    93158719.83506
     -2627.917  
  21039048.050   112584186.63007     -3468.202    21039050.998    87565505.56607
     -2697.495  
  19270060.925   102828782.92808      -323.073           0.000           0.0000 
         0.000  
  22570551.585   120567829.06405      3761.535    22570554.989    93775002.72605
      2925.637  
  21204539.550   113509599.58007      2739.081    21204543.845    88285258.70507
      2130.397  
  20330034.481   108523116.28608       432.136    20330037.417    84406882.30004
       336.104  
 20 10 02 06 40 30.0000000  0 15G13G27G15G18G20G23G24G10R15R 5R21R 6
                                R16R 7R22
  22252810.128   116939337.02748     -2963.050    22252809.173    91121582.30946
     -2308.874  
  23844773.294   125305127.77247       -63.141    23844774.710    97640371.12249
       -49.198  
  20299248.585   106673330.17549     -1368.098    20299248.211    83122091.05349
     -1066.054  
  20590536.884   108204030.61049     -1250.742    20590537.269    84314824.05048
      -974.609  
  20624771.232   108383949.04549      1801.417    20624769.906    84455034.60348
      1403.703  
  20960408.195   110147727.59349      1894.473    20960407.745    85829420.53948
      1476.211  
  22125515.800   116270391.47648      3068.934    22125518.455    90600315.53649
      2391.371  
  23392958.891   122930840.28148      3043.878    23392961.976    95790272.00249
      2371.854  
  21712914.412   116027236.52708       454.171    21712918.325    90243433.41207
       353.245  
  22409630.320   119792335.87207     -3379.234    22409634.272    93171860.39206
     -2628.371  
  21042290.242   112601536.41207     -3471.729    21042293.307    87578999.83207
     -2700.238  
  19270364.989   102830405.18808      -325.737           0.000           0.0000 
         0.000  
  22567032.191   120549029.68305      3758.992    22567035.623    93760380.98704
      2923.656  
  21201982.174   113495910.06307      2737.312    21201986.486    88274611.31107
      2129.020  
  20329631.973   108520967.70108       427.434    20329634.860    84405211.16905
       332.444  
 20 10 02 06 40 35.0000000  0 15G13G27G15G18G20G23G24G10R15R 5R21R 6
                                R16R 7R22
  22255630.395   116954157.57248     -2964.832    22255629.389    91133130.77546
     -2310.262  
  23844835.255   125305453.60247       -66.926    23844836.667    97640625.00949
       -52.147  
  20300551.658   106680177.68449     -1370.859    20300551.317    83127426.77149
     -1068.206  
  20591728.583   108210292.90749     -1254.089    20591728.966    84319703.75848
      -977.214  
  20623058.415   108374948.12749      1799.167    20623057.082    84448020.90448
      1401.949  
  20958606.477   110138259.46949      1892.761    20958605.990    85822042.77948
      1474.874  
  22122597.008   116255052.74448      3066.538    22122599.591    90588363.27449
      2389.511  
  23390062.891   122915621.95048      3043.551    23390065.918    95778413.56749
      2371.594  
  21712491.635   116024976.90108       449.691    21712495.346    90241675.92107
       349.761  
  22412791.603   119809234.58407     -3380.086    22412795.567    93185003.81906
     -2628.960  
  21045535.439   112618902.02208     -3474.570    21045538.556    87592506.42707
     -2702.445  
  19270671.495   102832040.64008      -328.410           0.000           0.0000 
         0.000  
  22563514.726   120530240.55205      3757.168    22563518.113    93745767.24105
      2922.242  
  21199426.331   113482228.99807      2735.297    21199430.690    88263970.49207
      2127.453  
  20329234.055   108518843.49508       422.484    20329236.914    84403558.99904
       328.593  
 20 10 02 06 40 40.0000000  0 15G13G27G15G18G20G23G24G10R15R 5R21R 6
                                R16R 7R22
  22258452.192   116968986.11848     -2966.223    22258451.121    91144685.48545
     -2311.348  
  23844900.466   125305796.44247       -69.789    23844901.899    97640892.15849
       -54.382  
  20301857.284   106687038.63749     -1373.098    20301856.981    83132772.96849
     -1069.949  
  20592923.325   108216571.25549     -1256.805    20592923.710    84324595.97448
      -979.332  
  20621347.506   108365957.18049      1797.590    20621346.154    84441014.97148
      1400.718  
  20956806.488   110128800.40349      1891.238    20956805.960    85814672.07948
      1473.687  
  22119680.238   116239724.76648      3064.844    22119682.739    90576419.40749
      2388.190  
  23387167.560   122900406.94448      3043.245    23387170.467    95766557.71049
      2371.355  
  21712073.026   116022739.91408       445.542    21712076.661    90239936.06107
       346.534  
  22415953.420   119826136.39907     -3380.124    22415957.466    93198149.66406
     -2629.042  
  21048783.522   112636283.04907     -3477.598    21048786.689    87606024.99407
     -2704.800  
  19270980.353   102833688.76608      -330.430           0.000           0.0000 
         0.000  
  22559998.900   120511461.57705      3755.145    22560002.510    93731161.38505
      2920.668  
  21196871.989   113468555.99507      2734.038    21196876.450    88253335.93207
      2126.476  
  20328840.569   108516743.26108       417.945    20328843.463    84401925.48704
       325.065  
 20 10 02 06 40 45.0000000  0 15G13G27G15G18G20G23G24G10R15R 5R21R 6
                                R16R 7R22
  22261275.231   116983821.22848     -2967.535    22261274.126    91156245.31345
     -2312.363  
  23844968.623   125306155.05047       -73.401    23844970.193    97641171.58849
       -57.199  
  20303165.184   106693911.66549     -1375.761    20303164.928    83138128.57449
     -1072.022  
  20594120.887   108222864.32849     -1260.090    20594121.265    84329499.66748
      -981.891  
  20619638.214   108356974.88549      1795.476    20619636.866    84434015.78548
      1399.073  
  20955007.941   110119349.03949      1889.523    20955007.425    85807307.38048
      1472.354  
  22116765.259   116224406.29148      3062.793    22116767.693    90564482.93949
      2386.593  
  23384272.635   122885193.94648      3042.612    23384275.394    95754703.43349
      2370.867  
  21711658.455   116020524.29608       441.004    21711661.994    90238212.80607
       343.003  
  22419115.664   119843040.18807     -3380.960    22419119.638    93211297.05006
     -2629.645  
  21052034.182   112653678.04607     -3480.324    21052037.437    87619554.44107
     -2706.917  
  19271291.317   102835348.19208      -333.051           0.000           0.0000 
         0.000  
  22556484.783   120492691.19705      3753.492    22556488.560    93716562.20904
      2919.383  
  21194318.867   113454889.56107      2732.527    21194323.404    88242706.49807
      2125.300  
  20328451.385   108514665.61308       413.151    20328454.182    84400309.54104
       321.336  
 20 10 02 06 40 50.0000000  0 15G13G27G15G18G20G23G24G10R15R 5R21R 6
                                R16R 7R22
  22264099.933   116998664.85448     -2969.644    22264098.752    91167811.77645
     -2314.008  
  23845040.189   125306531.28947       -77.199    23845041.827    97641464.76549
       -60.156  
  20304475.749   106700798.67249     -1378.925    20304475.512    83143495.06949
     -1074.492  
  20595321.612   108229174.05849     -1263.843    20595321.982    84334416.33948
      -984.816  
  20617930.954   108348003.23249      1793.026    20617929.595    84427024.89248
      1397.163  
  20953211.248   110109907.35049      1887.155    20953210.730    85799950.21748
      1470.512  
  22113852.476   116209099.29348      3060.120    22113854.809    90552555.41449
      2384.512  
  23381378.507   122869984.92148      3041.277    23381381.078    95742852.25349
      2369.827  
  21711248.272   116018332.02708       435.913    21711251.705    90236507.71607
       339.042  
  22422278.726   119859947.91007     -3382.215    22422282.562    93224447.50207
     -2630.612  
  21055287.834   112671089.05907     -3483.979    21055291.174    87633096.33107
     -2709.765  
  19271604.814   102837020.91408      -336.015           0.000           0.0000 
         0.000  
  22552972.793   120473931.43405      3750.211    22552976.579    93701971.27505
      2916.832  
  21191767.477   113441232.04807      2730.347    21191772.012    88232083.98507
      2123.605  
  20328066.799   108512612.72908       407.996    20328069.561    84398712.84804
       317.327  
 20 10 02 06 40 55.0000000  0 15G13G27G15G18G20G23G24G10R15R 5R21R 6
                                R16R 7R22
  22266926.093   117013516.30248     -2971.203    22266924.897    91179384.34045
     -2315.222  
  23845114.963   125306924.53946       -80.656    23845116.685    97641771.20249
       -62.848  
  20305788.852   106707699.01049     -1381.465    20305788.624    83148871.94849
     -1076.469  
  20596525.359   108235499.72949     -1266.746    20596525.733    84339345.43448
      -987.078  
  20616225.594   108339041.53749      1791.305    20616224.226    84420041.75248
      1395.815  
  20951416.263   110100474.63949      1885.637    20951415.770    85792600.06148
      1469.327  
  22110941.718   116193803.03348      3058.081    22110943.983    90540636.25549
      2382.921  
  23378484.980   122854779.14648      3040.894    23378487.415    95731003.59349
      2369.527  
  21710842.253   116016162.38108       431.543    21710845.637    90234820.22907
       335.645  
  22425442.218   119876858.68307     -3382.652    22425446.096    93237600.33106
     -2630.956  
  21058544.323   112688515.34807     -3486.729    21058547.736    87646650.10707
     -2711.906  
  19271920.692   102838706.40308      -338.426           0.000           0.0000 
         0.000  
  22549462.780   120455181.73205      3748.820    22549466.558    93687388.20705
      2915.753  
  21189217.657   113427582.47907      2728.898    21189222.106    88221467.65408
      2122.472  
  20327686.679   108510583.74408       403.324    20327689.389    84397134.75104
       313.690  
 20 10 02 06 41  0.0000000  0 15G13G27G15G18G20G23G24G10R15R 5R21R 6
                                R16R 7R22
  22269753.582   117028374.72948     -2972.687    22269752.357    91190962.34746
     -2316.379  
  23845192.769   125307333.94546       -83.391    23845194.536    97642090.23849
       -64.980  
  20307104.336   106714611.80049     -1383.812    20307104.076    83154258.53849
     -1078.300  
  20597732.001   108241840.58249     -1269.726    20597732.356    84344286.35648
      -989.397  
  20614521.946   108330088.99449      1789.519    20614520.585    84413065.75248
      1394.429  
  20949622.827   110091050.13349      1883.973    20949622.347    85785256.29448
      1468.031  
  22108032.839   116178516.71148      3056.125    22108035.004    90528724.85049
      2381.394  
  23375591.947   122839575.84448      3040.527    23375594.226    95719156.87549
      2369.241  
  21710440.311   116014014.58808       427.440    21710443.616    90233149.72307
       332.449  
  22428606.106   119893771.75707     -3382.690    22428610.071    93250754.93307
     -2630.976  
  21061803.492   112705956.03407     -3489.715    21061806.989    87660215.08107
     -2714.227  
  19272238.767   102840403.61908      -340.672           0.000           0.0000 
         0.000  
  22545954.476   120436441.28306      3746.930    22545958.169    93672812.29205
      2914.277  
  21186669.190   113413939.92507      2727.895    21186673.562    88210856.77707
      2121.694  
  20327310.897   108508577.86008       398.831    20327313.558    84395574.61104
       310.199  
 20 10 02 06 41  5.0000000  0 15G13G27G15G18G20G23G24G10R15R 5R21R 6
                                R16R 7R22
  22272582.507   117043240.74048     -2974.184    22272581.301    91202546.24146
     -2317.550  
  23845273.827   125307760.18946       -87.102    23845275.587    97642422.37649
       -67.870  
  20308422.307   106721537.75349     -1386.570    20308422.017    83159655.38049
     -1080.448  
  20598941.649   108248197.23349     -1273.128    20598941.987    84349239.58948
      -992.051  
  20612820.170   108321146.22549      1787.473    20612818.856    84406097.36348
      1392.836  
  20947831.059   110081634.45349      1882.184    20947830.572    85777919.40048
      1466.636  
  22105126.008   116163241.05648      3053.875    22105128.085    90516821.75249
      2379.644  
  23372699.495   122824375.68648      3039.628    23372701.704    95707312.60549
      2368.542  
  21710042.625   116011889.38108       422.688    21710045.763    90231496.78807
       328.757  
  22431770.586   119910688.03207     -3383.843    22431774.661    93263912.03106
     -2631.882  
  21065065.485   112723411.80907     -3492.613    21065069.045    87673791.78207
     -2716.480  
  19272559.146   102842113.19208      -343.324           0.000           0.0000 
         0.000  
  22542448.025   120417710.66806      3744.815    22542451.701    93658244.04905
      2912.637  
  21184122.115   113400305.33007      2726.043    21184126.478    88200252.10708
      2120.254  
  20326939.620   108506595.79908       393.852    20326942.118    84394033.01704
       306.328  
 20 10 02 06 41 10.0000000  0 15G13G27G15G18G20G23G24G10R15R 5R21R 6
                                R16R 7R22
  22275412.995   117058115.05448     -2975.422    22275411.859    91214136.62146
     -2318.511  
  23845358.200   125308203.94447       -90.258    23845359.992    97642768.15749
       -70.331  
  20309742.932   106728477.53049     -1389.011    20309742.577    83165063.00749
     -1082.347  
  20600154.455   108254570.38049     -1276.050    20600154.746    84354205.67048
      -994.328  
  20611120.406   108312213.96849      1785.815    20611119.081    84399137.16348
      1391.543  
  20946041.089   110072228.31549      1880.633    20946040.606    85770589.94348
      1465.429  
  22102221.338   116147976.72148      3052.195    22102223.341    90504927.46949
      2378.335  
  23369807.765   122809179.35348      3039.500    23369809.902    95695471.31849
      2368.441  
  21709649.255   116009787.33008       418.559    21709652.263    90229861.85007
       325.542  
  22434935.745   119927607.86907     -3384.081    22434939.894    93277071.89006
     -2632.066  
  21068330.398   112740883.33007     -3495.601    21068334.024    87687380.74407
     -2718.805  
  19272881.980   102843835.89908      -345.359           0.000           0.0000 
         0.000  
  22538943.609   120398990.64706      3743.171    22538947.222    93643684.03305
      2911.351  
  21181576.716   113386679.23507      2724.694    21181581.038    88189654.02808
      2119.203  
  20326572.834   108504638.18508       389.465    20326575.291    84392510.42304
       302.917  
 20 10 02 06 41 15.0000000  0 15G13G27G15G18G20G23G24G10R15R 5R21R 6
                                R16R 7R22
  22278244.549   117072994.97048     -2976.973    22278243.498    91225731.36646
     -2319.722  
  23845445.380   125308662.51647       -93.730    23845447.219    97643125.49349
       -73.035  
  20311065.680   106735428.42949     -1391.660    20311065.243    83170479.29249
     -1084.409  
  20601369.870   108260957.30649     -1279.081    20601370.115    84359182.49648
      -996.691  
  20609422.115   108303289.54549      1783.684    20609420.782    84392183.06848
      1389.883  
  20944252.444   110062829.04749      1878.699    20944251.970    85763265.84247
      1463.921  
  22099318.289   116132720.97048      3050.035    22099320.217    90493039.87849
      2376.651  
  23366916.279   122793984.18248      3038.550    23366918.334    95683630.92349
      2367.698  
  21709259.700   116007705.73108       413.984    21709262.644    90228242.82607
       321.983  
  22438101.043   119944528.60707     -3384.625    22438105.297    93290232.46206
     -2632.429  
  21071597.754   112758367.83107     -3498.628    21071601.391    87700979.79807
     -2721.159  
  19273206.738   102845569.05408      -348.054           0.000           0.0000 
         0.000  
  22535440.663   120380278.57006      3741.039    22535444.246    93629130.20205
      2909.695  
  21179032.402   113373058.94607      2723.190    21179036.671    88179060.48007
      2118.038  
  20326210.113   108502702.32808       384.663    20326212.620    84391004.76704
       299.184  
 20 10 02 06 41 20.0000000  0 15G13G27G15G18G20G23G24G10R15R 5R21R 6
                                R16R 7R22
  22281077.923   117087884.38948     -2978.969    22281076.912    91237333.50646
     -2321.277  
  23845536.211   125309139.87147       -97.293    23845538.080    97643497.46349
       -75.815  
  20312391.302   106742394.36949     -1394.785    20312390.758    83175907.30249
     -1086.843  
  20602588.648   108267361.96549     -1282.902    20602588.849    84364173.13248
      -999.668  
  20607726.064   108294376.89549      1781.272    20607724.746    84385238.14748
      1387.999  
  20942465.857   110053440.56349      1876.515    20942465.385    85755950.13548
      1462.215  
  22096417.673   116117477.88048      3047.461    22096419.495    90481162.15649
      2374.645  
  23364025.740   122778794.07848      3037.327    23364027.764    95671794.49049
      2366.749  
  21708874.716   116005648.58808       408.999    21708877.587    90226642.82407
       318.108  
  22441267.357   119961454.37107     -3385.918    22441271.653    93303396.93006
     -2633.496  
  21074868.334   112775869.36407     -3501.996    21074871.931    87714592.09607
     -2723.777  
  19273534.243   102847316.74908      -351.207           0.000           0.0000 
         0.000  
  22531939.907   120361578.34706      3738.910    22531943.484    93614585.60305
      2908.043  
  21176489.980   113359448.66407      2720.879    21176494.143    88168474.71107
      2116.238  
  20325852.308   108500792.28208       379.176    20325854.773    84389519.17004
       294.913  
 20 10 02 06 41 25.0000000  0 15G13G27G15G18G20G23G24G10R15R 5R21R 6
                                R16R 7R22
  22283912.826   117102781.78148     -2980.207    22283911.812    91248941.85546
     -2322.241  
  23845630.294   125309634.43347      -100.660    23845632.184    97643882.83249
       -78.441  
  20313719.469   106749373.80649     -1397.141    20313718.861    83181345.81949
     -1088.683  
  20603810.509   108273782.79649     -1285.647    20603810.639    84369176.37848
     -1001.808  
  20606031.938   108285474.45149      1779.581    20606030.668    84378301.18148
      1386.687  
  20940681.024   110044061.32749      1875.160    20940680.592    85748641.64648
      1461.163  
  22093519.123   116102245.83548      3045.422    22093520.901    90469293.02649
      2373.051  
  23361135.852   122763607.49148      3037.155    23361137.846    95659960.79349
      2366.616  
  21708494.024   116003614.37708       404.586    21708496.911    90225060.65307
       314.675  
  22444434.263   119978383.42307     -3386.047    22444438.649    93316563.96906
     -2633.598  
  21078141.754   112793386.18907     -3504.703    21078145.331    87728216.29007
     -2725.882  
  19273864.184   102849077.37608      -353.140           0.000           0.0000 
         0.000  
  22528441.186   120342888.52406      3737.316    22528444.697    93600049.08405
      2906.800  
  21173949.020   113345846.55107      2719.914    21173953.154    88157895.29207
      2115.487  
  20325499.001   108498906.39708       374.961    20325501.511    84388052.36104
       291.632  
 20 10 02 06 41 30.0000000  0 15G13G27G15G18G20G23G24G10R15R 5R21R 6
                                R16R 7R22
  22286748.817   117117685.04548     -2981.487    22286747.848    91260554.79146
     -2323.238  
  23845727.314   125310144.18247      -104.238    23845729.189    97644280.02149
       -81.230  
  20315049.815   106756364.66649     -1399.628    20315049.146    83186793.23949
     -1090.621  
  20605035.047   108280217.75549     -1288.688    20605035.111    84374190.63348
     -1004.172  
  20604339.403   108276580.24449      1777.647    20604338.164    84371370.62648
      1385.176  
  20938897.606   110034689.34449      1873.308    20938897.202    85741338.80647
      1459.723  
  22090622.290   116087022.93748      3043.199    22090624.030    90457431.04049
      2371.324  
  23358246.261   122748422.46248      3036.569    23358248.251    95648128.31949
      2366.159  
  21708117.253   116001601.02808       400.315    21708120.219    90223494.73207
       311.354  
  22447601.460   119995313.77907     -3386.394    22447605.766    93329732.00906
     -2633.866  
  21081417.651   112810916.33107     -3507.922    21081421.209    87741850.83507
     -2728.387  
  19274196.100   102850848.54608      -355.733           0.000           0.0000 
         0.000  
  22524943.826   120324206.91006      3735.262    22524947.507    93585518.98005
      2905.206  
  21171409.132   113332250.64007      2718.398    21171413.364    88147320.70608
      2114.309  
  20325149.910   108497042.73708       370.214    20325152.378    84386602.85204
       287.941  
 20 10 02 06 41 35.0000000  0 15G13G27G15G18G20G23G24G10R15R 5R21R 6
                                R16R 7R22
  22289586.536   117132597.35648     -2983.261    22289585.641    91272174.76446
     -2324.624  
  23845827.859   125310672.24147      -107.406    23845829.703    97644691.48449
       -83.695  
  20316382.905   106763370.10449     -1402.437    20316382.192    83192252.02849
     -1092.809  
  20606262.913   108286670.01349     -1292.133    20606262.896    84379218.36348
     -1006.854  
  20602649.031   108267697.37149      1775.590    20602647.794    84364448.90748
      1383.574  
  20937116.136   110025327.74749      1871.315    20937115.741    85734044.05048
      1458.164  
  22087727.782   116071812.26048      3041.062    22087729.485    90445578.58049
      2369.659  
  23355357.570   122733242.06948      3035.772    23355359.558    95636299.44949
      2365.538  
  21707744.959   115999611.76008       395.550    21707748.008    90221947.52507
       307.652  
  22450769.475   120012248.73007     -3387.272    22450773.819    93342903.62806
     -2634.551  
  21084696.597   112828463.01107     -3510.875    21084700.191    87755498.26307
     -2730.683  
  19274530.581   102852633.52408      -358.386           0.000           0.0000 
         0.000  
  22521448.819   120305536.92906      3732.641    22521452.494    93570997.89005
      2903.163  
  21168871.111   113318664.16807      2716.519    21168875.345    88136753.46108
      2112.848  
  20324805.540   108495204.34608       365.351    20324808.038    84385172.99104
       284.160  
 20 10 02 06 41 40.0000000  0 15G13G27G15G18G20G23G24G10R15R 5R21R 6
                                R16R 7R22
  22292425.536   117147516.59048     -2984.313    22292424.729    91283800.13746
     -2325.441  
  23845931.535   125311216.53047      -110.284    23845933.304    97645115.58649
       -85.945  
  20317718.386   106770388.04049     -1404.781    20317717.609    83197720.55649
     -1094.633  
  20607493.642   108293137.47549     -1295.066    20607493.559    84384257.94148
     -1009.147  
  20600960.429   108258823.77249      1773.812    20600959.175    84357534.41948
      1382.190  
  20935336.249   110015974.44349      1869.874    20935335.883    85726755.76648
      1457.046  
  22084835.203   116056611.90548      3039.090    22084836.901    90433734.15249
      2368.120  
  23352469.389   122718064.29348      3035.305    23352471.345    95624472.60649
      2365.167  
  21707376.744   115997644.47408       391.222    21707379.924    90220417.41007
       304.281  
  22453937.877   120029185.93607     -3387.679    22453942.318    93356077.00506
     -2634.777  
  21087978.165   112846024.00107     -3513.729    21087981.845    87769156.81707
     -2732.902  
  19274867.341   102854430.57108      -360.573           0.000           0.0000 
         0.000  
  22517955.496   120286876.16606      3731.300    22517959.254    93556483.97805
      2902.120  
  21166334.450   113305084.97107      2715.090    21166338.669    88126191.87408
      2111.737  
  20324465.529   108493389.09008       360.901    20324467.927    84383761.12704
       280.702  
 20 10 02 06 41 45.0000000  0 15G13G27G15G18G20G23G24G10R15R 5R21R 6
                                R16R 7R22
  22295265.970   117162443.33048     -2986.245    22295265.253    91295431.35646
     -2326.949  
  23846038.364   125311777.51247      -114.211    23846040.083    97645552.73849
       -88.992  
  20319056.323   106777419.00849     -1407.710    20319055.497    83203199.23349
     -1096.917  
  20608727.346   108299620.63449     -1298.535    20608727.225    84389309.75348
     -1011.847  
  20599273.703   108249959.96849      1771.397    20599272.463    84350627.55448
      1380.305  
  20933558.069   110006629.98049      1867.797    20933557.736    85719474.36748
      1455.425  
  22081944.613   116041422.15548      3036.441    22081946.335    90421897.98649
      2366.058  
  23349581.759   122702889.63248      3034.116    23349583.760    95612648.20949
      2364.246  
  21707012.758   115995699.66008       386.300    21707016.012    90218904.79207
       300.456  
  22457106.957   120046126.01907     -3388.707    22457111.289    93369252.59606
     -2635.776  
  21091262.502   112863599.87107     -3516.984    21091266.344    87782826.92807
     -2735.437  
  19275206.394   102856239.88508      -363.367           0.000           0.0000 
         0.000  
  22514463.987   120268225.58806      3728.788    22514467.905    93541977.98405
      2900.167  
  21163799.232   113291513.65807      2713.124    21163803.505    88115636.39208
      2110.202  
  20324129.916   108491597.66208       355.656    20324132.399    84382367.79204
       276.617  
 20 10 02 06 41 50.0000000  0 15G13G27G15G18G20G23G24G10R15R 5R21R 6
                                R16R 7R22
  22298107.957   117177378.13248     -2987.628    22298107.342    91307068.86346
     -2328.027  
  23846148.479   125312355.91947      -116.780    23846150.168    97646003.45149
       -90.999  
  20320396.820   106784463.55349     -1410.171    20320395.993    83208688.49649
     -1098.839  
  20609964.142   108306120.10549     -1301.336    20609963.992    84394374.26848
     -1014.031  
  20597588.967   108241106.55849      1769.780    20597587.762    84343728.79948
      1379.047  
  20931781.692   109997294.96349      1866.234    20931781.357    85712200.32648
      1454.203  
  22079056.187   116026243.68648      3034.738    22079057.963    90410070.61749
      2364.730  
  23346694.848   122687718.68648      3033.840    23346696.855    95600826.68949
      2364.027  
  21706653.096   115993777.89308       382.245    21706656.370    90217410.07407
       297.301  
  22460276.603   120063069.62507     -3388.929    22460280.908    93382430.97606
     -2635.820  
  21094549.752   112881191.19907     -3519.637    21094553.725    87796509.06507
     -2737.499  
  19275547.837   102858062.17308      -365.578           0.000           0.0000 
         0.000  
  22510974.626   120249585.67006      3727.128    22510978.485    93527480.25705
      2898.874  
  21161265.479   113277950.74907      2712.030    21161269.955    88105087.47508
      2109.359  
  20323798.874   108489830.59608       351.132    20323801.325    84380993.41404
       273.097  
 20 10 02 06 41 55.0000000  0 15G13G27G15G18G20G23G24G10R15R 5R21R 6
                                R16R 7R22
  22300951.247   117192319.59848     -2988.956    22300950.685    91318711.56346
     -2329.062  
  23846261.610   125312950.30547      -120.465    23846263.292    97646466.61549
       -93.867  
  20321739.662   106791520.39449     -1412.593    20321738.856    83214187.33049
     -1100.726  
  20611203.764   108312634.51849     -1304.379    20611203.614    84399450.43648
     -1016.402  
  20595905.954   108232262.20149      1767.973    20595904.782    84336837.08948
      1377.636  
  20930006.866   109987968.03049      1864.448    20930006.508    85704932.58848
      1452.815  
  22076169.669   116011075.21648      3032.727    22076171.498    90398251.02749
      2363.164  
  23343808.419   122672550.12148      3033.612    23343810.365    95589007.02949
      2363.851  
  21706297.536   115991877.88608       377.940    21706300.800    90215932.28507
       293.948  
  22463446.692   120080015.31307     -3389.137    22463450.894    93395610.94606
     -2636.000  
  21097839.670   112898796.62507     -3522.491    21097843.748    87810202.16707
     -2739.719  
  19275891.508   102859896.13008      -367.938           0.000           0.0000 
         0.000  
  22507486.959   120230954.90006      3725.473    22507490.792    93512989.67405
      2897.590  
  21158733.075   113264394.90207      2710.530    21158737.701    88094544.04608
      2108.191  
  20323472.150   108488086.58808       346.512    20323474.665    84379636.96104
       269.503  
 20 10 02 06 42  0.0000000  0 15G13G27G15G18G20G23G24G10R15R 5R21R 6
                                R16R 7R22
  22303795.964   117207268.65848     -2990.586    22303795.471    91330360.17646
     -2330.331  
  23846377.986   125313561.54947      -123.586    23846379.636    97646942.89949
       -96.300  
  20323085.007   106798590.35749     -1415.332    20323084.218    83219696.39249
     -1102.859  
  20612446.409   108319164.75449     -1307.597    20612446.214    84404538.92648
     -1018.909  
  20594224.836   108223427.80349      1765.941    20594223.683    84329953.14648
      1376.054  
  20928233.735   109978650.07349      1862.695    20928233.392    85697671.84748
      1451.448  
  22073285.210   115995917.59348      3030.285    22073287.155    90386439.90449
      2361.261  
  23340922.585   122657384.80548      3032.734    23340924.549    95577189.90649
      2363.167  
  21705946.251   115990000.57108       372.976    21705949.507    90214472.14507
       290.089  
  22466617.289   120096963.97107     -3389.913    22466621.379    93408793.23506
     -2636.605  
  21101132.471   112916416.94207     -3525.453    21101136.553    87823906.84507
     -2742.022  
  19276237.502   102861742.57408      -370.542           0.000           0.0000 
         0.000  
  22504001.209   120212334.37006      3723.160    22504005.021    93498507.04405
      2895.793  
  21156202.184   113250847.06607      2708.815    21156206.919    88084006.84108
      2106.854  
  20323149.884   108486366.43308       341.683    20323152.479    84378299.04804
       265.750  
 20 10 02 06 42  5.0000000  0 15G13G27G15G18G20G23G24G10R15R 5R21R 6
                                R16R 7R22
  22306642.152   117222225.53848     -2992.637    22306641.707    91342014.88046
     -2331.929  
  23846497.581   125314189.96647      -127.663    23846499.219    97647432.56949
       -99.479  
  20324432.882   106805673.67549     -1418.402    20324432.136    83225215.86149
     -1105.254  
  20613692.142   108325711.09749     -1311.238    20613691.887    84409639.96748
     -1021.745  
  20592545.700   108214603.66649      1763.468    20592544.544    84323077.19648
      1374.129  
  20926462.353   109969341.36549      1860.503    20926462.011    85690418.30748
      1449.741  
  22070402.853   115980771.08148      3027.737    22070404.914    90374637.42049
      2359.273  
  23338037.417   122642223.04848      3031.425    23338039.394    95565375.55249
      2362.148  
  21705599.236   115988146.07208       368.266    21705602.450    90213029.76407
       286.429  
  22469788.590   120113915.98807     -3391.316    22469792.531    93421978.14606
     -2637.702  
  21104428.108   112934052.40307     -3529.116    21104432.190    87837623.31307
     -2744.871  
  19276585.878   102863601.76208      -373.699           0.000           0.0000 
         0.000  
  22500517.239   120193724.28306      3720.663    22500521.205    93484032.53805
      2893.852  
  21153672.808   113237307.33507      2706.797    21153677.637    88073475.94308
      2105.285  
  20322832.198   108484670.44708       336.495    20322834.824    84376979.95005
       261.714  
 20 10 02 06 42 10.0000000  0 15G13G27G15G18G20G23G24G10R15R 5R21R 6
                                R16R 7R22
  22309490.063   117237191.31948     -2994.030    22309489.600    91353676.52646
     -2333.015  
  23846620.689   125314836.65147      -131.359    23846622.294    97647936.48049
      -102.363  
  20325783.518   106812771.56249     -1420.957    20325782.842    83230746.67949
     -1107.241  
  20614941.155   108332274.67049     -1314.363    20614940.832    84414754.43748
     -1024.183  
  20590868.719   108205790.91549      1761.479    20590867.541    84316210.11748
      1372.578  
  20924692.952   109960043.09849      1858.652    20924692.625    85683172.90548
      1448.297  
  22067522.882   115965636.79148      3025.828    22067525.000    90362844.46649
      2357.788  
  23335153.098   122627065.97848      3030.988    23335155.162    95553564.85749
      2361.808  
  21705256.689   115986315.60608       363.621    21705259.938    90211606.05707
       282.813  
  22472960.628   120130872.38107     -3391.671    22472964.569    93435166.45906
     -2637.969  
  21107726.822   112951704.20608     -3531.914    21107730.847    87851352.47807
     -2747.047  
  19276936.895   102865474.85508      -375.965           0.000           0.0000 
         0.000  
  22497035.634   120175125.95106      3718.737    22497039.635    93469567.17306
      2892.352  
  21151145.254   113223777.05007      2705.379    21151150.112    88062952.39108
      2104.184  
  20322519.285   108482999.81408       331.663    20322521.894    84375680.56004
       257.956  
 20 10 02 06 42 15.0000000  0 15G13G27G15G18G20G23G24G10R15R 5R21R 6
                                R16R 7R22
  22312339.130   117252163.13848     -2994.991    22312338.628    91365342.88246
     -2333.765  
  23846746.716   125315498.70947      -133.953    23846748.257    97648452.37349
      -104.378  
  20327136.371   106819881.04149     -1422.979    20327135.754    83236286.53649
     -1108.820  
  20616192.885   108338852.58749     -1316.937    20616192.544    84419880.08348
     -1026.188  
  20589193.352   108196986.64849      1760.008    20589192.169    84309349.65248
      1371.434  
  20922924.990   109950752.33349      1857.551    20922924.674    85675933.34848
      1447.438  
  22064644.725   115950512.16448      3023.953    22064646.934    90351059.04949
      2356.327  
  23332269.130   122611910.68748      3030.988    23332271.283    95541755.54149
      2361.808  
  21704918.071   115984506.25708       359.832    21704921.373    90210198.78507
       279.870  
  22476132.916   120147830.23407     -3391.819    22476136.766    93448355.90206
     -2638.081  
  21111028.013   112969369.39408     -3534.409    21111031.973    87865092.07007
     -2748.987  
  19277289.959   102867359.00108      -377.847           0.000           0.0000 
         0.000  
  22493555.591   120156536.31306      3717.147    22493559.681    93455108.58605
      2891.116  
  21148618.867   113210253.25807      2704.363    21148623.786    88052433.89308
      2103.395  
  20322210.553   108481351.59708       327.430    20322213.224    84374398.60804
       254.663  
 20 10 02 06 42 20.0000000  0 15G13G27G15G18G20G23G24G10R15R 5R21R 6
                                R16R 7R22
  22315189.494   117267141.90448     -2996.551    22315188.960    91377014.64145
     -2334.979  
  23846875.843   125316177.08947      -137.464    23846877.331    97648980.97149
      -107.120  
  20328491.608   106827003.01649     -1425.702    20328491.028    83241836.12449
     -1110.941  
  20617447.510   108345445.71849     -1320.210    20617447.130    84425017.59048
     -1028.737  
  20587519.788   108188191.79249      1757.843    20587518.594    84302496.51948
      1369.745  
  20921158.614   109941469.96749      1855.527    20921158.315    85668700.34148
      1445.866  
  22061768.527   115935397.82548      3021.729    22061770.802    90339281.64449
      2354.594  
  23329385.675   122596758.08948      3030.066    23329387.896    95529948.33549
      2361.089  
  21704583.602   115982718.92208       355.136    21704586.988    90208808.63507
       276.214  
  22479305.674   120164790.41407     -3392.327    22479309.402    93461547.13606
     -2638.479  
  21114331.914   112987048.86108     -3537.379    21114335.744    87878842.76707
     -2751.296  
  19277645.261   102869254.99208      -380.425           0.000           0.0000 
         0.000  
  22490077.305   120137956.40106      3714.988    22490081.492    93440657.55305
      2889.434  
  21146093.815   113196736.79807      2702.315    21146098.830    88041921.10307
      2101.800  
  20321906.164   108479726.71508       322.355    20321908.906    84373134.81904
       250.722  
 20 10 02 06 42 25.0000000  0 15G13G27G15G18G20G23G24G10R15R 5R21R 6
                                R16R 7R22
  22318041.471   117282129.08448     -2998.288    22318040.905    91388692.96946
     -2336.332  
  23847008.359   125316873.21547      -140.961    23847009.762    97649523.40749
      -109.844  
  20329849.505   106834138.97249     -1428.453    20329848.940    83247396.60849
     -1113.086  
  20618705.299   108352055.56649     -1323.585    20618704.927    84430168.12148
     -1031.370  
  20585848.299   108179407.83649      1755.753    20585847.070    84295651.87848
      1368.120  
  20919394.110   109932197.53149      1853.496    20919393.853    85661475.06948
      1444.280  
  22058894.533   115920295.29348      3019.218    22058896.900    90327513.43649
      2352.633  
  23326503.008   122581609.69548      3029.284    23326505.292    95518144.39749
      2360.479  
  21704253.538   115980955.22608       350.324    21704257.015    90207436.85607
       272.469  
  22482479.217   120181754.63007     -3393.190    22482482.799    93474741.50406
     -2639.155  
  21117638.686   113004744.09307     -3540.504    21117642.481    87892605.71707
     -2753.729  
  19278003.094   102871164.36008      -383.117           0.000           0.0000 
         0.000  
  22486601.209   120119387.69006      3712.667    22486605.339    93426215.22805
      2887.628  
  21143570.433   113183229.37407      2700.672    21143575.537    88031415.32807
      2100.522  
  20321606.431   108478126.68908       317.437    20321609.198    84371890.35704
       246.894  
 20 10 02 06 42 30.0000000  0 15G13G27G15G18G20G23G24G10R15R 5R21R 6
                                R16R 7R22
  22320894.852   117297123.63548     -2999.425    22320894.266    91400377.03646
     -2337.219  
  23847144.081   125317586.09347      -144.398    23847145.424    97650078.89349
      -112.522  
  20331209.869   106841287.85349     -1430.925    20331209.290    83252967.17149
     -1115.007  
  20619966.078   108358681.09949     -1326.440    20619965.715    84435330.86848
     -1033.594  
  20584178.656   108170633.74149      1754.059    20584177.440    84288814.92848
      1366.801  
  20917631.311   109922933.98749      1852.007    20917631.105    85654256.72448
      1443.120  
  22056022.618   115905203.46648      3017.511    22056025.020    90315753.56849
      2351.305  
  23323620.965   122566464.48948      3029.175    23323623.280    95506342.94749
      2360.398  
  21703927.701   115979214.01808       346.301    21703931.259    90206082.60007
       269.343  
  22485653.274   120198721.53307     -3393.772    22485656.734    93487937.98406
     -2639.605  
  21120948.145   113022453.99208     -3543.301    21120951.984    87906380.08107
     -2755.905  
  19278363.214   102873086.03408      -385.387           0.000           0.0000 
         0.000  
  22483126.923   120100829.08406      3710.620    22483131.069    93411780.75805
      2886.039  
  21141048.565   113169729.83707      2699.254    21141053.733    88020915.68708
      2099.413  
  20321311.094   108476550.41008       312.874    20321313.902    84370664.36904
       243.348  
 20 10 02 06 42 35.0000000  0 15G13G27G15G18G20G23G24G10R15R 5R21R 6
                                R16R 7R22
  22323749.624   117312125.47048     -3001.362    22323749.017    91412066.76746
     -2338.729  
  23847282.953   125318315.59047      -147.843    23847284.258    97650647.32949
      -115.206  
  20332572.687   106848449.57449     -1433.796    20332572.066    83258547.73149
     -1117.250  
  20621229.820   108365322.20549     -1329.973    20621229.476    84440505.75848
     -1036.348  
  20582510.870   108161869.43449      1751.805    20582509.664    84281985.60148
      1365.042  
  20915870.168   109913679.24749      1849.891    20915870.018    85647045.24048
      1441.472  
  22053152.760   115890122.44848      3014.930    22053155.208    90304002.13349
      2349.296  
  23320739.525   122551322.35648      3027.898    23320741.836    95494543.88349
      2359.401  
  21703606.017   115977495.19408       341.429    21703609.663    90204745.73007
       265.550  
  22488827.823   120215691.25407     -3394.351    22488831.260    93501136.64306
     -2640.077  
  21124260.329   113040178.50207     -3546.707    21124264.232    87920165.81207
     -2758.555  
  19278725.602   102875019.95708      -388.125           0.000           0.0000 
         0.000  
  22479654.558   120082280.71006      3708.335    22479658.753    93397354.24705
      2884.262  
  21138528.222   113156237.99307      2697.421    21138533.356    88010422.02508
      2097.992  
  20321020.266   108474997.85808       308.058    20321023.041    84369456.82805
       239.602  
 20 10 02 06 42 40.0000000  0 15G13G27G15G18G20G23G24G10R15R 5R21R 6
                                R16R 7R22
  22326605.747   117327134.37748     -3002.378    22326605.110    91423762.02246
     -2339.516  
  23847424.941   125319061.55447      -150.858    23847426.258    97651228.60849
      -117.555  
  20333937.918   106855624.00849     -1436.121    20333937.294    83264138.20349
     -1119.059  
  20622496.494   108371978.71249     -1332.824    20622496.167    84445692.64648
     -1038.566  
  20580844.925   108153114.74049      1750.023    20580843.716    84275163.76048
      1363.656  
  20914110.681   109904433.14049      1848.421    20914110.573    85639840.48548
      1440.327  
  22050284.949   115875052.06248      3012.867    22050287.425    90292258.97849
      2347.688  
  23317858.672   122536183.15548      3027.515    23317860.929    95482747.11349
      2359.102  
  21703288.494   115975798.63808       337.219    21703292.259    90203426.18907
       262.281  
  22492002.833   120232663.50407     -3394.792    22492006.224    93514337.27606
     -2640.398  
  21127575.223   113057917.41807     -3549.156    21127579.200    87933962.73607
     -2760.456  
  19279090.303   102876965.98208      -390.378           0.000           0.0000 
         0.000  
  22476184.038   120063742.12806      3706.777    22476188.285    93382935.35305
      2883.051  
  21136009.358   113142753.75507      2696.297    21136014.433    87999934.28608
      2097.116  
  20320733.789   108473468.74608       303.608    20320736.572    84368267.52004
       236.136  
 20 10 02 06 42 45.0000000  0 15G13G27G15G18G20G23G24G10R15R 5R21R 6
                                R16R 7R22
  22329463.114   117342149.84548     -3003.812    22329462.466    91435462.38746
     -2340.637  
  23847570.003   125319823.45447      -154.047    23847571.324    97651822.28849
      -120.039  
  20335305.474   106862810.52949     -1438.566    20335304.821    83269738.09349
     -1120.961  
  20623766.001   108378650.08149     -1336.047    20623765.679    84450891.11748
     -1041.073  
  20579180.688   108144369.14749      1748.039    20579179.501    84268349.01648
      1362.105  
  20912352.746   109895195.16449      1846.703    20912352.683    85632642.06248
      1438.988  
  22047419.040   115859991.64148      3010.887    22047421.561    90280523.59149
      2346.144  
  23314978.233   122521046.31548      3027.117    23314980.499    95470952.17349
      2358.789  
  21702975.048   115974123.80108       332.668    21702978.860    90202123.54507
       258.742  
  22495178.263   120249637.81007     -3394.996    22495181.575    93527539.48806
     -2640.559  
  21130892.693   113075670.11707     -3552.124    21130896.761    87947770.38707
     -2762.770  
  19279457.146   102878923.52308      -392.866           0.000           0.0000 
         0.000  
  22472715.309   120045213.08006      3704.620    22472719.568    93368523.86205
      2881.366  
  21133491.861   113129276.61307      2694.582    21133496.851    87989452.07108
      2095.785  
  20320451.635   108471962.65208       298.839    20320454.431    84367096.11604
       232.430  
 20 10 02 06 42 50.0000000  0 15G13G27G15G18G20G23G24G10R15R 5R21R 6
                                R16R 7R22
  22332322.236   117357174.38348     -3005.656    22332321.515    91447169.80846
     -2342.073  
  23847718.522   125320603.80447      -157.226    23847719.912    97652430.35649
      -122.519  
  20336675.818   106870011.73449     -1441.452    20336675.143    83275349.42749
     -1123.211  
  20625038.811   108385338.83749     -1339.167    20625038.499    84456103.13448
     -1043.511  
  20577518.649   108135635.19849      1745.961    20577517.486    84261543.34048
      1360.483  
