     2.11           OBSERVATION DATA    M                   RINEX VERSION / TYPE
LEICA GEO OFFICE 8.4                    2-10-20 23:22       PGM / RUN BY / DATE
                                                            OBSERVER / AGENCY
SUTY                                                        MARKER NAME
SUTY                                                        MARKER NUMBER
468588              LEICA GX1220GG      5.60                REC # / TYPE / VERS
                    LEIAX1202GG                             ANT # / TYPE
 -1228635.6561  3807159.3828  4951916.4653                  APPROX POSITION XYZ
        1.4520        0.0000        0.0000                  ANTENNA: DELTA H/E/N
L1PhaOff:   0.0644  L2PhaOff:   0.0640                      COMMENT
     1     1                                                WAVELENGTH FACT L1/2
     6    C1    L1    D1    P2    L2    D2                  # / TYPES OF OBSERV
  2020    10     2     6    39   40.0000000     GPS         TIME OF FIRST OBS
  2020    10     2     8    11   45.0000000     GPS         TIME OF LAST OBS
    18                                                      LEAP SECONDS
    21                                                      # OF SATELLITES
          C1    L1    D1    P2    L2    D2                  COMMENT
   G 1     0     0     0     0     0     0                  PRN / # OF OBS
   G 2     0     0     0     0     0     0                  PRN / # OF OBS
   G 3     0     0     0     0     0     0                  PRN / # OF OBS
   G 4     0     0     0     0     0     0                  PRN / # OF OBS
   G 5     0     0     0     0     0     0                  PRN / # OF OBS
   G 6     0     0     0     0     0     0                  PRN / # OF OBS
   G 7     0     0     0     0     0     0                  PRN / # OF OBS
   G 8   602   602   602   598   598   598                  PRN / # OF OBS
   G 9     0     0     0     0     0     0                  PRN / # OF OBS
   G10  1106  1106  1106  1106  1106  1106                  PRN / # OF OBS
   G11     0     0     0     0     0     0                  PRN / # OF OBS
   G12     0     0     0     0     0     0                  PRN / # OF OBS
   G13   757   757   757   757   757   757                  PRN / # OF OBS
   G14     0     0     0     0     0     0                  PRN / # OF OBS
   G15  1106  1106  1106  1106  1106  1106                  PRN / # OF OBS
   G16     0     0     0     0     0     0                  PRN / # OF OBS
   G17     0     0     0     0     0     0                  PRN / # OF OBS
   G18  1105  1105  1105  1105  1105  1105                  PRN / # OF OBS
   G19     0     0     0     0     0     0                  PRN / # OF OBS
   G20  1106  1106  1106  1106  1106  1106                  PRN / # OF OBS
   G21   720   720   720   719   719   719                  PRN / # OF OBS
   G22     0     0     0     0     0     0                  PRN / # OF OBS
   G23  1106  1106  1106  1106  1106  1106                  PRN / # OF OBS
   G24  1106  1106  1106  1106  1106  1106                  PRN / # OF OBS
   G25     0     0     0     0     0     0                  PRN / # OF OBS
   G26     0     0     0     0     0     0                  PRN / # OF OBS
   G27   844   844   844   844   844   844                  PRN / # OF OBS
   G28     0     0     0     0     0     0                  PRN / # OF OBS
   G29     0     0     0     0     0     0                  PRN / # OF OBS
   G30     0     0     0     0     0     0                  PRN / # OF OBS
   G31     0     0     0     0     0     0                  PRN / # OF OBS
   G32   493   493   493   493   493   493                  PRN / # OF OBS
   R 1     0     0     0     0     0     0                  PRN / # OF OBS
   R 2     0     0     0     0     0     0                  PRN / # OF OBS
   R 3     0     0     0     0     0     0                  PRN / # OF OBS
   R 4     0     0     0     0     0     0                  PRN / # OF OBS
   R 5   375   375   375   341   341   341                  PRN / # OF OBS
   R 6  1106  1106  1106     0     0     0                  PRN / # OF OBS
   R 7  1106  1106  1106  1106  1106  1106                  PRN / # OF OBS
   R 8   507   507   507   505   505   505                  PRN / # OF OBS
   R 9     0     0     0     0     0     0                  PRN / # OF OBS
   R10     0     0     0     0     0     0                  PRN / # OF OBS
   R11     0     0     0     0     0     0                  PRN / # OF OBS
   R12     0     0     0     0     0     0                  PRN / # OF OBS
   R13     0     0     0     0     0     0                  PRN / # OF OBS
   R14     0     0     0     0     0     0                  PRN / # OF OBS
   R15  1101  1101  1101  1103  1103  1103                  PRN / # OF OBS
   R16  1100  1100  1100  1100  1100  1100                  PRN / # OF OBS
   R17     0     0     0     0     0     0                  PRN / # OF OBS
   R18     0     0     0     0     0     0                  PRN / # OF OBS
   R19     0     0     0     0     0     0                  PRN / # OF OBS
   R20     0     0     0     0     0     0                  PRN / # OF OBS
   R21   683   683   683   683   683   683                  PRN / # OF OBS
   R22  1104  1104  1104  1105  1105  1105                  PRN / # OF OBS
   R23   874   874   874   842   842   842                  PRN / # OF OBS
   R24    24    24    24    22    22    22                  PRN / # OF OBS
                                                            END OF HEADER
 20 10 02 06 39 40.0000000  0 14G27G24G15G18G20G23G10G13R15R 6R 7R21
                                R22R16
  23867529.687   125424714.70747       -18.262    23867532.061    97733553.35749
       -14.230  
  22130083.796   116294374.14748      3076.022    22130086.282    90619003.30249
      2396.901  
  20286578.316   106606738.43249     -1349.714    20286577.809    83070202.03149
     -1051.727  
  20569184.586   108091817.02849     -1197.343    20569184.538    84227386.22048
      -933.000  
  20650104.136   108517064.75649      1828.820    20650103.109    84558767.33548
      1425.051  
  20987773.409   110291530.85749      1916.777    20987773.273    85941466.99048
      1493.590  
  23435558.600   123154695.26248      3046.179    23435561.006    95964705.50249
      2373.652  
  22232794.024   116834120.50557     -2953.089    22232793.321    91039571.24054
     -2301.104  
  21725300.359   116093418.11805  -2097152.000    21725306.708    90294907.14705
  -2097152.000  
  19275742.721   102859097.67508      -301.680           0.000           0.0000 
         0.000  
  21233683.573   113665610.54008      2738.503    21233687.413    88406617.44807
      2129.944  
  20994557.032   112346117.48808     -3423.448    20994560.851    87380354.30907
     -2662.687  
  20345815.587   108607364.58708       497.199    20345819.885    84472400.43304
       386.707  
  22582552.886   120631955.39104      3762.613    22582558.966    93824872.36505
      2926.477  
 20 10 02 06 39 45.0000000  0 15G27G24G15G18G20G23G10G13R15R 6R 7R21
                                R22R16R 5
  23867548.402   125424813.05647       -20.937    23867550.745    97733629.98849
       -16.319  
  22127157.795   116278997.81348      3074.515    22127160.247    90607021.74349
      2395.727  
  20287863.403   106613491.57549     -1351.613    20287862.889    83075464.21749
     -1053.210  
  20570325.088   108097810.31349     -1199.905    20570325.007    84232056.31348
      -934.996  
  20648364.667   108507923.75649      1827.707    20648363.643    84551644.48148
      1424.188  
  20985950.137   110281949.56449      1915.793    20985950.022    85934001.05148
      1492.820  
  23432660.197   123139463.77048      3046.410    23432662.571    95952836.80249
      2373.820  
  22235604.195   116848887.99348     -2953.660    22235603.545    91051078.35546
     -2301.558  
  21724856.977   116091048.82108  -2097152.000    21724863.324    90293064.34907
  -2097152.000  
  19276026.218   102860610.33908      -303.516           0.000           0.0000 
         0.000  
  21231126.071   113651920.12408      2737.702    21231129.914    88395969.34807
      2129.324  
  20997756.809   112363240.04808     -3425.694    20997760.609    87393671.85107
     -2664.434  
  20345351.718   108604888.45807       493.437    20345356.046    84470474.55904
       383.781  
  22579031.571   120613145.25005      3761.519    22579037.669    93810242.28905
      2925.629  
  22385595.182   119663835.06617     -3360.351    22385600.308    93071892.89917
     -2613.604  
 20 10 02 06 39 50.0000000  0 15G27G24G15G18G20G23G10G13R15R 6R 7R21
                                R22R16R 5
  23867569.931   125424926.09847       -23.831    23867572.218    97733718.07349
       -18.574  
  22124233.389   116263629.95648      3072.917    22124235.836    90595046.79749
      2394.480  
  20289150.583   106620255.75149     -1354.027    20289150.068    83080735.00149
     -1055.090  
  20571468.191   108103817.32749     -1202.663    20571468.111    84236737.09948
      -937.144  
  20646626.627   108498790.23449      1826.031    20646625.569    84544527.45248
      1422.879  
  20984128.123   110272374.78049      1914.456    20984128.016    85926540.17748
      1491.781  
  23429761.883   123124233.12348      3046.145    23429764.202    95940968.77849
      2373.617  
  22238415.429   116863661.12448     -2955.129    22238414.792    91062589.88046
     -2302.703  
  21724417.390   116088699.79708  -2097152.000    21724423.737    90291237.33407
  -2097152.000  
  19276311.603   102862133.20808      -305.449           0.000           0.0000 
         0.000  
  21228569.604   113638235.31308      2736.359    21228573.494    88385325.62007
      2128.280  
  21000959.069   112380375.86308     -3428.323    21000962.822    87406999.70307
     -2666.472  
  20344891.872   108602433.73307       489.129    20344896.170    84468565.32704
       380.434  
  22575511.753   120594342.29704      3759.984    22575517.730    93795617.76305
      2924.429  
  22388739.050   119680639.31107     -3360.655    22388744.116    93084962.84307
     -2613.854  
 20 10 02 06 39 55.0000000  0 15G27G24G15G18G20G23G10G13R15R 6R 7R21
                                R22R16R 5
  23867594.215   125425053.67947       -27.988    23867596.487    97733817.48249
       -21.812  
  22121310.538   116248270.23848      3070.476    22121312.965    90583078.19349
      2392.577  
  20290439.829   106627030.78749     -1356.727    20290439.308    83086014.25449
     -1057.191  
  20572613.872   108109837.95249     -1206.202    20572613.805    84241428.49248
      -939.897  
  20644889.979   108489664.05649      1823.871    20644888.916    84537416.14548
      1421.198  
  20982307.319   110262806.39349      1912.280    20982307.221    85919084.29448
      1490.085  
  23426863.724   123109003.12948      3045.323    23426865.992    95929101.25049
      2372.979  
  22241227.693   116878439.63948     -2957.062    22241227.073    91074105.60646
     -2304.206  
  21723981.580   116086370.96208  -2097152.000    21723987.930    90289426.03007
  -2097152.000  
  19276598.804   102863666.02108      -308.288           0.000           0.0000 
         0.000  
  21226014.165   113624555.87808      2734.641    21226018.069    88374686.06207
      2126.941  
  21004163.745   112397524.82408     -3431.854    21004167.500    87420337.78207
     -2669.226  
  20344436.074   108600000.52907       483.734    20344440.350    84466672.83704
       376.238  
  22571993.177   120575546.91505      3757.667    22571999.238    93780999.15605
      2922.633  
  22391882.965   119697444.21407     -3361.613    22391887.636    93098033.33407
     -2614.594  
 20 10 02 06 40  0.0000000  0 15G27G24G15G18G20G23G10G13R15R 6R 7R21
                                R22R16R 5
  23867622.239   125425200.57348       -30.477    23867624.437    97733931.93149
       -23.749  
  22118390.163   116232923.75148      3068.569    22118392.602    90571119.89049
      2391.093  
  20291732.064   106633821.56149     -1359.250    20291731.541    83091305.76349
     -1059.159  
  20573763.075   108115877.08549     -1209.199    20573762.999    84246134.31248
      -942.238  
  20643155.663   108480550.13148      1821.667    20643154.586    84530314.38747
      1419.476  
  20980488.691   110253249.34748      1910.327    20980488.576    85911637.24747
      1488.562  
  23423966.646   123093778.79048      3044.999    23423968.912    95917238.12949
      2372.723  
  22244041.901   116893228.46548     -2958.218    22244041.292    91085629.36346
     -2305.109  
  21723550.461   116084067.19108  -2097152.000    21723556.807    90287634.19407
  -2097152.000  
  19276888.879   102865213.82107      -310.465           0.000           0.0000 
         0.000  
  21223460.658   113610886.88208      2733.116    21223464.580    88364054.62607
      2125.757  
  21007371.857   112414691.86008     -3434.707    21007375.584    87433689.91007
     -2671.440  
  20343985.177   108597593.73707       479.019    20343989.456    84464800.89503
       372.569  
  22568476.801   120556763.84405      3755.448    22568483.019    93766390.11705
      2920.906  
  22395027.626   119714254.88307     -3362.483    22395032.459    93111108.27807
     -2615.272  
 20 10 02 06 40  5.0000000  0 14G27G24G15G18G20G23G10R15R 6R 7R21R22
                                R16R 5
  23867653.569   125425365.18247       -34.855    23867655.756    97734060.21049
       -27.160  
  22115471.981   116217588.63548      3065.738    22115474.415    90559170.46249
      2388.887  
  20293026.920   106640626.13749     -1362.538    20293026.409    83096608.03349
     -1061.718  
  20574915.434   108121932.77649     -1212.996    20574915.357    84250853.02748
      -945.195  
  20641423.291   108471446.51549      1819.434    20641422.226    84523220.66348
      1417.737  
  20978671.813   110243701.58649      1908.405    20978671.707    85904197.44248
      1487.069  
  23421070.317   123078558.19648      3043.441    23421072.549    95905377.94249
      2371.512  
  21723123.682   116081786.61408  -2097152.000    21723130.030    90285860.41907
  -2097152.000  
  19277181.383   102866774.77608      -313.765           0.000           0.0000 
         0.000  
  21220908.761   113597226.37608      2731.199    21220912.675    88353429.79007
      2124.265  
  21010582.918   112431874.96308     -3438.426    21010586.673    87447054.54807
     -2674.335  
  20343538.856   108595211.27707       473.773    20343543.153    84462947.86104
       368.488  
  22564962.396   120537991.24205      3752.729    22564968.728    93751789.21105
      2918.789  
  22398172.883   119731068.21207     -3363.547    22398178.086    93124185.09316
     -2616.094  
 20 10 02 06 40 10.0000000  0 15G27G24G15G18G20G23G10G13R15R 6R 7R21
                                R22R16R 5
  23867688.287   125425547.53247       -38.234    23867690.429    97734202.28449
       -29.796  
  22112556.005   116202265.01147      3063.859    22112558.428    90547230.01348
      2387.425  
  20294324.479   106647444.85449     -1365.097    20294323.968    83101921.31949
     -1063.710  
  20576070.996   108128005.32549     -1216.237    20576070.920    84255584.89548
      -947.718  
  20639692.948   108462353.56449      1817.604    20639691.874    84516135.25448
      1416.313  
  20976856.788   110234163.56449      1906.605    20976856.658    85896765.21348
      1485.663  
  23418174.745   123063341.52148      3042.897    23418176.908    95893520.80849
      2371.090  
  22249675.148   116922831.44358     -2961.898    22249674.559    91108697.61856
     -2307.972  
  21722701.294   116079529.50208  -2097152.000    21722707.645    90284104.89607
  -2097152.000  
  19277476.467   102868349.24308      -316.039           0.000           0.0000 
         0.000  
  21218358.485   113583574.58108      2729.636    21218362.392    88342811.73407
      2123.050  
  21013797.045   112449074.40308     -3441.434    21013800.801    87460431.86507
     -2676.680  
  20343097.139   108592853.51507       469.104    20343101.397    84461114.04504
       364.854  
  22561450.067   120519229.26006      3751.312    22561456.385    93737196.58905
      2917.691  
  22401319.111   119747886.66707     -3364.194    22401324.227    93137266.07806
     -2616.616  
 20 10 02 06 40 15.0000000  0 15G27G24G15G18G20G23G10G13R15R 6R 7R21
                                R22R16R 5
  23867725.880   125425744.92847       -40.980    23867727.992    97734356.09949
       -31.938  
  22109641.746   116186950.41647      3061.737    22109644.115    90535296.51449
      2385.762  
  20295624.209   106654274.98349     -1367.320    20295623.698    83107243.49549
     -1065.448  
  20577229.250   108134092.02149     -1218.855    20577229.173    84260327.74948
      -949.762  
  20637964.131   108453268.53749      1816.144    20637963.042    84509056.00648
      1415.172  
  20975043.098   110224632.49949      1905.316    20975042.966    85889338.41648
      1484.660  
  23415279.343   123048126.14148      3043.043    23415281.538    95881664.65749
      2371.203  
  22252493.660   116937642.94849     -2963.116    22252493.100    91120239.04346
     -2308.926  
  21722282.768   116077293.02508  -2097152.000    21722289.112    90282365.38807
  -2097152.000  
  19277773.464   102869934.10608      -318.272           0.000           0.0000 
         0.000  
  21215809.328   113569928.71108      2728.422    21215813.218    88332198.26607
      2122.102  
  21017013.731   112466287.50808     -3443.992    21017017.500    87473819.85407
     -2678.660  
  20342659.614   108590517.79208       464.585    20342663.839    84459297.38004
       361.339  
  22557939.295   120500475.37803      3750.293    22557945.628    93722610.21004
      2916.886  
  22404465.550   119764706.24608     -3364.164    22404470.504    93150347.97106
     -2616.573  
 20 10 02 06 40 20.0000000  0 14G27G24G15G18G20G23G10G13R15R 6R 7R21
                                R22R 5
  23867766.101   125425956.47847       -43.636    23867768.235    97734520.94749
       -34.003  
  22106728.974   116171643.69546      3060.723    22106731.314    90523369.23748
      2384.984  
  20296925.942   106661115.63248     -1369.054    20296925.421    83112573.86549
     -1066.797  
  20578390.040   108140192.01648     -1220.995    20578389.955    84265080.98847
      -951.429  
  20636236.644   108444190.53349      1815.167    20636235.539    84501982.23547
      1414.414  
  20973230.547   110215107.47948      1904.538    20973230.401    85881916.32747
      1484.055  
  23412383.975   123032911.16048      3043.136    23412386.157    95869808.83949
      2371.272  
  22255313.139   116952459.41148     -2963.437    22255312.591    91131784.32344
     -2309.171  
  21721867.940   116075076.30908  -2097152.000    21721874.283    90280641.27305
  -2097152.000  
  19278072.284   102871528.79007      -319.710           0.000           0.0000 
         0.000  
  21213261.104   113556287.96208      2727.819    21213265.027    88321588.82707
      2121.641  
  21020232.806   112483513.24307     -3446.215    21020236.577    87487217.64406
     -2680.394  
  20342225.963   108588203.02607       460.991    20342230.224    84457497.01904
       358.550  
  22407612.043   119781526.08807     -3363.746    22407617.083    93163430.09004
     -2616.242  
 20 10 02 06 40 25.0000000  0 14G27G24G15G18G20G23G10G13R15R 6R 7R21
                                R22R 5
  23867809.612   125426185.13247       -48.066    23867811.720    97734699.10849
       -37.460  
  22103818.266   116156347.63745      3057.608    22103820.628    90511450.24748
      2382.554  
  20298230.213   106667969.56148     -1372.586    20298229.696    83117914.65449
     -1069.543  
  20579553.871   108146308.02048     -1225.148    20579553.773    84269846.72247
      -954.659  
  20634511.018   108435122.39949      1812.167    20634509.923    84494916.15747
      1412.074  
  20971419.684   110205591.35749      1901.929    20971419.549    85874501.16047
      1482.020  
  23409489.251   123017699.37948      3041.648    23409491.453    95857955.47849
      2370.112  
  22258134.070   116967283.59648     -2966.390    22258133.552    91143335.75243
     -2311.465  
  21721457.358   116072882.28507  -2097152.000    21721463.733    90278934.94204
  -2097152.000  
  19278373.523   102873136.01007      -323.241           0.000           0.0000 
         0.000  
  21210714.415   113542655.30408      2725.440    21210718.308    88310985.64507
      2119.785  
  21023454.749   112500754.48107     -3450.667    21023458.507    87500627.46305
     -2683.859  
  20341796.899   108585912.31007       455.069    20341801.104    84455715.32404
       353.940  
  22410759.328   119798349.25407     -3365.347    22410764.250    93176514.87304
     -2617.484  
 20 10 02 06 40 30.0000000  0 14G27G24G15G18G20G23G10G13R15R 6R 7R21
                                R22R 5
  23867856.653   125426432.55347       -51.566    23867858.776    97734891.85449
       -40.191  
  22100909.941   116141064.22346      3054.992    22100912.298    90499541.09148
      2380.512  
  20299537.353   106674838.62948     -1375.542    20299536.831    83123267.15549
     -1071.855  
  20580721.111   108152441.87748     -1228.788    20580720.987    84274626.36346
      -957.495  
  20632787.626   108426065.94549      1809.882    20632786.524    84487859.18747
      1410.297  
  20969610.874   110196085.96649      1899.894    20969610.720    85867094.37147
      1480.438  
  23406595.521   123002492.63048      3040.746    23406597.716    95846106.08049
      2369.414  
  22260956.819   116982117.42948     -2967.870    22260956.302    91154894.56444
     -2312.625  
  21721051.354   116070712.72407  -2097152.000    21721057.721    90277247.47104
  -2097152.000  
  19278677.459   102874757.52807      -325.914           0.000           0.0000 
         0.000  
  21208169.559   113529032.43008      2723.448    21208173.427    88300390.05007
      2118.234  
  21026679.887   112518013.03107     -3453.816    21026683.714    87514050.77005
     -2686.305  
  20341372.603   108583647.32607       450.116    20341376.745    84453953.67504
       350.085  
  22413907.604   119815177.46507     -3366.418    22413912.201    93189603.44503
     -2618.328  
 20 10 02 06 40 35.0000000  0 14G27G24G15G18G20G23G10G13R15R 6R 7R21
                                R22R 5
  23867907.516   125426699.87047       -55.187    23867909.667    97735100.18349
       -43.000  
  22098004.149   116125794.55447      3052.909    22098006.594    90487642.65549
      2378.891  
  20300847.583   106681723.90649     -1378.352    20300847.054    83128632.26649
     -1074.050  
  20581891.929   108158594.68949     -1232.187    20581891.840    84279420.74648
      -960.148  
  20631066.672   108417022.33449      1807.945    20631065.575    84480812.21948
      1408.789  
  20967804.323   110186592.47949      1898.007    20967804.170    85859696.84948
      1478.968  
  23403702.976   122987292.07848      3039.742    23403705.143    95834261.50849
      2368.628  
  22263781.669   116996962.20948     -2969.448    22263781.037    91166461.85046
     -2313.874  
  21720650.194   116068569.04408  -2097152.000    21720656.550    90275580.12007
  -2097152.000  
  19278984.280   102876394.68808      -328.758           0.000           0.0000 
         0.000  
  21205626.744   113515420.50808      2721.741    21205630.613    88289803.03007
      2116.913  
  21029908.453   112535290.08208     -3456.938    21029912.333    87527488.49207
     -2688.730  
  20340953.332   108581409.29007       445.347    20340957.524    84452212.98404
       346.383  
  22417056.917   119832012.00607     -3367.042    22417061.322    93202696.91407
     -2618.827  
 20 10 02 06 40 40.0000000  0 14G27G24G15G18G20G23G10G13R15R 6R 7R21
                                R22R 5
  23867961.370   125426982.90747       -58.276    23867963.514    97735320.73849
       -45.410  
  22095100.222   116110534.28648      3051.183    22095102.627    90475751.52149
      2377.543  
  20302160.100   106688621.22549     -1380.554    20302159.567    83134006.78949
     -1075.762  
  20583065.589   108164762.28449     -1234.878    20583065.507    84284226.65348
      -962.246  
  20629347.337   108407987.23049      1806.202    20629346.275    84473771.88248
      1407.430  
  20965999.221   110177106.53849      1896.637    20965999.050    85852305.21848
      1477.898  
  23400810.786   122972093.42648      3039.690    23400812.940    95822418.41749
      2368.590  
  22266607.770   117011813.40848     -2970.698    22266607.152    91178034.19545
     -2314.836  
  21720252.990   116066446.50807  -2097152.000    21720259.339    90273929.22807
  -2097152.000  
  19279293.184   102878042.99908      -330.660           0.000           0.0000 
         0.000  
  21203085.086   113501815.15808      2720.534    21203089.022    88279221.10207
      2115.972  
  21033139.747   112552581.23508     -3459.488    21033143.576    87540937.19907
     -2690.710  
  20340538.304   108579193.81108       441.132    20340542.499    84450489.84104
       343.101  
  22420206.365   119848848.05007     -3367.312    22420210.871    93215791.59906
     -2619.023  
 20 10 02 06 40 45.0000000  0 14G27G24G15G18G20G23G10G13R15R 6R 7R21
                                R22R 5
  23868018.212   125427281.73747       -61.809    23868020.369    97735553.58149
       -48.168  
  22092198.161   116095283.88248      3049.008    22092200.566    90463868.09849
      2375.851  
  20303474.918   106695530.60949     -1383.046    20303474.389    83139390.73149
     -1077.702  
  20584242.067   108170944.68949     -1237.957    20584241.987    84289044.11248
      -964.640  
  20627629.662   108398960.78749      1804.504    20627628.608    84466738.28948
      1406.104  
  20964195.579   110167628.33649      1894.777    20964195.400    85844919.60248
      1476.444  
  23397918.987   122956896.79448      3039.355    23397921.093    95810576.88449
      2368.328  
  22269435.134   117026671.27748     -2972.597    22269434.566    91189611.76145
     -2316.313  
  21719859.798   116064345.41107  -2097152.000    21719866.151    90272295.05407
  -2097152.000  
  19279604.230   102879702.61108      -333.015           0.000           0.0000 
         0.000  
  21200544.706   113488216.46208      2718.960    21200548.655    88268644.33507
      2114.746  
  21036373.733   112569886.60408     -3462.569    21036377.509    87554396.91607
     -2693.113  
  20340127.484   108577000.98607       436.222    20340131.714    84448784.30004
       339.280  
  22423356.279   119865686.20607     -3368.430    22423360.752    93228887.94406
     -2619.894  
 20 10 02 06 40 50.0000000  0 15G27G24G15G18G20G23G10G13R15R 6R 7R21
                                R22R16R 5
  23868078.294   125427597.50047       -65.055    23868080.454    97735799.65249
       -50.691  
  22089298.165   116080044.30248      3046.940    22089300.548    90451993.10349
      2374.237  
  20304792.255   106702453.23349     -1385.753    20304791.712    83144784.97949
     -1079.812  
  20585421.600   108177143.11449     -1241.320    20585421.501    84293874.05748
      -967.265  
  20625913.875   108389944.23349      1802.249    20625912.822    84459712.40348
      1404.352  
  20962393.630   110158159.02949      1892.910    20962393.449    85837540.91748
      1474.995  
  23395027.770   122941703.37748      3038.344    23395029.890    95798737.85849
      2367.535  
  22272263.947   117041536.81948     -2974.000    22272263.381    91201195.28846
     -2317.405  
  21719470.846   116062266.96508  -2097152.000    21719477.197    90270678.48407
  -2097152.000  
  19279917.588   102881374.71808      -335.902           0.000           0.0000 
         0.000  
  21198005.888   113474625.91008      2717.160    21198009.826    88258073.90607
      2113.343  
  21039610.518   112587207.32708     -3465.784    21039614.341    87567868.57207
     -2695.612  
  20339721.220   108574832.22407       431.461    20339725.439    84447097.48204
       335.578  
  22533416.108   120369451.41615      3736.296    22533421.095    93620719.11315
      2906.008  
  22426506.793   119882527.38507     -3368.660    22426511.291    93241986.62206
     -2620.073  
 20 10 02 06 40 55.0000000  0 15G27G24G15G18G20G23G10G13R15R 6R 7R21
                                R22R16R 5
  23868141.566   125427929.90647       -67.749    23868143.706    97736058.68849
       -52.792  
  22086400.163   116064815.26148      3044.753    22086402.531    90440126.33149
      2372.535  
  20306112.050   106709388.80249     -1388.352    20306111.507    83150189.32349
     -1081.831  
  20586604.114   108183357.23649     -1244.352    20586604.022    84298716.22048
      -969.629  
  20624199.910   108380937.25749      1800.449    20624198.852    84452693.98148
      1402.949  
  20960593.317   110148698.32249      1891.405    20960593.159    85830168.93648
      1473.823  
  23392137.122   122926512.85548      3037.883    23392139.239    95786901.09349
      2367.180  
  22275094.194   117056409.80348     -2975.062    22275093.601    91212784.62946
     -2318.234  
  21719086.072   116060210.85108  -2097152.000    21719092.426    90269079.29107
  -2097152.000  
  19280233.213   102883059.14308      -338.089           0.000           0.0000 
         0.000  
  21195468.453   113461042.94308      2715.901    21195472.384    88247509.37707
      2112.362  
  21042850.106   112604543.13808     -3468.551    21042853.995    87581351.97307
     -2697.765  
  20339319.364   108572687.05707       426.668    20339323.578    84445429.02504
       331.851  
  22529920.838   120350776.84005      3733.801    22529925.762    93606194.44205
      2904.065  
  22429657.849   119899371.36607     -3368.937    22429662.329    93255087.49906
     -2620.288  
 20 10 02 06 41  0.0000000  0 15G27G24G15G18G20G23G10G13R15R 6R 7R21
                                R22R16R 5
  23868208.007   125428279.05547       -71.433    23868210.164    97736330.76049
       -55.664  
  22083504.156   116049596.76748      3042.871    22083506.518    90428267.76949
      2371.070  
  20307434.306   106716337.30449     -1390.890    20307433.755    83155603.73849
     -1083.816  
  20587789.616   108189587.08949     -1247.461    20587789.524    84303570.65348
      -972.051  
  20622487.766   108371939.87849      1798.628    20622486.716    84445683.04048
      1401.527  
  20958794.662   110139246.26449      1889.671    20958794.494    85822803.70148
      1472.473  
  23389247.029   122911325.28348      3037.374    23389249.142    95775066.62849
      2366.784  
  22277925.866   117071290.24948     -2976.625    22277925.219    91224379.78645
     -2319.448  
  21718705.489   116058177.13408  -2097152.000    21718711.844    90267497.51407
  -2097152.000  
  19280551.116   102884755.75008      -340.555           0.000           0.0000 
         0.000  
  21192932.443   113447467.51508      2714.215    21192936.382    88236950.71907
      2111.054  
  21046092.516   112621894.02308     -3471.664    21046096.472    87594847.09007
     -2700.188  
  20338921.861   108570565.47407       422.136    20338926.102    84443778.89504
       328.323  
  22526426.446   120332112.14705      3731.730    22526431.546    93591677.47605
      2902.457  
  22432809.327   119916218.16507     -3369.367    22432813.907    93268190.55806
     -2620.621  
 20 10 02 06 41  5.0000000  0 15G27G24G15G18G20G23G10G13R15R 6R 7R21
                                R22R16R 5
  23868277.807   125428645.91747       -75.293    23868279.968    97736616.59549
       -58.671  
  22080610.379   116034389.96048      3039.886    22080612.729    90416418.31249
      2368.741  
  20308759.227   106723299.81049     -1394.077    20308758.676    83161029.06949
     -1086.293  
  20588978.294   108195833.69949     -1251.183    20588978.221    84308438.13648
      -974.952  
  20620777.639   108362953.13449      1796.090    20620776.602    84438680.37948
      1399.551  
  20956997.848   110129803.88149      1887.265    20956997.646    85815446.00248
      1470.598  
  23386357.680   122896141.71448      3036.188    23386359.797    95763235.27749
      2365.859  
  22280759.118   117086179.12148     -2978.770    22280758.491    91235981.49746
     -2321.121  
  21718329.308   116056166.93508  -2097152.000    21718335.662    90265934.02607
  -2097152.000  
  19280871.511   102886465.53708      -343.512           0.000           0.0000 
         0.000  
  21190398.086   113433900.90408      2712.386    21190402.019    88226398.91407
      2109.633  
  21049337.955   112639260.99008     -3475.387    21049341.941    87608354.72807
     -2703.081  
  20338529.030   108568468.67007       416.629    20338533.324    84442148.05304
       324.038  
  22522933.842   120313458.28105      3729.148    22522939.391    93577168.91705
      2900.449  
  22435961.593   119933069.02007     -3370.680    22435966.252    93281296.77106
     -2621.645  
 20 10 02 06 41 10.0000000  0 15G27G24G15G18G20G23G10G13R15R 6R 7R21
                                R22R16R 5
  23868350.825   125429029.78647       -78.355    23868353.029    97736915.73849
       -61.054  
  22077718.700   116019194.08548      3038.395    22077721.028    90404577.37349
      2367.578  
  20310086.680   106730275.62349     -1396.336    20310086.130    83166464.77149
     -1088.055  
  20590170.040   108202096.39649     -1253.999    20590169.981    84313318.16348
      -977.147  
  20619069.419   108353976.37349      1794.441    20619068.391    84431685.50748
      1398.261  
  20955202.757   110120370.52249      1885.820    20955202.529    85808095.33048
      1469.469  
  23383468.984   122880961.48548      3035.813    23383471.097    95751406.53349
      2365.562  
  22283593.863   117101075.77148     -2980.042    22283593.199    91247589.27945
     -2322.113  
  21717957.370   116054179.40907  -2097152.000    21717963.724    90264388.17107
  -2097152.000  
  19281194.291   102888187.88708      -345.706           0.000           0.0000 
         0.000  
  21187865.210   113420342.28608      2710.917    21187869.166    88215853.33607
      2108.492  
  21052586.308   112656643.33508     -3477.879    21052590.242    87621874.33607
     -2705.016  
  20338140.749   108566395.84507       412.315    20338144.999    84440535.85804
       320.690  
  22519443.729   120294814.75705      3728.008    22519449.254    93562668.42705
      2899.562  
  22439114.496   119949922.93906     -3370.925    22439119.157    93294405.38106
     -2621.831  
 20 10 02 06 41 15.0000000  0 15G27G24G15G18G20G23G10G13R15R 6R 7R21
                                R22R16R 5
  23868427.048   125429430.24647       -81.394    23868429.226    97737227.78349
       -63.425  
  22074829.011   116004008.60248      3036.581    22074831.283    90392744.53749
      2366.168  
  20311416.578   106737264.22249     -1398.679    20311416.017    83171910.43449
     -1089.878  
  20591364.771   108208374.65849     -1256.987    20591364.695    84318210.31448
      -979.472  
  20617362.992   108345009.07249      1792.839    20617361.970    84424698.00048
      1397.020  
  20953409.265   110110945.65549      1884.531    20953409.052    85800751.27948
      1468.461  
  23380580.825   122865784.04048      3035.511    23380582.927    95739579.95949
      2365.332  
  22286429.981   117115979.67448     -2981.179    22286429.400    91259202.70446
     -2322.996  
  21717589.592   116052214.11607  -2097152.000    21717595.946    90262859.61207
  -2097152.000  
  19281519.303   102889922.33708      -347.960           0.000           0.0000 
         0.000  
  21185333.760   113406791.20408      2709.823    21185337.708    88205313.60107
      2107.636  
  21055837.432   112674040.53608     -3480.617    21055841.275    87635405.50207
     -2707.148  
  20337756.801   108564346.49407       407.992    20337761.062    84438941.91004
       317.324  
  22515955.565   120276180.89005      3726.151    22515961.053    93548175.42105
      2898.117  
  22442267.892   119966779.52107     -3371.050    22442272.523    93307516.03006
     -2621.934  
 20 10 02 06 41 20.0000000  0 15G27G24G15G18G20G23G10G13R15R 6R 7R21
                                R22R16R 5
  23868506.218   125429846.47947       -85.159    23868508.405    97737552.10149
       -66.362  
  22071941.188   115988832.92648      3034.030    22071943.416    90380919.33149
      2364.176  
  20312748.743   106744264.82849     -1401.633    20312748.189    83177365.45549
     -1092.180  
  20592562.300   108214667.71449     -1260.413    20592562.223    84323113.99348
      -982.145  
  20615658.251   108336050.53749      1790.512    20615657.226    84417717.32448
      1395.198  
  20951617.268   110101528.55749      1882.253    20951617.047    85793413.28748
      1466.691  
  23377693.041   122850608.66548      3034.563    23377695.151    95727755.00049
      2364.594  
  22289267.347   117130890.04148     -2983.062    22289266.741    91270821.17346
     -2324.468  
  21717225.833   116050270.29708  -2097152.000    21717232.186    90261347.74907
  -2097152.000  
  19281846.448   102891668.20508      -350.813           0.000           0.0000 
         0.000  
  21182803.631   113393247.06808      2707.792    21182807.544    88194779.28107
      2106.062  
  21059091.138   112691451.86808     -3483.979    21059094.965    87648947.63507
     -2709.765  
  20337377.205   108562319.96407       402.555    20337381.449    84437365.72604
       313.098  
  22512468.773   120257556.10505      3723.906    22512474.482    93533689.47005
      2896.366  
  22445421.602   119983638.06706     -3372.304    22445426.250    93320628.23906
     -2622.906  
 20 10 02 06 41 25.0000000  0 15G27G24G15G18G20G23G10G13R15R 6R 7R21
                                R22R16R 5
  23868588.658   125430279.60747       -88.156    23868590.799    97737889.58549
       -68.694  
  22069055.385   115973668.05748      3031.952    22069057.611    90369102.56749
      2362.563  
  20314083.424   106751278.56049     -1403.944    20314082.858    83182830.70249
     -1093.988  
  20593762.870   108220976.68849     -1263.101    20593762.794    84328030.06848
      -984.237  
  20613955.369   108327101.82949      1788.938    20613954.337    84410744.30948
      1393.976  
  20949826.960   110092120.32749      1880.843    20949826.720    85786082.19748
      1465.590  
  23374805.849   122835436.46348      3034.358    23374807.976    95715932.50049
      2364.438  
  22292106.149   117145808.04348     -2984.535    22292105.535    91282445.59045
     -2325.616  
  21716866.305   116048349.08907  -2097152.000    21716872.660    90259853.48107
  -2097152.000  
  19282175.940   102893426.59108      -352.914           0.000           0.0000 
         0.000  
  21180274.932   113379710.74308      2706.543    21180278.838    88184251.02907
      2105.086  
  21062347.695   112708878.27208     -3486.608    21062351.506    87662501.50807
     -2711.809  
  20337002.003   108560317.26407       398.237    20337006.297    84435808.06704
       309.737  
  22508983.672   120238941.54005      3721.944    22508989.655    93519211.51005
      2894.851  
  22448575.843   120000499.57606     -3372.194    22448580.533    93333742.73405
     -2622.823  
 20 10 02 06 41 30.0000000  0 15G27G24G15G18G20G23G10G13R15R 6R 7R21
                                R22R16R 5
  23868674.605   125430731.32448       -92.152    23868676.732    97738241.56249
       -71.812  
  22066172.011   115958515.88848      3029.069    22066174.250    90357295.68349
      2360.316  
  20315420.917   106758307.13349     -1407.253    20315420.340    83188307.49749
     -1096.566  
  20594966.804   108227303.34049     -1267.120    20594966.709    84332959.92848
      -987.370  
  20612254.698   108318164.74549      1786.155    20612253.673    84403780.34748
      1391.804  
  20948038.665   110082722.74649      1878.426    20948038.407    85778759.41748
      1463.707  
  23371919.606   122820269.24648      3032.902    23371921.745    95704113.89949
      2363.301  
  22294946.708   117160735.31348     -2986.530    22294946.067    91294077.22245
     -2327.172  
  21716511.355   116046452.34507  -2097152.000    21716517.716    90258378.26006
  -2097152.000  
  19282508.047   102895198.96408      -355.902           0.000           0.0000 
         0.000  
  21177748.030   113366184.13608      2704.206    21177751.964    88173730.34507
      2103.273  
  21065607.391   112726321.68508     -3490.598    21065611.234    87676068.58607
     -2714.913  
  20336631.618   108558340.31508       392.706    20336635.973    84434270.45104
       305.437  
  22505501.147   120220338.70505      3719.133    22505507.121    93504742.64105
      2892.659  
  22451731.195   120017365.95505     -3373.840    22451735.699    93346861.05304
     -2624.098  
 20 10 02 06 41 35.0000000  0 15G27G24G15G18G20G23G10G13R15R 6R 7R21
                                R22R16R 5
  23868764.089   125431201.56748       -94.976    23868766.231    97738608.01348
       -74.007  
  22063291.020   115943376.30148      3027.409    22063293.291    90345498.60749
      2359.020  
  20316761.223   106765350.46049     -1409.520    20316760.642    83193795.81249
     -1098.332  
  20596174.080   108233647.55649     -1269.984    20596173.989    84337903.47748
      -989.601  
  20610556.227   108309239.18649      1784.550    20610555.196    84396825.36648
      1390.554  
  20946252.379   110073335.71649      1877.097    20946252.105    85771444.84048
      1462.667  
  23369034.289   122805106.83548      3032.808    23369036.418    95692299.03049
      2363.222  
  22297789.013   117175671.72748     -2987.531    22297788.394    91305715.98046
     -2327.948  
  21716160.931   116044579.78608  -2097152.000    21716167.285    90256921.79907
  -2097152.000  
  19282842.780   102896985.29108      -357.940           0.000           0.0000 
         0.000  
  21175222.973   113352667.17908      2703.167    21175226.882    88163217.15307
      2102.460  
  21068870.236   112743781.95508     -3493.090    21068874.145    87689648.78307
     -2716.851  
  20336265.999   108556388.86407       388.297    20336270.390    84432752.64304
       302.003  
  22502021.028   120201747.84605      3718.108    22502026.916    93490283.10905
      2891.863  
  22454887.323   120034236.95907     -3374.059    22454891.828    93359982.90906
     -2624.277  
 20 10 02 06 41 40.0000000  0 15G27G24G15G18G20G23G10G13R15R 6R 7R21
                                R22R16R 5
  23868856.473   125431686.95547       -99.234    23868858.595    97738986.26048
       -77.323  
  22060411.812   115928246.02248      3024.815    22060414.089    90333708.78849
      2356.999  
  20318103.680   106772405.11949     -1412.184    20318103.099    83199292.94849
     -1100.402  
  20597384.036   108240005.91849     -1273.398    20597383.958    84342858.03448
      -992.262  
  20608859.298   108300321.70449      1782.562    20608858.272    84389876.68448
      1389.008  
  20944467.456   110063955.78949      1875.144    20944467.159    85764135.81648
      1461.152  
  23366149.270   122789945.89648      3031.675    23366151.390    95680485.32249
      2362.343  
  22300632.447   117190613.97948     -2989.250    22300631.856    91317359.29445
     -2329.284  
  21715814.422   116042728.14807  -2097152.000    21715820.775    90255481.62907
  -2097152.000  
  19283179.614   102898782.45208      -360.563           0.000           0.0000 
         0.000  
  21172699.034   113339156.30608      2701.401    21172702.944    88152708.69308
      2101.085  
  21072135.581   112761255.50608     -3496.265    21072139.570    87703239.32007
     -2719.320  
  20335904.534   108554459.43207       383.355    20335908.981    84431251.97804
       298.160  
  22498541.938   120183165.26705      3715.707    22498548.245    93475829.97805
      2889.996  
  22458043.596   120051109.16907     -3374.770    22458048.136    93373105.72906
     -2624.824  
 20 10 02 06 41 45.0000000  0 15G27G24G15G18G20G23G10G13R15R 6R 7R21
                                R22R16R 5
  23868951.837   125432188.03044      -103.371    23868953.905    97739376.82044
       -80.534  
  22057534.426   115913125.35448      3023.230    22057536.729    90321926.41849
      2355.757  
  20319448.387   106779471.66249     -1414.438    20319447.820    83204799.32649
     -1102.168  
  20598596.790   108246378.95449     -1276.070    20598596.726    84347824.02548
      -994.344  
  20607164.016   108291412.93548      1780.937    20607162.975    84382934.81846
      1387.745  
  20942684.006   110054583.63448      1873.644    20942683.698    85756832.87146
      1459.987  
  23363264.651   122774786.93247      3032.022    23363266.736    95668673.17747
      2362.625  
  22303477.078   117205562.55648     -2990.483    22303476.528    91329007.50045
     -2330.253  
  21715471.925   116040897.94607  -2097152.000    21715478.273    90254058.11907
  -2097152.000  
  19283518.521   102900590.70707      -362.352           0.000           0.0000 
         0.000  
  21170176.373   113325652.15108      2700.168    21170180.253    88142205.48706
      2100.132  
  21075403.534   112778742.98108     -3498.835    21075407.558    87716840.67807
     -2721.320  
  20335547.373   108552552.85206       378.851    20335551.817    84429769.09102
       294.663  
  22495065.035   120164591.92805      3713.688    22495071.294    93461384.05405
      2888.417  
  22461200.197   120067983.13507     -3374.961    22461204.776    93386229.89506
     -2624.976  
 20 10 02 06 41 50.0000000  0 15G27G24G15G18G20G23G10G13R15R 6R 7R21
                                R22R16R 5
  23869050.117   125432704.65147      -105.101    23869052.180    97739779.23849
       -81.914  
  22054658.882   115898014.20248      3021.004    22054661.188    90310151.52749
      2354.026  
  20320795.341   106786549.92549     -1417.012    20320794.783    83210314.88249
     -1104.163  
  20599812.302   108252766.54349     -1279.136    20599812.243    84352801.36348
      -996.734  
  20605470.342   108282512.61949      1778.933    20605469.294    84375999.48048
      1386.179  
  20940901.972   110045218.95049      1871.938    20940901.628    85749535.68748
      1458.648  
  23360380.344   122759629.82948      3031.160    23360382.409    95656862.43449
      2361.938  
  22306322.878   117220517.30248     -2991.859    22306322.337    91340660.58146
     -2331.319  
  21715133.393   116039088.93608  -2097152.000    21715139.751    90252651.15007
  -2097152.000  
  19283859.439   102902409.97208      -365.156           0.000           0.0000 
         0.000  
  21167654.927   113312154.55908      2698.655    21167658.772    88131707.34907
      2098.949  
  21078674.087   112796244.15208     -3501.766    21078678.084    87730452.69607
     -2723.597  
  20335194.410   108550668.58807       374.241    20335198.814    84428303.54604
       291.073  
  22491589.813   120146027.32405      3712.007    22491595.948    93446944.92705
      2887.116  
  22464357.100   120084858.74807     -3375.520    22464361.729    93399355.39406
     -2625.402  
 20 10 02 06 41 55.0000000  0 15G27G24G15G18G20G23G10G13R15R 6R 7R21
                                R22R16R 5
  23869151.750   125433238.83246      -107.953    23869153.883    97740195.47848
       -84.128  
  22051785.524   115882914.60748      3019.254    22051787.829    90298385.60149
      2352.660  
  20322144.883   106793641.81249     -1419.354    20322144.322    83215841.01849
     -1105.996  
  20601030.939   108259170.52249     -1282.124    20601030.900    84357791.46548
      -999.062  
  20603778.647   108273622.73348      1777.313    20603777.608    84369072.30547
      1384.918  
  20939121.742   110035863.74748      1870.409    20939121.401    85742245.92547
      1457.461  
  23357496.750   122744476.50547      3030.633    23357498.827    95645054.68148
      2361.539  
  22309170.230   117235480.08548     -2993.128    22309169.663    91352319.87445
     -2332.316  
  21714799.202   116037303.12107  -2097152.000    21714805.557    90251262.17307
  -2097152.000  
  19284202.809   102904242.22807      -367.437           0.000           0.0000 
         0.000  
  21165135.061   113298665.42508      2697.323    21165138.875    88121215.80606
      2097.918  
  21081947.533   112813760.96408     -3504.663    21081951.503    87744076.88007
     -2725.854  
  20334846.069   108548808.93406       369.940    20334850.431    84426857.15103
       287.727  
  22488116.553   120127473.60305      3710.175    22488122.639    93432514.25805
      2885.688  
  22467514.655   120101737.87707     -3375.930    22467519.322    93412483.58506
     -2625.730  
 20 10 02 06 42  0.0000000  0 15G27G24G15G18G20G23G10G13R15R 6R 7R21
                                R22R16R 5
  23869256.441   125433789.20847      -111.695    23869258.599    97740624.33349
       -87.039  
  22048914.122   115867825.57048      3016.601    22048916.475    90286627.95249
      2350.601  
  20323496.862   106800746.47949     -1422.203    20323496.295    83221377.12049
     -1108.211  
  20602252.554   108265590.08949     -1285.413    20602252.510    84362793.75548
     -1001.620  
  20602088.794   108264742.40149      1775.233    20602087.742    84362152.55648
      1383.296  
  20937343.147   110026517.10649      1868.522    20937342.792    85734962.81848
      1455.987  
  23354613.690   122729326.04448      3029.762    23354615.778    95633249.07649
      2360.839  
  22312018.926   117250450.11548     -2994.292    22312018.407    91363984.84845
     -2333.215  
  21714469.215   116035539.76707  -2097152.000    21714475.574    90249890.69206
  -2097152.000  
  19284548.464   102906086.58408      -370.086           0.000           0.0000 
         0.000  
  21162616.604   113285183.92608      2695.508    21162620.420    88110730.20407
      2096.507  
  21085223.713   112831292.46508     -3507.734    21085227.656    87757712.50307
     -2728.242  
  20334502.151   108546972.76107       364.769    20334506.422    84425429.00904
       283.706  
  22484645.177   120108929.76205      3707.961    22484651.152    93418091.28805
      2883.968  
  22470672.765   120118619.63106     -3376.554    22470677.412    93425613.84506
     -2626.210  
 20 10 02 06 42  5.0000000  0 15G27G24G15G18G20G23G10G13R15R 6R 7R21
                                R22R16R 5
  23869364.661   125434357.81347      -115.188    23869366.805    97741067.41849
       -89.758  
  22046045.083   115852748.69648      3014.293    22046047.409    90274879.73149
      2348.800  
  20324851.545   106807865.35749     -1424.887    20324850.986    83226924.32349
     -1110.300  
  20603477.406   108272026.73049     -1288.765    20603477.360    84367809.30948
     -1004.237  
  20600401.062   108255873.21649      1773.136    20600400.008    84355241.50648
      1381.660  
  20935566.483   110017180.61149      1866.511    20935566.110    85727687.63448
      1454.426  
  23351731.459   122714179.97848      3028.987    23351733.575    95621446.96849
      2360.249  
  22314869.254   117265428.71648     -2995.991    22314868.732    91375656.48545
     -2334.543  
  21714143.648   116033800.03707  -2097152.000    21714150.014    90248537.59706
  -2097152.000  
  19284896.576   102907944.52308      -372.526           0.000           0.0000 
         0.000  
  21160099.860   113271711.44208      2693.879    21160103.648    88100251.61408
      2095.238  
  21088502.936   112848840.18608     -3510.718    21088506.805    87771360.72207
     -2730.563  
  20334162.873   108545161.73507       360.003    20334167.184    84424020.42504
       279.999  
  22481175.891   120090397.49205      3705.710    22481181.876    93403677.28605
      2882.215  
  22473831.692   120135505.71605     -3377.120    22473836.333    93438747.49705
     -2626.645  
 20 10 02 06 42 10.0000000  0 15G27G24G15G18G20G23G10G13R15R 6R 7R21
                                R22R16R 5
  23869476.162   125434943.72547      -118.616    23869478.301    97741523.97749
       -92.429  
  22043178.204   115837683.20848      3012.152    22043180.513    90263140.39549
      2347.132  
  20326208.793   106814997.77549     -1427.440    20326208.237    83232482.04149
     -1112.292  
  20604705.371   108278479.69949     -1292.074    20604705.310    84372837.59448
     -1006.815  
  20598715.281   108247014.40649      1770.897    20598714.240    84348338.53548
      1379.922  
  20933791.607   110007853.51349      1864.651    20933791.221    85720419.76148
      1452.972  
  23348849.962   122699037.63648      3028.366    23348852.084    95609647.74249
      2359.766  
  22317721.120   117280415.34548     -2997.953    22317720.626    91387334.38946
     -2336.065  
  21713822.417   116032083.47808  -2097152.000    21713828.781    90247202.48707
  -2097152.000  
  19285247.125   102909815.30708      -375.320           0.000           0.0000 
         0.000  
  21157584.653   113258247.40508      2692.136    21157588.438    88089779.58507
      2093.883  
  21091785.059   112866403.39508     -3513.777    21091788.890    87785020.97307
     -2732.940  
  20333828.128   108543375.06507       355.132    20333832.481    84422630.79604
       276.214  
  22477708.628   120071876.15105      3703.137    22477714.626    93389271.82604
      2880.223  
  22476991.217   120152394.97206     -3377.729    22476995.794    93451883.54906
     -2627.132  
 20 10 02 06 42 15.0000000  0 15G27G24G15G18G20G23G10G13R15R 6R 7R21
                                R22R16R 5
  23869590.240   125435543.27047      -121.512    23869592.404    97741991.17749
       -94.683  
  22040312.846   115822625.65348      3010.660    22040315.134    90251407.24149
      2345.969  
  20327567.907   106822139.99749     -1429.624    20327567.349    83238047.40749
     -1113.996  
  20605935.747   108284945.30649     -1294.586    20605935.682    84377875.72948
     -1008.769  
  20597030.757   108238162.23849      1769.554    20597029.729    84341440.74648
      1378.874  
  20932017.811   109998532.08549      1863.542    20932017.406    85713156.31648
      1452.112  
  23345968.447   122683895.27048      3028.234    23345970.582    95597848.50449
      2359.664  
  22320573.767   117295406.13448     -2998.894    22320573.230    91399015.51045
     -2336.804  
  21713504.801   116030386.23008  -2097152.000    21713511.164    90245882.40407
  -2097152.000  
  19285599.463   102911695.26108      -377.054           0.000           0.0000 
         0.000  
  21155070.320   113244788.04508      2691.211    21155074.124    88079311.19207
      2093.159  
  21095069.385   112883978.30108     -3516.430    21095073.225    87798690.34007
     -2735.003  
  20333497.308   108541609.06107       350.844    20333501.649    84421257.23704
       272.874  
  22474242.753   120053361.72605      3701.925    22474248.717    93374871.71905
      2879.276  
  22480150.680   120169284.01607     -3377.878    22480155.250    93465019.45606
     -2627.241  
 20 10 02 06 42 20.0000000  0 15G27G24G15G18G20G23G10G13R15R 6R 7R21
                                R22R16R 5
  23869707.688   125436160.49147      -125.301    23869709.865    97742472.12849
       -97.636  
  22037449.726   115807579.91848      3008.124    22037452.020    90239683.29949
      2343.991  
  20328929.653   106829296.05249     -1432.656    20328929.102    83243623.55749
     -1116.359  
  20607169.298   108291427.59749     -1298.246    20607169.237    84382926.86948
     -1011.620  
  20595348.305   108229320.83149      1767.207    20595347.258    84334551.34148
      1377.043  
  20930245.859   109989220.41649      1861.421    20930245.454    85705900.46748
      1450.452  
  23343087.717   122668756.99348      3027.085    23343089.854    95586052.43949
      2358.766  
  22323428.015   117310405.22048     -3000.866    22323427.459    91410703.10446
     -2338.343  
  21713191.579   116028712.46808  -2097152.000    21713197.942    90244580.58907
  -2097152.000  
  19285954.220   102913588.40908      -380.011           0.000           0.0000 
         0.000  
  21152557.632   113231337.39908      2689.191    21152561.424    88068849.58307
      2091.593  
  21098356.664   112901569.03908     -3519.832    21098360.534    87812372.02207
     -2737.651  
  20333171.075   108539867.79107       345.906    20333175.457    84419902.91304
       269.035  
  22470778.967   120034858.70705      3699.285    22470784.925    93360480.49805
      2877.222  
  22483310.807   120186176.80007     -3379.230    22483315.418    93478158.28806
     -2628.293  
 20 10 02 06 42 25.0000000  0 15G27G24G15G18G20G23G10G13R15R 6R 7R21
                                R22R16R 5
  23869828.513   125436795.36947      -129.020    23869830.707    97742966.83449
      -100.538  
  22034588.850   115792545.94148      3005.476    22034591.151    90227968.51849
      2341.930  
  20330294.021   106836465.88549     -1435.637    20330293.468    83249210.43849
     -1118.679  
  20608405.993   108297926.50749     -1301.664    20608405.937    84387990.94848
     -1014.289  
  20593667.884   108220490.12549      1764.788    20593666.823    84327670.27048
      1375.156  
  20928475.758   109979918.47349      1859.145    20928475.353    85698652.20248
      1448.680  
  23340207.737   122653622.69148      3026.203    23340209.887    95574259.48649
      2358.082  
  22326283.809   117325412.54647     -3002.535    22326283.259    91422397.12544
     -2339.636  
  21712882.770   116027062.28805  -2097152.000    21712889.133    90243297.11405
  -2097152.000  
  19286311.468   102915494.68807      -382.832           0.000           0.0000 
         0.000  
  21150046.542   113217895.58908      2687.160    21150050.374    88058394.84607
      2090.011  
  21101646.860   112919175.47908     -3523.187    21101650.769    87826065.91207
     -2740.262  
  20332849.500   108538151.26907       340.562    20332853.910    84418567.84104
       264.878  
  22467317.200   120016366.72705      3696.913    22467323.211    93346097.85205
      2875.379  
  22486471.595   120203073.39606     -3379.652    22486476.297    93491300.07905
     -2628.621  
 20 10 02 06 42 30.0000000  0 15G27G24G15G18G20G23G10G13R15R 6R 7R21
                                R22R16R 5
  23869952.871   125437448.72147      -132.515    23869955.046    97743475.91649
      -103.261  
  22031730.378   115777524.57048      3003.133    22031732.679    90216263.55549
      2340.101  
  20331661.166   106843650.34449     -1438.253    20331660.633    83254808.72049
     -1120.719  
  20609646.023   108304442.94149     -1304.965    20609645.968    84393068.66848
     -1016.858  
  20591989.654   108211671.00149      1762.816    20591988.599    84320798.22248
      1373.621  
  20926707.679   109970627.12349      1857.280    20926707.284    85691412.19048
      1447.230  
  23337328.702   122638493.32048      3025.500    23337330.865    95562470.37349
      2357.531  
  22329141.307   117340428.86548     -3004.343    22329140.756    91434098.16345
     -2341.047  
  21712578.479   116025436.25007  -2097152.000    21712584.844    90242032.42606
  -2097152.000  
  19286671.302   102917414.95308      -385.370           0.000           0.0000 
         0.000  
  21147537.291   113204463.46708      2685.511    21147541.142    88047947.64607
      2088.729  
  21104940.111   112936798.54908     -3526.128    21104944.090    87839772.74107
     -2742.547  
  20332532.697   108536460.27807       335.809    20332537.085    84417252.62604
       261.184  
  22463857.806   119997886.73104      3695.097    22463863.707    93331724.54104
