     2.11           OBSERVATION DATA    M                   RINEX VERSION / TYPE
LEICA GEO OFFICE 8.4                    4-10-20 09:29       PGM / RUN BY / DATE
                                                            OBSERVER / AGENCY
SUTY                                                        MARKER NAME
SUTY                                                        MARKER NUMBER
468588              LEICA GX1220GG      5.60                REC # / TYPE / VERS
                    LEIAX1202GG                             ANT # / TYPE
 -1228634.9582  3807159.4625  4951915.9306                  APPROX POSITION XYZ
        1.5910        0.0000        0.0000                  ANTENNA: DELTA H/E/N
L1PhaOff:   0.0644  L2PhaOff:   0.0640                      COMMENT
     1     1                                                WAVELENGTH FACT L1/2
     6    C1    L1    D1    P2    L2    D2                  # / TYPES OF OBSERV
  2020    10     3    11     0    0.0000000     GPS         TIME OF FIRST OBS
  2020    10     3    11    46   45.0000000     GPS         TIME OF LAST OBS
    18                                                      LEAP SECONDS
    17                                                      # OF SATELLITES
          C1    L1    D1    P2    L2    D2                  COMMENT
   G 1   467   467   467   466   466   466                  PRN / # OF OBS
   G 2     0     0     0     0     0     0                  PRN / # OF OBS
   G 3   562   562   562   562   562   562                  PRN / # OF OBS
   G 4     0     0     0     0     0     0                  PRN / # OF OBS
   G 5     0     0     0     0     0     0                  PRN / # OF OBS
   G 6     0     0     0     0     0     0                  PRN / # OF OBS
   G 7     0     0     0     0     0     0                  PRN / # OF OBS
   G 8     0     0     0     0     0     0                  PRN / # OF OBS
   G 9     0     0     0     0     0     0                  PRN / # OF OBS
   G10   393   393   393   393   393   393                  PRN / # OF OBS
   G11     0     0     0     0     0     0                  PRN / # OF OBS
   G12   562   562   562   562   562   562                  PRN / # OF OBS
   G13     0     0     0     0     0     0                  PRN / # OF OBS
   G14     0     0     0     0     0     0                  PRN / # OF OBS
   G15     0     0     0     0     0     0                  PRN / # OF OBS
   G16     0     0     0     0     0     0                  PRN / # OF OBS
   G17     0     0     0     0     0     0                  PRN / # OF OBS
   G18     0     0     0     0     0     0                  PRN / # OF OBS
   G19     0     0     0     0     0     0                  PRN / # OF OBS
   G20     0     0     0     0     0     0                  PRN / # OF OBS
   G21     0     0     0     0     0     0                  PRN / # OF OBS
   G22   562   562   562   562   562   562                  PRN / # OF OBS
   G23     0     0     0     0     0     0                  PRN / # OF OBS
   G24     0     0     0     0     0     0                  PRN / # OF OBS
   G25     0     0     0     0     0     0                  PRN / # OF OBS
   G26   385   385   385   384   384   384                  PRN / # OF OBS
   G27     0     0     0     0     0     0                  PRN / # OF OBS
   G28     0     0     0     0     0     0                  PRN / # OF OBS
   G29     0     0     0     0     0     0                  PRN / # OF OBS
   G30     0     0     0     0     0     0                  PRN / # OF OBS
   G31   562   562   562   562   562   562                  PRN / # OF OBS
   G32   562   562   562   562   562   562                  PRN / # OF OBS
   R 1   562   562   562   562   562   562                  PRN / # OF OBS
   R 2   562   562   562   562   562   562                  PRN / # OF OBS
   R 3   391   391   391   387   387   387                  PRN / # OF OBS
   R 4     0     0     0     0     0     0                  PRN / # OF OBS
   R 5     0     0     0     0     0     0                  PRN / # OF OBS
   R 6     0     0     0     0     0     0                  PRN / # OF OBS
   R 7     0     0     0     0     0     0                  PRN / # OF OBS
   R 8    48    48    48    49    49    49                  PRN / # OF OBS
   R 9     0     0     0     0     0     0                  PRN / # OF OBS
   R10   263   263   263     0     0     0                  PRN / # OF OBS
   R11   562   562   562   562   562   562                  PRN / # OF OBS
   R12   562   562   562   562   562   562                  PRN / # OF OBS
   R13     0     0     0     0     0     0                  PRN / # OF OBS
   R14     0     0     0     0     0     0                  PRN / # OF OBS
   R15     0     0     0     0     0     0                  PRN / # OF OBS
   R16     0     0     0     0     0     0                  PRN / # OF OBS
   R17     0     0     0     0     0     0                  PRN / # OF OBS
   R18    24    24    24    13    13    13                  PRN / # OF OBS
   R19   190   190   190   190   190   190                  PRN / # OF OBS
   R20     0     0     0     0     0     0                  PRN / # OF OBS
   R21     0     0     0     0     0     0                  PRN / # OF OBS
   R22     0     0     0     0     0     0                  PRN / # OF OBS
   R23     0     0     0     0     0     0                  PRN / # OF OBS
   R24     0     0     0     0     0     0                  PRN / # OF OBS
                                                            END OF HEADER
 20 10 03 11 00  0.0000000  0 14G22G12G 1G 3G32G10G31R 2R18R 1R11R12
                                R 8R10
  23062636.868   121194999.77348      2130.062    23062633.629    94437636.85946
      1659.788  
  22333944.140   117365704.70248     -1717.632    22333942.989    91453799.72147
     -1338.418  
  23773855.689   124932458.11947     -1652.813    23773858.164    97349983.06148
     -1287.906  
  24301383.914   127704658.80947      3321.999    24301386.154    99510109.12349
      2588.570  
  20191663.566   106107949.48849      -472.081    20191664.655    82681535.81349
      -367.854  
  23258756.888   122225599.55648     -3648.995    23258759.253    95240742.00649
     -2843.375  
  20882499.506   109738307.57849      2012.840    20882498.705    85510375.60649
      1568.445  
  19950357.699   106458949.36308      2461.823    19950362.550    82801441.02508
      1914.750  
         0.000           0.0000          0.000    23580340.048    97901561.30916
     -1762.613  
  20051614.890   107187403.45008     -2450.414    20051621.315    83368014.17106
     -1905.883  
  19320348.405   103242117.98309      -510.980    19320352.533    80299463.67208
      -397.429  
  20633256.696   110219179.71608      3257.237    20633262.464    85726063.87007
      2533.406  
  23444533.541   125544417.98206     -4058.199    23444537.803    97645689.22406
     -3156.379  
  22645374.168   120712609.04306     -4025.387           0.000           0.0000 
         0.000  
 20 10 03 11 00  5.0000000  0 14G22G12G 1G 3G32G10G31R 2R18R 1R11R12
                                R 8R10
  23060611.636   121184357.07648      2127.077    23060608.399    94429343.84947
      1657.464  
  22335580.438   117374303.50548     -1721.749    22335579.310    91460500.09047
     -1341.629  
  23775430.120   124940731.71947     -1656.637    23775432.603    97356430.03449
     -1290.891  
  24298224.272   127688054.68747      3319.938    24298226.481    99497170.85049
      2586.965  
  20192114.268   106110317.94649      -475.246    20192115.350    82683381.36649
      -370.320  
  23262229.674   122243848.98448     -3650.792    23262232.012    95254962.33949
     -2844.777  
  20880585.861   109728251.33449      2009.578    20880585.051    85502539.57549
      1565.906  
  19948052.522   106446648.59509      2458.371    19948057.399    82791873.76208
      1912.066  
  23582449.565   125884707.78617     -2270.434    23582452.422    97910383.46605
     -1765.890  
  20053908.752   107199665.36208     -2454.483    20053915.129    83377551.21206
     -1909.042  
  19320828.849   103244685.23809      -515.843    19320832.945    80301460.42508
      -401.211  
  20630209.656   110202902.97508      3253.559    20630215.426    85713404.19107
      2530.547  
  23448323.164   125564711.30107     -4059.895    23448327.360    97661472.90906
     -3157.694  
  22649150.911   120732741.42706     -4027.269           0.000           0.0000 
         0.000  
 20 10 03 11 00 10.0000000  0 14G22G12G 1G 3G32G10G31R 2R18R 1R11R12
                                R 8R10
  23058588.808   121173726.97948      2125.270    23058585.551    94421060.65946
      1656.055  
  22337219.973   117382919.41648     -1724.309    22337218.878    91467213.78447
     -1343.621  
  23777007.393   124949020.24847     -1658.620    23777009.857    97362888.62448
     -1292.437  
  24295066.096   127671458.42046      3319.004    24295068.283    99484238.68149
      2586.233  
  20192567.300   106112698.64549      -476.808    20192568.390    82685236.45849
      -371.543  
  23265703.791   122262105.34148     -3651.496    23265706.126    95269188.07149
     -2845.324  
  20878674.645   109718207.82849      2007.843    20878673.821    85494713.47349
      1564.554  
  19945749.931   106434361.52809      2456.608    19945754.809    82782317.15708
      1910.694  
  23584577.913   125896068.36304     -2273.601    23584575.523    97919219.68805
     -1768.324  
  20056205.590   107211943.09008     -2456.594    20056211.917    83387100.55706
     -1910.687  
  19321313.188   103247273.36709      -519.093    19321317.264    80303473.41808
      -403.742  
  20627165.324   110186640.82508      3251.477    20627171.105    85700755.86407
      2528.926  
  23452113.877   125585010.36506     -4059.601    23452118.153    97677261.08206
     -3157.465  
  22652928.955   120752880.40406     -4028.128           0.000           0.0000 
         0.000  
 20 10 03 11 00 15.0000000  0 14G22G12G 1G 3G32G10G31R 2R18R 1R11R12
                                R 8R10
  23056567.729   121163106.13848      2122.793    23056564.480    94412784.67846
      1654.125  
  22338862.163   117391549.12148     -1727.702    22338861.035    91473938.23347
     -1346.266  
  23778586.860   124957320.40747     -1661.929    23778589.316    97369356.27948
     -1295.016  
  24291908.788   127654866.77947      3317.499    24291911.016    99471310.14149
      2585.062  
  20193022.029   106115088.25949      -479.276    20193023.111    82687098.49549
      -373.464  
  23269178.542   122280365.25048     -3652.690    23269180.916    95283416.56649
     -2846.257  
  20876765.221   109708173.73549      2005.351    20876764.390    85486894.70249
      1562.612  
  19943449.264   106422084.72409      2453.858    19943454.141    82772768.53308
      1908.554  
  23586708.171   125907443.54405     -2276.601    23586722.081    97928057.89716
     -1770.691  
  20058504.753   107224233.27508     -2459.772    20058511.050    83396659.58806
     -1913.159  
  19321800.790   103249878.93309      -523.227    19321804.868    80305499.97208
      -406.957  
  20624123.163   110170389.99008      3248.694    20624128.863    85688116.33207
      2526.761  
  23455905.082   125605311.75007     -4061.140    23455909.268    97693051.03806
     -3158.664  
  22656707.505   120773022.29406     -4029.059           0.000           0.0000 
         0.000  
 20 10 03 11 00 20.0000000  0 14G22G12G 1G 3G32G10G31R 2R18R 1R11R12
                                R 8R10
  23054549.252   121152498.96948      2120.309    23054545.975    94404519.36146
      1652.187  
  22340507.811   117400196.96648     -1731.082    22340506.664    91480676.81247
     -1348.897  
  23780169.404   124965636.60547     -1664.858    23780171.862    97375836.44549
     -1297.293  
  24288753.186   127638284.00947      3315.988    24288755.417    99458388.52349
      2583.887  
  20193479.286   106117491.16449      -481.590    20193480.368    82688970.88449
      -375.270  
  23272654.779   122298633.12548     -3653.937    23272657.236    95297651.26649
     -2847.226  
  20874858.422   109698153.43949      2002.902    20874857.585    85479086.68649
      1560.703  
  19941151.278   106409822.39109      2451.276    19941156.178    82763231.16408
      1906.547  
  23588842.746   125918837.42807     -2280.198    23588855.988    97936919.76706
     -1773.479  
  20060807.020   107236540.43108     -2462.823    20060813.371    83406231.81306
     -1915.534  
  19322292.489   103252506.45509      -527.387    19322296.581    80307543.60008
      -410.195  
  20621083.936   110154154.89208      3245.723    20621089.559    85675489.03507
      2524.449  
  23459697.490   125625619.98607     -4062.336    23459701.722    97708846.31606
     -3159.602  
  22660487.569   120793171.75406     -4030.238           0.000           0.0000 
         0.000  
 20 10 03 11 00 25.0000000  0 14G22G12G 1G 3G32G10G31R 2R18R 1R11R12
                                R 8R10
  23052533.014   121141903.53348      2117.863    23052529.753    94396263.17846
      1650.277  
  22342156.549   117408861.01448     -1734.512    22342155.388    91487428.02847
     -1351.565  
  23781754.562   124973966.75847     -1667.644    23781757.026    97382327.45748
     -1299.465  
  24285598.912   127621708.25147      3314.480    24285601.140    99445472.34549
      2582.710  
  20193938.712   106119905.43249      -484.047    20193939.788    82690852.13249
      -377.183  
  23276132.117   122316907.00348     -3655.477    23276134.704    95311890.63449
     -2848.426  
  20872953.877   109688144.99149      2000.348    20872953.041    85471287.89749
      1558.711  
  19938855.781   106397573.17909      2448.383    19938860.689    82753704.00308
      1904.297  
  23590980.584   125930248.31705     -2283.605    23590988.837    97945794.96505
     -1776.132  
  20063112.131   107248862.54108     -2466.147    20063118.489    83415815.66506
     -1918.121  
  19322787.948   103255153.88009      -531.570    19322792.003    80309602.70908
      -413.449  
  20618047.294   110137933.53808      3242.727    20618052.873    85662872.42807
      2522.121  
  23463490.790   125645932.93706     -4063.577    23463494.944    97724645.32806
     -3160.559  
  22664268.630   120813326.78406     -4031.691           0.000           0.0000 
         0.000  
 20 10 03 11 00 30.0000000  0 14G22G12G 1G 3G32G10G31R 2R18R 1R11R12
                                R 8R10
  23050519.038   121131320.11548      2114.964    23050515.788    94388016.35946
      1648.022  
  22343808.395   117417541.49148     -1737.902    22343807.218    91494192.02847
     -1354.215  
  23783342.482   124982311.33747     -1670.695    23783344.936    97388829.71649
     -1301.848  
  24282446.017   127605139.80247      3312.551    24282448.263    99432561.87549
      2581.206  
  20194400.344   106122331.32249      -486.585    20194401.420    82692742.43749
      -379.159  
  23279610.644   122335187.09648     -3656.871    23279613.348    95326134.85049
     -2849.515  
  20871051.645   109678148.69149      1997.715    20871050.803    85463498.57949
      1556.660  
  19936562.633   106385336.53009      2445.788    19936567.554    82744186.60608
      1902.280  
  23593121.047   125941676.35004     -2287.570    23593124.499    97954683.43405
     -1779.219  
  20065420.064   107261199.86208     -2469.444    20065426.440    83425411.35906
     -1920.684  
  19323287.139   103257821.46509      -535.991    19323291.198    80311677.49908
      -416.882  
  20615013.255   110121726.21308      3239.645    20615018.830    85650266.73907
      2519.722  
  23467285.035   125666250.69607     -4064.542    23467289.399    97740447.97606
     -3161.316  
  22668050.718   120833487.53406     -4032.698           0.000           0.0000 
         0.000  
 20 10 03 11 00 35.0000000  0 14G22G12G 1G 3G32G10G31R 2R18R 1R11R12
                                R 8R10
  23048507.385   121120748.83948      2112.629    23048504.133    94379779.00146
      1646.203  
  22345463.398   117426238.56148     -1741.352    22345462.217    91500968.97046
     -1356.898  
  23784933.140   124990670.23847     -1673.726    23784935.545    97395343.15048
     -1304.203  
  24279294.558   127588578.80547      3311.184    24279296.796    99419657.20649
      2580.145  
  20194864.233   106124768.98549      -489.004    20194865.283    82694641.91349
      -381.047  
  23283090.391   122353473.57448     -3658.008    23283093.192    95340384.04249
     -2850.398  
  20869151.751   109668164.64949      1995.242    20869150.897    85455718.81449
      1554.733  
  19934272.027   106373113.45309      2442.854    19934276.963    82734679.77408
      1900.000  
  23595264.905   125953121.56406     -2290.788    23595269.879    97963585.25006
     -1781.726  
  20067730.897   107273552.49008     -2472.354    20067737.232    83435018.95706
     -1922.944  
  19323790.137   103260509.39809      -539.871    19323794.208    80313768.11408
      -419.897  
  20611981.834   110105533.12808      3236.824    20611987.460    85637672.12707
      2517.530  
  23471080.174   125686573.99107     -4065.313    23471084.425    97756254.99806
     -3161.914  
  22671833.974   120853654.19906     -4034.452           0.000           0.0000 
         0.000  
 20 10 03 11 00 40.0000000  0 14G22G12G 1G 3G32G10G31R 2R18R 1R11R12
                                R 8R10
  23046498.132   121110190.11148      2111.085    23046494.883    94371551.42346
      1645.003  
  22347121.645   117434952.64748     -1744.132    22347120.474    91507759.16346
     -1359.070  
  23786526.612   124999044.02147     -1675.901    23786529.031    97401868.17748
     -1305.897  
  24276144.579   127572025.61747      3310.421    24276146.815    99406758.62149
      2579.550  
  20195330.434   106127218.82349      -490.719    20195331.472    82696550.87749
      -382.383  
  23286571.454   122371766.83948     -3658.956    23286574.320    95354638.52449
     -2851.140  
  20867254.256   109658193.31149      1993.534    20867253.407    85447948.94249
      1553.402  
  19931983.960   106360903.88709      2441.094    19931988.881    82725183.44508
      1898.628  
  23597412.247   125964584.53606     -2293.788    23597420.002    97972500.85206
     -1784.070  
  20070044.624   107285920.87708     -2474.867    20070050.986    83444638.80906
     -1924.901  
  19324297.007   103263218.11609      -543.237    19324301.100    80315874.89708
      -422.520  
  20608953.157   110089354.66808      3234.620    20608958.822    85625088.89207
      2515.815  
  23474876.448   125706902.80506     -4065.909    23474880.612    97772066.29505
     -3162.375  
  22675618.379   120873827.24106     -4034.613           0.000           0.0000 
         0.000  
 20 10 03 11 00 45.0000000  0 14G22G12G 1G 3G32G10G31R 2R18R 1R11R12
                                R 8R10
  23044490.713   121099641.08448      2108.214    23044487.417    94363331.40746
      1642.762  
  22348782.552   117443680.80348     -1747.702    22348781.403    91514560.32847
     -1361.852  
  23788122.358   125007429.78347     -1679.043    23788124.800    97408402.52149
     -1308.352  
  24272995.565   127555477.49747      3308.694    24272997.818    99393863.97549
      2578.198  
  20195798.396   106129677.98049      -493.429    20195799.433    82698467.10249
      -384.495  
  23290053.260   122390063.97548     -3660.500    23290056.164    95368896.03049
     -2852.339  
  20865358.640   109648231.77949      1990.542    20865357.785    85440186.71549
      1551.074  
  19929697.890   106348705.10509      2437.977    19929702.834    82715695.50508
      1896.203  
  23599562.316   125976062.21804     -2298.089    23599571.200    97981427.98306
     -1787.398  
  20072360.818   107298302.13408     -2478.191    20072367.133    83454268.67306
     -1927.483  
  19324807.240   103265944.64309      -547.890    19324811.333    80317995.52908
      -426.137  
  20605926.713   110073187.91408      3231.480    20605932.350    85612514.75507
      2513.374  
  23478673.173   125727234.34807     -4067.867    23478677.464    97787879.70706
     -3163.901  
  22679403.453   120894003.75006     -4036.569           0.000           0.0000 
         0.000  
 20 10 03 11 00 50.0000000  0 14G22G12G 1G 3G32G10G31R 2R18R 1R11R12
                                R 8R10
  23042485.931   121089105.94748      2105.770    23042482.678    94355122.20847
      1640.854  
  22350446.932   117452427.24248     -1750.925    22350445.787    91521375.73547
     -1364.362  
  23789721.161   125015831.64347     -1682.082    23789723.592    97414949.43248
     -1310.715  
  24269848.307   127538938.57847      3306.793    24269850.573    99380976.53449
      2576.722  
  20196268.927   106132150.63949      -495.801    20196269.965    82700393.85049
      -386.344  
  23293536.623   122408369.17648     -3661.737    23293539.512    95383159.82049
     -2853.305  
  20863465.711   109638284.30749      1988.159    20863464.837    85432435.44349
      1549.214  
  19927414.621   106336521.17309      2435.401    19927419.556    82706219.11408
      1894.199  
  23601716.002   125987558.89506     -2301.003    23601722.219    97990369.77305
     -1789.672  
  20074680.173   107310700.54308     -2481.163    20074686.526    83463911.87806
     -1929.797  
  19325321.609   103268693.24409      -551.901    19325325.689    80320133.33308
      -429.261  
  20602903.305   110057037.25208      3228.601    20602908.882    85599953.13107
      2511.132  
  23482471.273   125747572.71507     -4068.249    23482475.519    97803698.44206
     -3164.202  
  22683189.933   120914187.85106     -4037.762           0.000           0.0000 
         0.000  
 20 10 03 11 00 55.0000000  0 14G22G12G 1G 3G32G10G31R 2R18R 1R11R12
                                R 8R10
  23040483.288   121078582.04648      2103.520    23040480.031    94346921.76946
      1639.104  
  22352114.290   117461189.29748     -1754.097    22352113.166    91528203.30847
     -1366.828  
  23791322.529   125024246.98347     -1684.047    23791325.015    97421506.83449
     -1312.254  
  24266702.290   127522406.20646      3305.473    24266704.555    99368094.14849
      2575.688  
  20196741.527   106134634.13649      -497.976    20196742.558    82702329.03949
      -388.038  
  23297021.049   122426679.77048     -3662.988    23297023.849    95397427.81649
     -2854.280  
  20861574.929   109628348.18149      1985.828    20861574.048    85424693.00949
      1547.398  
  19925133.726   106324349.81709      2432.906    19925138.642    82696752.50408
      1892.261  
  23603872.874   125999071.86507     -2304.835    23603878.700    97999324.36706
     -1792.645  
  20077002.233   107323113.31708     -2484.159    20077008.630    83473566.26006
     -1932.128  
  19325839.613   103271461.17809      -555.875    19325843.678    80322286.17008
      -432.352  
  20599882.336   110040899.75108      3225.863    20599887.871    85587401.74307
      2509.003  
  23486270.049   125767915.24207     -4068.922    23486274.243    97819520.46106
     -3164.714  
  22686977.357   120934376.88806     -4038.867           0.000           0.0000 
         0.000  
 20 10 03 11 01  0.0000000  0 15G22G12G 1G 3G32G10G31R 2R18R 1R19R11
                                R12R 8R10
  23038482.835   121068069.59648      2101.316    23038479.564    94338730.25046
      1637.386  
  22353784.640   117469967.11048     -1757.249    22353783.521    91535043.16347
     -1369.285  
  23792926.479   125032675.89347     -1687.261    23792928.976    97428074.81848
     -1314.750  
  24263557.562   127505880.55147      3304.370    24263559.830    99355217.05249
      2574.835  
  20197216.211   106137128.61549      -500.016    20197217.242    82704272.79249
      -389.621  
  23300506.509   122444995.89248     -3663.773    23300509.238    95411700.12249
     -2854.887  
  20859686.337   109618423.56649      1983.726    20859685.457    85416959.54649
      1545.762  
  19922855.129   106312190.81809      2430.651    19922860.036    82687295.50908
      1890.508  
  23606032.759   126010601.19703     -2307.616    23606039.491    98008291.69906
     -1794.809  
  20079327.021   107335540.57908     -2486.831    20079333.421    83483231.90606
     -1934.207  
  23363175.520   124977233.25514       743.460    23363179.275    97204531.37515
       578.242  
  19326361.264   103274248.72109      -559.523    19326365.329    80324454.26008
      -435.188  
  20596863.870   110024775.67408      3223.362    20596869.397    85574860.80408
      2507.058  
  23490069.723   125788262.03907     -4069.870    23490073.682    97835345.70806
     -3165.457  
  22690765.700   120954570.79806     -4039.300           0.000           0.0000 
         0.000  
 20 10 03 11 01  5.0000000  0 15G22G12G 1G 3G32G10G31R 2R18R 1R19R11
                                R12R 8R10
  23036484.220   121057566.86448      2099.386    23036480.970    94330546.31146
      1635.886  
  22355457.662   117478758.93048     -1760.026    22355456.540    91541893.93147
     -1371.448  
  23794532.704   125041116.69146     -1689.543    23794535.246    97434652.07149
     -1316.530  
  24260413.785   127489359.89247      3303.289    24260416.027    99342343.79949
      2573.991  
  20197692.657   106139632.35649      -501.867    20197693.688    82706223.75849
      -391.070  
  23303992.702   122463315.80048     -3664.434    23303995.333    95425975.37849
     -2855.402  
  20857799.629   109608508.75449      1981.835    20857798.725    85409233.72449
      1544.289  
  19920578.504   106300042.24909      2428.437    19920583.401    82677846.62608
      1888.785  
  23608195.288   126022149.29715     -2310.815           0.000           0.0000 
         0.000  
  20081654.161   107347980.56708     -2489.562    20081660.578    83492907.45106
     -1936.331  
  23362482.582   124973524.72104       740.081    23362485.707    97201646.94705
       575.617  
  19326886.200   103277053.94409      -563.059    19326890.296    80326636.10308
      -437.934  
  20593847.568   110008663.35008      3221.058    20593853.123    85562329.00408
      2505.269  
  23493869.814   125808611.54507     -4070.601    23493874.092    97851173.09505
     -3166.034  
  22694554.635   120974768.04406     -4039.715           0.000           0.0000 
         0.000  
 20 10 03 11 01 10.0000000  0 15G22G12G 1G 3G32G10G31R 2R18R 1R19R11
                                R12R 8R10
  23034487.981   121047076.65448      2097.023    23034484.755    94322372.11646
      1634.043  
  22357133.898   117487567.54648     -1763.280    22357132.780    91548757.78747
     -1373.983  
  23796141.715   125049572.13547     -1692.569    23796144.245    97441240.68248
     -1318.895  
  24257271.479   127472847.02246      3301.867    24257273.731    99329476.62549
      2572.883  
  20198171.408   106142148.17949      -504.304    20198172.425    82708184.13749
      -392.968  
  23307480.120   122481642.30648     -3665.948    23307482.693    95440255.78249
     -2856.581  
  20855915.300   109598606.53749      1979.233    20855914.389    85401517.71349
      1542.262  
  19918304.488   106287907.60509      2425.839    19918309.366    82668408.56908
      1886.766  
  23610361.055   126033710.58906     -2313.741           0.000           0.0000 
         0.000  
  20083984.282   107360436.21308     -2492.542    20083990.664    83502595.17706
     -1938.648  
  23361793.618   124969838.63704       735.015    23361796.048    97198779.96705
       571.672  
  19327415.047   103279879.78909      -567.113    19327419.114    80328833.98208
      -441.090  
  20590834.029   109992565.59608      3218.187    20590839.584    85549808.53608
      2503.035  
  23497671.004   125828966.40006     -4071.245    23497675.092    97867004.68906
     -3166.523  
  22698344.777   120994971.32206     -4041.289           0.000           0.0000 
         0.000  
 20 10 03 11 01 15.0000000  0 14G22G12G 1G 3G32G10G31R 2R18R 1R11R12
                                R 8R10
  23032494.586   121036601.29448      2093.343    23032491.355    94314209.50547
      1631.176  
  22358813.761   117496395.19548     -1767.504    22358812.648    91555636.47347
     -1377.281  
  23797753.988   125058044.49846     -1696.526    23797756.506    97447842.58949
     -1321.964  
  24254131.104   127456344.39947      3299.574    24254133.381    99316617.44749
      2571.093  
  20198652.887   106144678.37149      -507.520    20198653.905    82710155.71549
      -395.472  
  23310969.204   122499977.69548     -3668.202    23310971.747    95454543.09749
     -2858.344  
  20854033.803   109588719.20349      1976.016    20854032.894    85393813.30549
      1539.753  
  19916033.421   106275788.69109      2422.027    19916038.280    82658982.74908
      1883.801  
  23612530.528   126045291.91404     -2318.687           0.000           0.0000 
         0.000  
  20086317.752   107372909.82208     -2496.605    20086324.132    83512296.86806
     -1941.808  
  19327948.150   103282728.56009      -572.202    19327952.216    80331049.69408
      -445.046  
  20587823.677   109976484.80708      3214.354    20587829.243    85537301.26108
      2500.054  
  23501473.482   125849328.99506     -4072.867    23501477.613    97882842.24206
     -3167.784  
  22702136.492   121015183.17006     -4042.910           0.000           0.0000 
         0.000  
 20 10 03 11 01 20.0000000  0 14G22G12G 1G 3G32G10G31R 2R18R 1R11R12
                                R 8R10
  23030503.567   121026138.44648      2091.835    23030500.342    94306056.63947
      1630.000  
  22360496.815   117505239.67248     -1770.073    22360495.688    91562528.27347
     -1379.280  
  23799369.011   125066531.50347     -1698.105    23799371.498    97454455.77748
     -1323.202  
  24250992.225   127439849.51146      3298.598    24250994.504    99303764.30049
      2570.335  
  20199136.654   106147220.61649      -509.257    20199137.678    82712136.68449
      -396.823  
  23314459.517   122518319.63047     -3668.769    23314462.077    95468835.50649
     -2858.784  
  20852154.704   109578844.44049      1974.101    20852153.790    85386118.68849
      1538.261  
  19913764.927   106263683.54409      2420.129    19913769.773    82649567.63408
      1882.319  
  23614703.425   126056890.60906     -2321.206           0.000           0.0000 
         0.000  
  20088654.114   107385399.08108     -2498.961    20088660.514    83522010.73506
     -1943.640  
  19328485.096   103285597.86709      -575.628    19328489.160    80333281.37808
      -447.711  
  20584816.046   109960418.58008      3212.050    20584821.622    85524805.31908
      2498.261  
  23505277.036   125869697.10706     -4073.836    23505281.328    97898684.11006
     -3168.539  
  22705929.402   121035401.01506     -4044.203           0.000           0.0000 
         0.000  
 20 10 03 11 01 25.0000000  0 14G22G12G 1G 3G32G10G31R 2R18R 1R11R12
                                R 8R10
  23028514.431   121015685.53148      2089.441    23028511.221    94297911.52047
      1628.136  
  22362182.568   117514098.30048     -1773.081    22362181.438    91569431.10547
     -1381.620  
  23800986.325   125075030.51546     -1701.297    23800988.825    97461078.42749
     -1325.688  
  24247854.332   127423359.95747      3297.258    24247856.631    99290915.29748
      2569.289  
  20199622.227   106149772.31949      -511.300    20199623.258    82714125.02349
      -398.417  
  23317950.542   122536665.49847     -3669.948    23317953.170    95483130.98349
     -2859.703  
  20850277.497   109568979.65249      1971.984    20850276.575    85378431.84149
      1536.609  
  19911498.488   106251589.32909      2417.624    19911503.315    82640161.02208
      1880.371  
  23616879.166   126068503.89306     -2324.339           0.000           0.0000 
         0.000  
  20090992.861   107397901.08608     -2501.805    20090999.265    83531734.51706
     -1945.851  
  19329025.411   103288485.08409      -579.421    19329029.464    80335526.99408
      -450.660  
  20581810.632   109944364.26408      3209.582    20581816.228    85512318.62908
      2496.340  
  23509081.148   125890067.82907     -4075.011    23509085.308    97914527.98906
     -3169.457  
  22709722.814   121055622.32106     -4044.516           0.000           0.0000 
         0.000  
 20 10 03 11 01 30.0000000  0 14G22G12G 1G 3G32G10G31R 2R18R 1R11R12
                                R 8R10
  23026527.661   121005244.89148      2086.918    23026524.431    94289775.95047
      1626.164  
  22363871.456   117522973.46748     -1776.648    22363870.311    91576346.81947
     -1384.402  
  23802606.366   125083543.85447     -1704.125    23802608.864    97467712.15549
     -1327.894  
  24244717.901   127406877.87046      3296.163    24244720.172    99278072.11749
      2568.445  
  20200110.050   106152335.81549      -513.815    20200111.067    82716122.55349
      -400.379  
  23321442.758   122555017.62147     -3671.003    23321445.468    95497431.32749
     -2860.527  
  20848402.638   109559127.19949      1969.249    20848401.696    85370754.61849
      1534.480  
  19909234.505   106239508.37209      2414.757    19909239.326    82630764.72408
      1878.140  
  23619057.734   126080134.52305     -2327.926           0.000           0.0000 
         0.000  
  20093334.500   107410418.54908     -2504.952    20093340.914    83541470.31706
     -1948.300  
  19329569.492   103291392.54809      -583.558    19329573.564    80337788.35408
      -453.878  
  20578807.923   109928324.36208      3206.449    20578813.512    85499843.15808
      2493.905  
  23512886.163   125910443.73105     -4075.879    23512890.484    97930375.94406
     -3170.129  
  22713517.265   121075849.31306     -4046.062           0.000           0.0000 
         0.000  
 20 10 03 11 01 35.0000000  0 14G22G12G 1G 3G32G10G31R 2R18R 1R11R12
                                R 8R10
  23024543.455   120994817.81648      2084.366    23024540.263    94281650.95846
      1624.183  
  22365563.744   117531866.43948     -1780.199    22365562.594    91583276.40647
     -1387.171  
  23804229.376   125092072.82747     -1707.069    23804231.914    97474358.11849
     -1330.187  
  24241583.176   127390404.87147      3293.847    24241585.454    99265236.03149
      2566.629  
  20200600.355   106154912.41649      -516.358    20200601.386    82718130.29349
      -402.363  
  23324936.405   122573377.29647     -3672.387    23324939.241    95511737.55549
     -2861.604  
  20846530.368   109549288.38449      1966.647    20846529.426    85363088.01449
      1532.452  
  19906973.280   106227442.04309      2412.026    19906978.102    82621379.80208
      1876.016  
  23621240.063   126091783.47406     -2331.229           0.000           0.0000 
         0.000  
  20095679.247   107422952.50108     -2508.327    20095685.656    83551218.94306
     -1950.926  
  19330117.593   103294321.62509      -587.636    19330121.694    80340066.52908
      -457.050  
  20575808.165   109912300.13208      3203.534    20575813.690    85487379.87007
      2491.636  
  23516692.391   125930825.90906     -4076.359    23516696.521    97946228.76906
     -3170.488  
  22717313.164   121096083.46906     -4047.136           0.000           0.0000 
         0.000  
 20 10 03 11 01 40.0000000  0 14G22G12G 1G 3G32G10G31R 2R18R 1R11R12
                                R 8R10
  23022561.443   120984402.21048      2082.179    23022558.210    94273534.90646
      1622.476  
  22367259.026   117540775.04648     -1783.137    22367257.854    91590218.18147
     -1389.461  
  23805854.937   125100615.27146     -1710.078    23805857.513    97481014.58049
     -1332.531  
  24238449.741   127373938.53246      3292.758    24238452.020    99252405.11349
      2565.785  
  20201092.763   106157500.00449      -518.449    20201093.788    82720146.59849
      -403.988  
  23328431.147   122591742.38648     -3673.305    23328434.038    95526048.00949
     -2862.320  
  20844660.285   109539461.06749      1964.594    20844659.343    85355430.36849
      1530.851  
  19904714.475   106215388.56709      2409.715    19904719.279    82612004.88008
      1874.223  
  23623425.399   126103448.66605     -2334.238           0.000           0.0000 
         0.000  
  20098026.706   107435500.98408     -2511.063    20098033.116    83560978.87406
     -1953.051  
  19330669.342   103297270.06309      -591.367    19330673.476    80342359.75708
      -459.956  
  20572810.943   109896289.47508      3200.913    20572816.426    85474927.14608
      2489.601  
  23520499.491   125951212.56607     -4078.065    23520503.625    97962085.00105
     -3171.832  
  22721109.877   121116322.52106     -4047.968           0.000           0.0000 
         0.000  
 20 10 03 11 01 45.0000000  0 14G22G12G 1G 3G32G10G31R 2R18R 1R11R12
                                R 8R10
  23020581.571   120973997.88148      2079.765    23020578.333    94265427.64247
      1620.598  
  22368957.216   117549699.12948     -1786.258    22368956.011    91597172.00747
     -1391.894  
  23807483.046   125109170.98347     -1712.386    23807485.591    97487681.34648
     -1334.328  
  24235317.580   127357478.91347      3290.973    24235319.865    99239579.46249
      2564.395  
  20201587.213   106160098.39049      -520.816    20201588.244    82722171.31549
      -405.836  
  23331926.909   122610112.70848     -3674.594    23331929.823    95540362.53849
     -2863.323  
  20842792.369   109529645.13249      1962.085    20842791.425    85347781.58849
      1528.898  
  19902457.929   106203347.20009      2406.910    19902462.748    82602639.37508
      1872.038  
  23625613.544   126115129.94405     -2337.926           0.000           0.0000 
         0.000  
  20100376.841   107448063.74108     -2514.098    20100383.246    83570749.90006
     -1955.413  
  19331224.720   103300237.80509      -595.445    19331228.841    80344668.00108
      -463.125  
  20569816.210   109880292.18308      3198.089    20569821.686    85462484.81208
      2487.402  
  23524307.272   125971603.09507     -4078.726    23524311.414    97977944.34106
     -3172.347  
  22724907.519   121136566.31206     -4049.312           0.000           0.0000 
         0.000  
 20 10 03 11 01 50.0000000  0 14G22G12G 1G 3G32G10G31R 2R18R 1R11R12
                                R 8R10
  23018603.783   120963604.59948      2076.917    23018600.518    94257328.97747
      1618.379  
  22370658.279   117558638.33648     -1789.820    22370657.072    91604137.62747
     -1394.668  
  23809113.644   125117739.76846     -1715.214    23809116.179    97494358.33449
     -1336.535  
  24232186.595   127341025.57147      3289.875    24232188.893    99226758.65649
      2563.543  
  20202083.670   106162707.31749      -523.245    20202084.707    82724204.24549
      -407.723  
  23335423.628   122628487.96248     -3675.999    23335426.548    95554680.91749
     -2864.418  
  20840926.551   109519840.25749      1959.402    20840925.621    85340141.43449
      1526.808  
  19900203.673   106191318.02709      2404.147    19900208.479    82593283.35408
      1869.890  
  23627804.729   126126827.07406     -2341.198           0.000           0.0000 
         0.000  
  20102729.611   107460640.48908     -2516.991    20102735.987    83580531.81606
     -1957.663  
  19331783.630   103303224.45009      -599.762    19331787.744    80346990.95008
      -466.479  
  20566823.933   109864307.91508      3195.108    20566829.399    85450052.61008
      2485.086  
  23528115.815   125991997.51307     -4080.051    23528119.927    97993806.66406
     -3173.370  
  22728706.013   121156814.38906     -4050.386           0.000           0.0000 
         0.000  
 20 10 03 11 01 55.0000000  0 15G22G12G 1G 3G32G10G31R 2R18R 1R19R11
                                R12R 8R10
  23016628.331   120953223.53048      2074.979    23016625.060    94249239.83746
      1616.866  
  22372362.446   117567593.88848     -1792.926    22372361.241    91611115.97947
     -1397.089  
  23810746.888   125126322.74446     -1718.117    23810749.471    97501046.36049
     -1338.797  
  24229057.070   127324579.86746      3288.534    24229059.401    99213943.84449
      2562.496  
  20202582.361   106165327.95649      -525.313    20202583.406    82726246.30449
      -409.336  
  23338921.543   122646869.35248     -3676.801    23338924.432    95569004.07449
     -2865.042  
  20839063.078   109510047.66749      1957.227    20839062.147    85332510.85049
      1525.113  
  19897951.927   106179302.25209      2401.754    19897956.736    82583937.75308
      1868.027  
  23629999.240   126138541.02205     -2344.394           0.000           0.0000 
         0.000  
  20105085.212   107473232.36908     -2520.137    20105091.559    83590325.50206
     -1960.109  
  23355778.922   124937668.32114       695.112    23355781.901    97173754.30515
       540.640  
  19332346.307   103306231.28909      -603.445    19332350.433    80349329.60308
      -469.351  
  20563834.370   109848338.01608      3192.406    20563839.824    85437631.58208
      2482.984  
  23531925.178   126012396.88107     -4080.804    23531929.303    98009672.82806
     -3173.965  
  22732505.594   121177068.10506     -4051.483           0.000           0.0000 
         0.000  
 20 10 03 11 02  0.0000000  0 15G22G12G 1G 3G32G10G31R 2R18R 1R19R11
                                R12R 8R10
  23014655.285   120942855.19448      2072.762    23014652.010    94241160.62046
      1615.141  
  22374069.830   117576566.31548     -1795.730    22374068.652    91618107.47847
     -1399.272  
  23812382.986   125134920.34147     -1720.641    23812385.539    97507745.78548
     -1340.758  
  24225929.091   127308142.25546      3286.949    24225931.428    99201135.29049
      2561.254  
  20203083.373   106167960.79149      -527.344    20203084.419    82728297.86949
      -410.921  
  23342420.690   122665257.30348     -3677.910    23342423.542    95583332.34649
     -2865.906  
  20837202.032   109500267.83949      1955.093    20837201.108    85324890.20849
      1523.449  
  19895702.753   106167300.28809      2399.417    19895707.566    82574602.89408
      1866.214  
  23632196.954   126150272.56805     -2347.577           0.000           0.0000 
         0.000  
  20107443.739   107485839.89408     -2522.726    20107450.057    83600131.35406
     -1962.125  
  23355130.876   124934202.33704       690.711    23355134.042    97171058.55105
       537.218  
  19332912.864   103309258.76609      -606.992    19332916.969    80351684.30808
      -472.109  
  20560847.569   109832382.93608      3189.765    20560853.032    85425222.08508
      2480.930  
  23535735.526   126032801.52806     -4081.020    23535739.837    98025543.10206
     -3174.132  
  22736306.343   121197327.92606     -4052.426           0.000           0.0000 
         0.000  
 20 10 03 11 02  5.0000000  0 13G22G12G 1G 3G32G10G31R 2R 1R11R12R 8
                                R10
  23012684.389   120932498.09848      2070.355    23012681.096    94233090.15146
      1613.266  
  22375780.141   117585554.06048     -1799.144    22375778.948    91625110.91947
     -1401.934  
  23814021.576   125143531.12646     -1723.495    23814024.144    97514455.47549
     -1342.992  
  24222802.322   127291711.19347      3285.551    24222804.728    99188331.91348
      2560.168  
  20203586.412   106170604.31049      -529.867    20203587.465    82730357.75649
      -412.883  
  23345920.805   122683650.31448     -3679.085    23345923.601    95597664.56449
     -2866.823  
  20835343.121   109490499.22749      1952.520    20835342.196    85317278.30549
      1521.445  
  19893455.899   106155310.67809      2396.813    19893460.718    82565277.64108
      1864.183  
  20109804.891   107498461.57008     -2525.718    20109811.209    83609948.20806
     -1964.452  
  19333482.969   103312305.29809      -611.222    19333487.079    80354053.83508
      -475.394  
  20557863.221   109816441.14608      3187.090    20557868.705    85412822.92408
      2478.848  
  23539546.795   126053210.26707     -4082.366    23539550.994    98041416.56106
     -3175.184  
  22740107.855   121217592.18806     -4053.133           0.000           0.0000 
         0.000  
 20 10 03 11 02 10.0000000  0 13G22G12G 1G 3G32G10G31R 2R 1R11R12R 8
                                R10
  23010715.910   120922153.61048      2067.809    23010712.613    94225029.51046
      1611.280  
  22377493.638   117594558.51548     -1802.573    22377492.462    91632127.37747
     -1404.605  
  23815662.909   125152156.32747     -1726.051    23815665.457    97521176.40949
     -1344.976  
  24219677.063   127275287.97246      3284.262    24219679.473    99175534.57749
      2559.163  
  20204091.740   106173259.86249      -532.159    20204092.799    82732427.01649
      -414.671  
  23349422.128   122702049.70548     -3680.194    23349424.874    95612001.75249
     -2867.688  
  20833486.616   109480743.22449      1950.175    20833485.684    85309676.22849
      1519.617  
  19891211.577   106143334.66809      2394.016    19891216.419    82555962.96908
      1862.011  
  20112168.926   107511098.72408     -2528.660    20112175.242    83619777.10406
     -1966.738  
  19334056.906   103315372.27209      -615.277    19334061.021    80356439.25808
      -478.555  
  20554881.607   109800514.05608      3184.183    20554887.091    85400435.19108
      2476.585  
  23543358.959   126073624.22806     -4082.604    23543363.187    98057294.08206
     -3175.366  
  22743910.549   121237862.36906     -4054.519           0.000           0.0000 
         0.000  
 20 10 03 11 02 15.0000000  0 13G22G12G 1G 3G32G10G31R 2R 1R11R12R 8
                                R10
  23008749.742   120911821.42048      2065.062    23008746.479    94216978.45747
      1609.140  
  22379210.283   117603579.38848     -1805.960    22379209.085    91639156.62947
     -1407.241  
  23817306.942   125160795.77847     -1729.586    23817309.504    97527908.44448
     -1347.730  
  24216553.300   127258872.57947      3282.191    24216555.703    99162743.38549
      2557.550  
  20204599.322   106175927.22449      -534.702    20204600.374    82734505.48449
      -416.651  
  23352924.613   122720455.29048     -3681.906    23352927.302    95626343.76749
     -2869.019  
  20831632.459   109470999.59549      1947.327    20831631.526    85302083.79149
      1517.398  
  19888969.833   106131372.22909      2391.034    19888974.656    82546658.84908
      1859.690  
  20114535.840   107523751.14408     -2532.065    20114542.137    83629617.86806
     -1969.391  
  19334634.642   103318459.45809      -619.499    19334638.755    80358840.40708
      -481.831  
  20551902.708   109784601.40408      3180.964    20551908.180    85388058.68508
      2474.081  
  23547172.062   126094043.22306     -4084.008    23547176.256    98073175.56906
     -3176.444  
  22747714.240   121258138.15406     -4056.030           0.000           0.0000 
         0.000  
 20 10 03 11 02 20.0000000  0 13G22G12G 1G 3G32G10G31R 2R 1R11R12R 8
                                R10
  23006786.098   120901502.43148      2062.504    23006782.833    94208937.68846
      1607.141  
  22380930.186   117612617.48148     -1809.261    22380928.969    91646199.29947
     -1409.815  
  23818953.839   125169450.31047     -1732.288    23818956.424    97534652.24349
     -1349.840  
  24213431.159   127242465.64846      3280.527    24213433.556    99149958.74849
      2556.249  
  20205109.303   106178607.19149      -537.184    20205110.356    82736593.77549
      -418.590  
  23356428.391   122738867.80248     -3683.210    23356431.033    95640691.17849
     -2870.035  
  20829780.816   109461269.11649      1944.757    20829779.879    85294501.60849
      1515.395  
  19886730.723   106119424.06609      2388.227    19886735.576    82537365.83608
      1857.508  
  20116905.728   107536419.55108     -2535.257    20116912.038    83639471.06906
     -1971.871  
  19335216.315   103321567.74109      -623.772    19335220.427    80361257.96008
      -485.155  
  20548926.682   109768704.01008      3177.883    20548932.118    85375694.05008
      2471.687  
  23550986.215   126114467.96406     -4085.757    23550990.420    98089061.45705
     -3177.808  
  22751519.113   121278420.23806     -4057.167           0.000           0.0000 
         0.000  
 20 10 03 11 02 25.0000000  0 14G22G12G 1G 3G32G10G31R 2R 1R19R11R12
                                R 8R10
  23004824.646   120891194.96448      2060.547    23004821.396    94200905.89847
      1605.617  
  22382653.048   117621671.14848     -1811.887    22382651.825    91653254.10547
     -1411.863  
  23820603.243   125178118.14647     -1734.730    23820605.864    97541406.39449
     -1351.742  
  24210310.337   127226065.61747      3279.667    24210312.743    99137179.54049
      2555.589  
  20205621.363   106181298.11649      -539.000    20205622.422    82738690.59949
      -420.004  
  23359933.123   122757285.57248     -3683.852    23359935.764    95655042.68449
     -2870.538  
  20827931.360   109451550.16149      1942.835    20827930.417    85286928.40149
      1513.898  
  19884494.017   106107488.60909      2386.054    19884498.885    82528082.70708
      1855.819  
  20119278.286   107549102.42308     -2537.773    20119284.652    83649335.51606
     -1973.828  
  23351952.322   124917198.15314       669.273    23351955.839    97157835.39315
       520.542  
  19335801.604   103324695.31909      -627.257    19335805.711    80363690.52208
      -487.866  
  20545953.207   109752820.20808      3175.491    20545958.630    85363339.98608
      2469.828  
  23554801.180   126134896.74007     -4085.688    23554805.461    98104950.50006
     -3177.762  
  22755324.795   121298707.25506     -4057.719           0.000           0.0000 
         0.000  
 20 10 03 11 02 30.0000000  0 14G22G12G 1G 3G32G10G31R 2R 1R19R11R12
                                R 8R10
  23002865.488   120880899.55248      2057.581    23002862.252    94192883.50046
      1603.313  
  22384378.962   117630740.85648     -1815.593    22384377.724    91660321.40747
     -1414.753  
  23822255.310   125186799.84846     -1738.129    23822257.953    97548171.35649
     -1354.386  
  24207190.902   127209672.97046      3277.562    24207193.311    99124406.02049
      2553.940  
  20206135.607   106184000.51749      -541.785    20206136.673    82740796.36949
      -422.172  
  23363438.975   122775709.13748     -3685.340    23363441.591    95669398.70949
     -2871.698  
  20826084.189   109441843.24049      1940.035    20826083.260    85279364.57149
      1511.715  
  19882259.796   106095566.40509      2382.995    19882264.677    82518809.88308
      1853.440  
  20121653.640   107561800.04808     -2541.144    20121659.996    83659211.43706
     -1976.449  
  23351329.169   124913864.10803       664.147    23351332.572    97155242.26905
       516.558  
  19336390.617   103327842.73209      -631.761    19336394.707    80366138.51208
      -491.370  
  20542982.344   109736950.58008      3172.370    20542987.827    85350996.95008
      2467.397  
  23558617.000   126155330.28707     -4086.898    23558621.051    98120843.26806
     -3178.703  
  22759131.468   121318999.37106     -4059.488           0.000           0.0000 
         0.000  
 20 10 03 11 02 35.0000000  0 14G22G12G 1G 3G32G10G31R 2R 1R19R11R12
                                R 8R10
  23000908.837   120870617.37148      2055.738    23000905.628    94184871.42147
      1601.875  
  22386108.138   117639827.80148     -1818.741    22386106.891    91667402.14947
     -1417.203  
  23823910.268   125195496.61347     -1740.515    23823912.889    97554948.04349
     -1356.250  
  24204073.075   127193288.99547      3276.339    24204075.560    99111639.31949
      2552.992  
  20206652.257   106186715.59549      -543.687    20206653.335    82742912.01449
      -423.655  
  23366946.167   122794139.71148     -3686.172    23366948.758    95683760.19249
     -2872.344  
  20824239.523   109432149.54749      1937.909    20824238.605    85271811.05049
      1510.058  
  19880028.245   106083658.48409      2380.629    19880033.137    82509548.16608
      1851.598  
  20124032.011   107574513.80808     -2543.945    20124038.359    83669099.91406
     -1978.629  
  23350710.317   124910553.01104       660.672    23350713.616    97152666.95305
       513.851  
  19336983.556   103331011.18709      -635.503    19336987.633    80368602.86708
      -494.281  
  20540014.357   109721096.34308      3169.566    20540019.904    85338665.88008
      2465.218  
  23562433.875   126175769.88106     -4087.448    23562438.192    98136740.74205
     -3179.132  
  22762939.440   121339297.91406     -4060.026           0.000           0.0000 
         0.000  
 20 10 03 11 02 40.0000000  0 14G22G12G 1G 3G32G10G31R 2R 1R19R11R12
                                R 8R10
  22998954.286   120860346.13748      2053.227    22998951.076    94176867.85947
      1599.917  
  22387840.150   117648929.58448     -1821.699    22387838.880    91674494.44747
     -1419.507  
  23825567.590   125204206.05547     -1743.378    23825570.221    97561734.63349
     -1358.476  
  24200956.482   127176911.24847      3275.020    24200958.969    99098877.42949
      2551.965  
  20207170.876   106189440.98349      -545.961    20207171.952    82745035.69549
      -425.425  
  23370454.252   122812574.85248     -3687.233    23370456.847    95698125.23249
     -2873.171  
  20822396.947   109422466.75049      1935.628    20822396.031    85264266.01749
      1508.280  
  19877798.994   106071762.71109      2378.101    19877803.874    82500295.89708
      1849.629  
  20126412.936   107587241.21508     -2546.757    20126419.282    83678999.00006
     -1980.815  
  23350095.674   124907262.55403       656.405    23350098.549    97150107.69405
       510.534  
  19337579.986   103334198.29509      -639.195    19337584.064    80371081.72608
      -497.156  
  20537048.843   109705255.03808      3167.031    20537054.396    85326344.87608
      2463.245  
  23566251.477   126196212.56306     -4088.140    23566255.572    98152640.62306
     -3179.660  
  22766748.140   121359600.58206     -4060.949           0.000           0.0000 
         0.000  
 20 10 03 11 02 45.0000000  0 14G22G12G 1G 3G32G10G31R 2R 1R19R11R12
                                R 8R10
  22997001.870   120850086.06048      2050.995    22996998.657    94168872.99647
      1598.176  
  22389575.039   117658046.48748     -1824.887    22389573.807    91681598.52647
     -1421.991  
  23827227.399   125212928.44246     -1745.785    23827230.035    97568531.29649
     -1360.351  
  24197841.130   127160540.08947      3273.621    24197843.654    99086120.70549
      2550.874  
  20207691.513   106192176.94949      -548.223    20207692.590    82747167.61949
      -427.187  
  23373963.298   122831014.86148     -3688.492    23373965.850    95712494.07349
     -2874.148  
  20820556.482   109412795.13349      1933.245    20820555.585    85256729.69749
      1506.425  
  19875572.048   106059879.08309      2375.637    19875576.890    82491053.08308
      1847.719  
  20128796.472   107599982.55008     -2549.715    20128802.819    83688908.92206
     -1983.116  
  23349484.270   124903993.02003       652.335    23349487.335    97147564.74805
       507.370  
  19338179.955   103337404.31909      -642.972    19338184.028    80373575.30408
      -500.094  
  20534085.808   109689427.00708      3164.328    20534091.349    85314034.19108
      2461.144  
  23570069.717   126216659.28207     -4089.511    23570073.987    98168543.56106
     -3180.741  
  22770557.713   121379907.47106     -4061.644           0.000           0.0000 
         0.000  
 20 10 03 11 02 50.0000000  0 14G22G12G 1G 3G32G10G31R 2R 1R19R11R12
                                R 8R10
  22995051.482   120839836.79548      2048.551    22995048.256    94160886.55447
      1596.269  
  22391312.752   117667178.10548     -1828.055    22391311.472    91688714.06947
     -1424.456  
  23828889.613   125221663.40447     -1748.465    23828892.237    97575337.73448
     -1362.444  
  24194726.965   127144175.07047      3272.120    24194729.477    99073368.73249
      2549.703  
  20208214.087   106194923.13049      -550.503    20208215.163    82749307.50349
      -428.969  
  23377473.230   122849459.30048     -3689.578    23377475.740    95726866.36349
     -2875.000  
  20818718.091   109403134.29349      1930.843    20818717.182    85249201.77549
      1504.554  
  19873347.312   106048007.49509      2372.917    19873352.160    82481819.62808
      1845.602  
  20131182.574   107612737.57108     -2552.480    20131188.930    83698829.48706
     -1985.266  
  23348876.871   124900743.96804       646.675    23348879.955    97145037.72405
       502.968  
  19338783.391   103340628.92809      -646.984    19338787.462    80376083.33308
      -503.210  
  20531125.212   109673611.91108      3161.499    20531130.685    85301733.56108
      2458.945  
  23573888.642   126237109.14107     -4090.483    23573892.818    98184449.04506
     -3181.491  
  22774367.923   121400218.24906     -4062.757           0.000           0.0000 
         0.000  
 20 10 03 11 02 55.0000000  0 14G22G12G 1G 3G32G10G31R 2R 1R19R11R12
                                R 8R10
  22993103.854   120829602.00348      2045.777    22993100.656    94152911.39847
      1594.108  
  22393053.947   117676328.11548     -1831.484    22393052.677    91695843.94947
     -1427.133  
  23830554.910   125230414.47347     -1751.293    23830557.564    97582156.75248
     -1364.644  
  24191614.706   127127819.94547      3270.397    24191617.160    99060624.50349
      2548.366  
  20208739.300   106197683.17149      -552.996    20208740.374    82751458.18249
      -430.909  
  23380984.717   122867911.88348     -3690.968    23380987.181    95741245.00149
     -2876.078  
  20816882.442   109393487.89049      1928.148    20816881.526    85241685.10349
      1502.452  
  19871125.511   106036151.57209      2369.843    19871130.371    82472598.35108
      1843.207  
  20133571.876   107625509.85508     -2555.729    20133578.270    83708763.47606
     -1987.793  
  23348273.941   124897519.23204       643.480    23348277.136    97142529.61005
       500.483  
  19339390.973   103343875.65909      -651.206    19339395.037    80378608.57208
      -506.496  
  20528167.665   109657813.41308      3158.280    20528173.129    85289445.84508
      2456.441  
  23577708.879   126257566.05607     -4091.738    23577712.923    98200359.96006
     -3182.468  
  22778179.584   121420536.42506     -4064.176           0.000           0.0000 
         0.000  
 20 10 03 11 03  0.0000000  0 14G22G12G 1G 3G32G10G31R 2R 1R19R11R12
                                R 8R10
  22991158.478   120819378.98248      2043.617    22991155.259    94144945.41646
      1592.430  
  22394798.114   117685493.80748     -1834.465    22394796.866    91702986.04947
     -1429.453  
  23832222.773   125239179.12347     -1754.012    23832225.415    97588986.35349
     -1366.766  
  24188503.759   127111471.96746      3269.312    24188506.258    99047885.78449
      2547.511  
  20209266.639   106200454.39049      -555.156    20209267.713    82753617.57849
      -432.590  
  23384497.231   122886369.86348     -3692.109    23384499.679    95755627.84349
     -2876.973  
  20815049.041   109383853.27049      1925.953    20815048.112    85234177.60849
      1500.742  
  19868906.178   106024308.69509      2367.684    19868911.029    82463387.22508
      1841.530  
  20135963.917   107638296.65108     -2558.491    20135970.317    83718708.75206
     -1989.940  
