     2.11           OBSERVATION DATA    M                   RINEX VERSION / TYPE
LEICA GEO OFFICE 8.4                    27-9-20 23:32       PGM / RUN BY / DATE
                                                            OBSERVER / AGENCY
TARY                                                        MARKER NAME
TARY                                                        MARKER NUMBER
352348              LEICA GX1220GG      4.10                REC # / TYPE / VERS
                    LEIAX1202GG                             ANT # / TYPE
 -1173808.9385  3860805.5898  4923765.2099                  APPROX POSITION XYZ
        1.7530        0.0000        0.0000                  ANTENNA: DELTA H/E/N
L1PhaOff:   0.0644  L2PhaOff:   0.0640                      COMMENT
     1     1                                                WAVELENGTH FACT L1/2
     6    C1    L1    D1    P2    L2    D2                  # / TYPES OF OBSERV
  2020     9    27     6     0   40.0000000     GPS         TIME OF FIRST OBS
  2020     9    27     8    32   15.0000000     GPS         TIME OF LAST OBS
    18                                                      LEAP SECONDS
    24                                                      # OF SATELLITES
          C1    L1    D1    P2    L2    D2                  COMMENT
   G 1     0     0     0     0     0     0                  PRN / # OF OBS
   G 2     0     0     0     0     0     0                  PRN / # OF OBS
   G 3     0     0     0     0     0     0                  PRN / # OF OBS
   G 4     0     0     0     0     0     0                  PRN / # OF OBS
   G 5   524   524   524   524   524   524                  PRN / # OF OBS
   G 6     0     0     0     0     0     0                  PRN / # OF OBS
   G 7     0     0     0     0     0     0                  PRN / # OF OBS
   G 8   640   640   640   639   639   639                  PRN / # OF OBS
   G 9     0     0     0     0     0     0                  PRN / # OF OBS
   G10  1646  1646  1646  1645  1645  1645                  PRN / # OF OBS
   G11     0     0     0     0     0     0                  PRN / # OF OBS
   G12     0     0     0     0     0     0                  PRN / # OF OBS
   G13  1287  1287  1287  1273  1273  1273                  PRN / # OF OBS
   G14     0     0     0     0     0     0                  PRN / # OF OBS
   G15  1820  1820  1820  1820  1820  1820                  PRN / # OF OBS
   G16     0     0     0     0     0     0                  PRN / # OF OBS
   G17     0     0     0     0     0     0                  PRN / # OF OBS
   G18  1820  1820  1820  1820  1820  1820                  PRN / # OF OBS
   G19     0     0     0     0     0     0                  PRN / # OF OBS
   G20  1820  1820  1820  1820  1820  1820                  PRN / # OF OBS
   G21   809   809   809   808   808   808                  PRN / # OF OBS
   G22     0     0     0     0     0     0                  PRN / # OF OBS
   G23     0     0     0     0     0     0                  PRN / # OF OBS
   G24  1792  1792  1792  1791  1791  1791                  PRN / # OF OBS
   G25     0     0     0     0     0     0                  PRN / # OF OBS
   G26     0     0     0     0     0     0                  PRN / # OF OBS
   G27  1591  1591  1591  1591  1591  1591                  PRN / # OF OBS
   G28     0     0     0     0     0     0                  PRN / # OF OBS
   G29   277   277   277   277   277   277                  PRN / # OF OBS
   G30   299   299   299   299   299   299                  PRN / # OF OBS
   G31     0     0     0     0     0     0                  PRN / # OF OBS
   G32   518   518   518   518   518   518                  PRN / # OF OBS
   R 1  1736  1736  1736  1736  1736  1736                  PRN / # OF OBS
   R 2  1820  1820  1820  1820  1820  1820                  PRN / # OF OBS
   R 3   528   528   528   527   527   527                  PRN / # OF OBS
   R 4     0     0     0     0     0     0                  PRN / # OF OBS
   R 5     0     0     0     0     0     0                  PRN / # OF OBS
   R 6     0     0     0     0     0     0                  PRN / # OF OBS
   R 7     0     0     0     0     0     0                  PRN / # OF OBS
   R 8   979   979   979   979   979   979                  PRN / # OF OBS
   R 9     0     0     0     0     0     0                  PRN / # OF OBS
   R10  1653  1653  1653     0     0     0                  PRN / # OF OBS
   R11  1289  1289  1289  1288  1288  1288                  PRN / # OF OBS
   R12   587   587   587   586   586   586                  PRN / # OF OBS
   R13     0     0     0     0     0     0                  PRN / # OF OBS
   R14     0     0     0     0     0     0                  PRN / # OF OBS
   R15     0     0     0     0     0     0                  PRN / # OF OBS
   R16     0     0     0     0     0     0                  PRN / # OF OBS
   R17  1820  1820  1820  1820  1820  1820                  PRN / # OF OBS
   R18  1248  1248  1248  1247  1247  1247                  PRN / # OF OBS
   R19     0     0     0     0     0     0                  PRN / # OF OBS
   R20     0     0     0     0     0     0                  PRN / # OF OBS
   R21     0     0     0     0     0     0                  PRN / # OF OBS
   R22     0     0     0     0     0     0                  PRN / # OF OBS
   R23   697   697   697   697   697   697                  PRN / # OF OBS
   R24  1376  1376  1376  1376  1376  1376                  PRN / # OF OBS
                                                            END OF HEADER
 20 09 27 06 00 40.0000000  0 14G15G18G30G20G 5G29G27G13R 8R 2R 1R24
                                R23R17
  20068208.113   105459145.95759       737.117    20068207.538    82175955.93258
       574.374  
  20510582.328   107783838.52159      1058.938    20510582.438    83987406.82258
       825.145  
  24260715.572   127490924.88854     -1603.918    24260718.073    99343567.97055
     -1249.800  
  22233466.836   116837657.75158      2823.781    22233466.451    91042328.15656
      2200.347  
  23157804.916   121695085.23858     -3097.960    23157804.881    94827339.47755
     -2413.999  
  23784450.786   124988127.32758     -3588.598    23784451.822    97393343.44656
     -2796.309  
  24653891.044   129557077.25255      2267.065    24653893.622   100953578.77356
      1766.546  
  20771505.388   109154996.64458     -1354.019    20771504.805    85055838.76756
     -1055.081  
  20414620.213   109319365.71617     -2513.324    20414623.573    85026186.21115
     -1954.812  
  23026287.840   122872692.92415      3562.366    23026296.429    95567681.39216
      2770.734  
  19285950.417   103094455.84918       438.859    19285956.728    80184606.29316
       341.336  
  19560085.883   104596571.29218      -594.894    19560089.604    81352903.80317
      -462.699  
  20720883.849   110842749.01518     -3585.550    20720890.960    86211059.50216
     -2788.765  
  21563426.223   115390243.81718      3343.953    21563430.242    89747989.97617
      2600.851  
 20 09 27 06 00 45.0000000  0 14G15G18G30G20G 5G29G27G13R 8R 2R 1R24
                                R23R17
  20067508.394   105455468.25349       733.855    20067507.876    82173090.18448
       571.831  
  20509576.059   107778550.44649      1056.065    20509576.282    83983286.24948
       822.906  
  24262242.667   127498949.63844     -1606.938    24262245.128    99349821.00844
     -1252.164  
  22230780.459   116823540.55748      2822.996    22230779.917    91031327.78246
      2199.737  
  23160752.746   121710576.06548     -3098.711    23160752.746    94839410.27245
     -2414.577  
  23787865.609   125006072.71448     -3589.839    23787866.617    97407326.86846
     -2797.280  
  24651734.840   129545747.03946      2264.562    24651737.775   100944750.06747
      1764.594  
  20772795.211   109161774.30348     -1357.063    20772794.747    85061120.04847
     -1057.457  
  20416967.543   109331935.65807     -2515.055    20416970.828    85035962.82205
     -1956.155  
  23022950.531   122854883.81106      3561.395    23022958.860    95553829.92706
      2769.980  
  19285541.297   103092268.64608       435.977    19285547.602    80182905.12306
       339.089  
  19560644.095   104599556.86308      -599.593    19560647.905    81355225.91107
      -466.355  
  20724236.443   110860683.06908     -3588.444    20724243.616    86225008.20206
     -2791.016  
  21560302.973   115373530.36207      3340.991    21560307.000    89734990.64907
      2598.550  
 20 09 27 06 00 50.0000000  0 14G15G18G30G20G 5G29G27G13R 8R 2R 1R24
                                R23R17
  20066811.916   105451808.45649       730.378    20066811.383    82170238.41148
       569.125  
  20508572.826   107773278.42449      1052.957    20508573.087    83979178.17948
       820.484  
  24263772.664   127506989.88944     -1609.219    24263775.378    99356086.15743
     -1253.937  
  22228095.382   116809430.13248      2821.535    22228094.843    91020332.60446
      2198.589  
  23163701.537   121726072.47348     -3099.496    23163701.571    94851485.37545
     -2415.195  
  23791281.730   125024024.36547     -3590.832    23791282.850    97421315.11445
     -2798.059  
  24649581.329   129534431.66746      2262.113    24649584.581   100935932.87746
      1762.680  
  20774088.052   109168568.76148     -1360.245    20774087.561    85066414.43746
     -1059.938  
  20419317.001   109344516.24207     -2516.894    20419320.194    85045747.72105
     -1957.589  
  23019614.355   122837081.15006      3560.081    23019622.778    95539983.35606
      2768.948  
  19285135.144   103090097.65308       432.827    19285141.372    80181216.59106
       336.645  
  19561207.176   104602567.06908      -604.261    19561211.010    81357567.18408
      -469.983  
  20727592.010   110878633.37108     -3591.327    20727599.159    86238969.54306
     -2793.257  
  21557182.572   115356832.74408      3338.054    21557186.699    89722003.59507
      2596.261  
 20 09 27 06 00 55.0000000  0 15G15G18G30G20G 5G29G27G13R10R 8R 2R 1
                                R24R23R17
  20066118.489   105448164.46849       727.331    20066117.810    82167398.94048
       566.753  
  20507572.257   107768020.39549      1050.249    20507572.571    83975081.01448
       818.371  
  24265305.343   127515043.70045     -1611.800    24265307.933    99362361.83943
     -1255.956  
  22225411.087   116795324.34648      2820.660    22225410.780    91009341.09246
      2197.913  
  23166651.110   121741572.36448     -3100.362    23166651.077    94863563.20446
     -2415.871  
  23794698.630   125041980.20048     -3591.499    23794699.590    97435306.65345
     -2798.574  
  24647430.561   129523129.08945      2259.222    24647433.747   100927125.69746
      1760.433  
  20775383.751   109175377.89248     -1363.308    20775383.341    85071720.25246
     -1062.323  
  22969539.511   122440574.48715      3000.664           0.000           0.0000 
         0.000  
  20421667.847   109357105.22807     -2518.719    20421671.224    85055539.14705
     -1959.008  
  23016278.980   122819283.41706      3559.074    23016287.371    95526140.68006
      2768.163  
  19284731.615   103087940.59308       429.934    19284737.798    80179538.88406
       334.395  
  19561774.163   104605599.87708      -608.848    19561778.213    81359926.03508
      -473.547  
  20730950.193   110896597.75808     -3594.277    20730957.378    86252941.83106
     -2795.554  
  21554064.765   115340148.76408      3335.391    21554069.010    89709027.16107
      2594.187  
 20 09 27 06 01  0.0000000  0 15G15G18G30G20G 5G29G27G13R10R 8R 2R 1
                                R24R23R17
  20065427.727   105444534.86549       724.151    20065427.190    82164570.68548
       564.272  
  20506573.968   107762774.97749      1047.430    20506574.248    83970993.67248
       816.176  
  24266840.312   127523109.61444     -1615.046    24266842.837    99368646.95044
     -1258.484  
  22222727.370   116781221.88248      2819.835    22222727.179    90998352.16746
      2197.273  
  23169601.102   121757074.30348     -3100.772    23169600.914    94875642.63746
     -2416.188  
  23798115.943   125059938.80247     -3592.266    23798117.068    97449300.37445
     -2799.172  
  24645281.675   129511837.83646      2256.710    24645285.074   100918327.33446
      1758.480  
  20776682.118   109182200.32248     -1366.285    20776681.552    85077036.43147
     -1064.641  
  22966726.189   122425576.80505      2998.065           0.000           0.0000 
         0.000  
  20424020.049   109369701.28807     -2520.397    20424023.494    85065336.08105
     -1960.313  
  23012944.066   122801488.55305      3558.187    23012952.765    95512300.26106
      2767.480  
  19284330.542   103085796.18808       427.414    19284336.868    80177871.01506
       332.429  
  19562345.271   104608653.84608      -613.289    19562349.267    81362301.34208
      -477.008  
  20734310.773   110914574.69008     -3596.944    20734318.017    86266923.87306
     -2797.628  
  21550949.424   115323477.06807      3332.808    21550953.478    89696060.30007
      2592.184  
 20 09 27 06 01  5.0000000  0 15G15G18G30G20G 5G29G27G13R10R 8R 2R 1
                                R24R23R17
  20064739.623   105440918.44949       721.926    20064738.987    82161752.70248
       562.538  
  20505577.977   107757540.94949      1045.609    20505578.352    83966915.20648
       814.758  
  24268377.344   127531186.33145     -1616.378    24268379.839    99374940.43745
     -1259.523  
  22220044.198   116767121.49748      2819.812    22220043.811    90987364.84846
      2197.254  
  23172551.276   121772577.13548     -3100.484    23172550.978    94887722.78045
     -2415.960  
  23801533.650   125077898.97348     -3592.246    23801534.888    97463295.30645
     -2799.155  
  24643135.016   129500556.75346      2255.090    24643138.206   100909536.89646
      1757.215  
  20777982.571   109189034.78348     -1368.086    20777981.947    85082361.98746
     -1066.038  
  22963914.816   122410589.63605      2996.043           0.000           0.0000 
         0.000  
  20426373.437   109382303.10207     -2520.843    20426376.713    85075137.49905
     -1960.655  
  23009609.574   122783695.97106      3558.211    23009618.360    95498461.58506
      2767.496  
  19283931.556   103083663.00608       425.522    19283937.610    80176211.87606
       330.960  
  19562920.137   104611727.75608      -616.890    19562924.171    81364692.16008
      -479.804  
  20737673.622   110932563.10208     -3598.742    20737680.759    86280914.84906
     -2799.026  
  21547835.867   115306816.42108      3331.042    21547840.107    89683102.02307
      2590.812  
 20 09 27 06 01 10.0000000  0 15G15G18G30G20G 5G29G27G13R10R 8R 2R 1
                                R24R23R17
  20064054.357   105437317.00749       718.765    20064053.715    82158946.37848
       560.074  
  20504584.635   107752320.08749      1042.785    20504584.902    83962847.01048
       812.558  
  24269916.619   127539275.71344     -1619.422    24269918.968    99381243.94345
     -1261.883  
  22217361.600   116753024.94348      2818.804    22217361.436    90976380.53046
      2196.473  
  23175501.814   121788082.59848     -3101.250    23175501.576    94899804.95446
     -2416.562  
  23804952.115   125095862.44048     -3593.245    23804953.055    97477292.81845
     -2799.934  
  24640990.717   129489287.63746      2252.730    24640993.807   100900755.75346
      1755.375  
  20779285.897   109195883.02848     -1370.969    20779285.247    85087698.27946
     -1068.293  
  22961105.712   122395614.55805      2993.401           0.000           0.0000 
         0.000  
  20428728.034   109394912.45907     -2522.644    20428731.348    85084944.75405
     -1962.063  
  23006276.125   122765907.01306      3557.487    23006284.683    95484625.74406
      2766.933  
  19283534.782   103081542.92608       422.515    19283540.997    80174562.92006
       328.621  
  19563499.115   104614823.34608      -621.566    19563502.912    81367099.84308
      -483.444  
  20741038.724   110950564.56808     -3601.594    20741045.853    86294915.99206
     -2801.242  
  21544724.817   115290168.68908      3328.141    21544728.894    89670153.79207
      2588.554  
 20 09 27 06 01 15.0000000  0 16G15G18G30G20G 5G29G27G24G13R10R 8R 2
                                R 1R24R23R17
  20063372.349   105433733.87549       715.105    20063371.854    82156154.33348
       557.226  
  20503594.147   107747115.75849      1039.429    20503594.405    83958791.68448
       809.940  
  24271459.110   127547381.12144     -1622.312    24271461.431    99387559.79144
     -1264.147  
  22214680.552   116738935.56848      2817.476    22214680.231    90965401.79046
      2195.433  
  23178453.691   121803594.09647     -3102.535    23178453.380    94911891.81745
     -2417.562  
  23808371.710   125113832.56747     -3594.558    23808372.729    97491295.49745
     -2800.957  
  24638849.237   129478033.83046      2249.425    24638852.418   100891986.52946
      1752.797  
  24522230.136   128865196.28915      3834.582           0.000           0.0000 
         0.000  
  20780592.250   109202748.39548     -1374.667    20780591.494    85093047.92446
     -1071.167  
  22958299.710   122380655.02205      2990.711           0.000           0.0000 
         0.000  
  20431084.732   109407532.81507     -2525.090    20431088.086    85094760.60705
     -1963.956  
  23002943.748   122748125.34206      3556.030    23002952.399    95470795.56205
      2765.801  
  19283141.388   103079439.41408       419.261    19283147.510    80172926.87006
       326.093  
  19564082.763   104617944.03208      -626.319    19564086.705    81369527.03908
      -487.140  
  20744406.973   110968582.70908     -3605.132    20744414.363    86308930.09506
     -2803.996  
  21541616.927   115273537.24008      3325.027    21541621.029    89657218.21607
      2586.128  
 20 09 27 06 01 20.0000000  0 16G15G18G30G20G 5G29G27G24G13R10R 8R 2
                                R 1R24R23R17
  20062693.940   105430168.22049       711.637    20062693.181    82153375.90648
       554.523  
  20502606.894   107741927.11249      1036.430    20502607.069    83954748.58248
       807.605  
  24273004.298   127555501.60945     -1625.522    24273006.846    99393887.41244
     -1266.645  
  22212000.660   116724852.60648      2816.077    22212000.517    90954428.05946
      2194.347  
  23181406.316   121819110.71347     -3103.582    23181406.176    94923982.67745
     -2418.379  
  23811792.443   125131808.48348     -3595.378    23811793.366    97505302.68745
     -2801.601  
  24636710.434   129466794.47246      2246.671    24636713.770   100883228.59246
      1750.647  
  24518582.776   128846025.34546      3833.867    24518587.193   100399515.22454
      2987.430  
  20781901.848   109209630.03648     -1377.762    20781901.187    85098410.24246
     -1073.581  
  22955495.784   122365710.39205      2987.852           0.000           0.0000 
         0.000  
  20433443.450   109420163.39007     -2526.668    20433446.719    85104584.38905
     -1965.191  
  22999612.760   122730350.30406      3554.707    22999621.279    95456970.55005
      2764.773  
  19282750.800   103077351.56408       416.296    19282756.907    80171302.99606
       323.784  
  19564670.876   104621089.02809      -631.065    19564674.828    81371973.14708
      -490.827  
  20747778.205   110986616.59208     -3608.093    20747785.573    86322956.43006
     -2806.305  
  21538511.853   115256921.33308      3321.715    21538515.832    89644294.74407
      2583.555  
 20 09 27 06 01 25.0000000  0 16G15G18G30G20G 5G29G27G24G13R10R 8R 2
                                R 1R24R23R17
  20062018.391   105426618.12249       708.316    20062017.688    82150609.59348
       551.934  
  20501622.111   107736752.23149      1033.578    20501622.414    83950716.20948
       805.387  
  24274552.050   127563635.25545     -1628.003    24274554.990    99400225.36344
     -1268.573  
  22209321.686   116710774.06748      2815.179    22209321.297    90943457.78646
      2193.648  
  23184359.648   121834630.51947     -3104.543    23184359.658    94936076.03845
     -2419.129  
  23815213.917   125149788.23348     -3596.429    23815214.819    97519312.86945
     -2802.417  
  24634573.910   129455567.67946      2244.156    24634577.502   100874480.46346
      1748.691  
  24514934.847   128826854.34745      3833.913    24514937.864   100384576.82944
      2987.461  
  20783214.108   109216526.07148     -1380.882    20783213.320    85103783.77046
     -1076.016  
  22952694.664   122350778.63005      2984.933           0.000           0.0000 
         0.000  
  20435803.485   109432801.92807     -2528.719    20435806.827    85114414.34305
     -1966.784  
  22996282.544   122712579.41606      3553.116    22996290.933    95443148.72405
      2763.531  
  19282362.825   103075277.48608       413.272    19282368.925    80169689.80406
       321.429  
  19565263.118   104624256.19908      -635.887    19565267.046    81374436.50508
      -494.581  
  20751152.086   111004664.10908     -3610.949    20751159.404    86336993.39106
     -2808.519  
  21535409.188   115240318.87708      3319.012    21535413.268    89631381.72707
      2581.453  
 20 09 27 06 01 30.0000000  0 16G15G18G30G20G 5G29G27G24G13R10R 8R 2
                                R 1R24R23R17
  20061345.895   105423084.28849       704.979    20061345.124    82147855.96148
       549.335  
  20500639.993   107731591.85349      1030.617    20500640.450    83946695.13748
       803.077  
  24276102.375   127571782.86345     -1631.195    24276105.483    99406574.15643
     -1271.066  
  22206643.490   116696700.73948      2814.121    22206643.275    90932491.54846
      2192.816  
  23187313.715   121850154.27247     -3105.266    23187313.668    94948172.46645
     -2419.690  
  23818636.151   125167772.53747     -3597.313    23818637.190    97533326.62645
     -2803.101  
  24632440.233   129444354.16646      2241.198    24632443.649   100865742.65746
      1746.387  
  24511286.993   128807683.99844      3834.363    24511290.416   100369638.85844
      2987.804  
  20784529.224   109223437.14648     -1383.679    20784528.651    85109169.02046
     -1078.194  
  22949895.593   122335860.47305      2982.269           0.000           0.0000 
         0.000  
  20438165.415   109445449.45707     -2530.382    20438168.650    85124251.31305
     -1968.078  
  22992953.258   122694813.83406      3552.813    22992961.736    95429331.07005
      2763.297  
  19281977.491   103073217.78408       410.547    19281983.626    80168087.82806
       319.312  
  19565859.681   104627446.47708      -640.362    19565863.590    81376917.82908
      -498.063  
  20754528.592   111022726.07708     -3613.925    20754535.874    86351041.58106
     -2810.835  
  21532309.318   115223730.75108      3316.191    21532313.360    89618479.86108
      2579.261  
 20 09 27 06 01 35.0000000  0 16G15G18G30G20G 5G29G27G24G13R10R 8R 2
                                R 1R24R23R17
  20060676.627   105419567.19749       701.401    20060675.989    82145115.37348
       546.547  
  20499660.929   107726446.46349      1027.461    20499661.170    83942685.74348
       800.616  
  24277655.458   127579944.83845     -1633.702    24277658.835    99412934.12145
     -1273.019  
  22203966.625   116682633.06648      2812.714    22203966.266    90921529.73946
      2191.726  
  23190268.557   121865682.41547     -3106.465    23190268.618    94960272.30346
     -2420.625  
  23822059.291   125185761.88547     -3598.655    23822060.456    97547344.26645
     -2804.155  
  24630309.070   129433154.51346      2238.199    24630312.562   100857015.65246
      1744.043  
  24507639.020   128788515.02244      3833.394    24507642.931   100354702.01742
      2987.063  
  20785847.196   109230363.79248     -1387.168    20785846.677    85114566.39847
     -1080.913  
  22947099.356   122320956.54905      2979.159           0.000           0.0000 
         0.000  
  20440529.077   109458106.22407     -2532.765    20440532.165    85134095.45805
     -1969.934  
  22989625.126   122677053.68606      3551.249    22989633.282    95415517.62505
      2762.082  
  19281594.957   103071172.95008       407.137    19281601.224    80166497.39506
       316.656  
  19566460.727   104630660.28909      -645.348    19566464.686    81379417.45608
      -501.941  
  20757907.695   111040802.78208     -3617.132    20757915.188    86365101.22606
     -2813.327  
  21529212.246   115207157.44708      3312.995    21529216.310    89605589.51707
      2576.772  
 20 09 27 06 01 40.0000000  0 16G15G18G30G20G 5G29G27G24G13R10R 8R 2
                                R 1R24R23R17
  20060010.587   105416067.69549       698.719    20060010.035    82142388.49448
       544.457  
  20498684.709   107721316.89449      1024.972    20498685.045    83938688.67548
       798.679  
  24279211.530   127588121.98845     -1636.375    24279214.584    99419305.90544
     -1275.101  
  22201290.707   116668571.86648      2812.309    22201290.417    90910572.95846
      2191.406  
  23193224.357   121881215.78347     -3106.855    23193224.526    94972376.22146
     -2420.930  
  23825483.732   125203757.03547     -3598.983    23825484.819    97561366.45845
     -2804.405  
  24628180.794   129421969.40946      2236.351    24628184.125   100848299.96445
      1742.604  
  24503990.703   128769347.98645      3833.801    24503991.780   100339766.72943
      2987.379  
  20787168.426   109237306.77848     -1389.589    20787167.866    85119976.53746
     -1082.796  
  22944306.353   122306067.61805      2977.152           0.000           0.0000 
         0.000  
  20442894.555   109470773.22007     -2533.879    20442897.597    85143947.58505
     -1970.792  
  22986298.272   122659300.20906      3550.534    22986306.441    95401709.40605
      2761.531  
  19281215.417   103069143.90208       404.960    19281221.684    80164919.26906
       314.969  
  19567066.236   104633898.46808      -649.581    19567070.363    81381936.04308
      -505.229  
  20761289.967   111058895.31508     -3619.438    20761297.379    86379173.19006
     -2815.121  
  21526117.970   115190599.72608      3310.629    21526122.166    89592711.29707
      2574.934  
 20 09 27 06 01 45.0000000  0 16G15G18G30G20G 5G29G27G24G13R10R 8R 2
                                R 1R24R23R17
  20059347.217   105412581.53849       695.961    20059346.763    82139672.01048
       542.309  
  20497710.776   107716198.93649      1022.269    20497711.137    83934700.65148
       796.570  
  24280769.896   127596310.13245     -1638.858    24280772.828    99425686.28044
     -1277.038  
  22198615.381   116654512.96148      2811.504    22198615.083    90899617.97646
      2190.781  
  23196180.531   121896750.14247     -3106.969    23196180.448    94984480.91445
     -2421.019  
  23828908.226   125221753.78147     -3599.656    23828909.393    97575389.89444
     -2804.930  
  24626054.211   129410794.67346      2234.218    24626057.773   100839592.40945
      1740.953  
  24500342.717   128750178.81644      3833.188    24500346.290   100324829.71041
      2986.895  
  20788491.926   109244261.94248     -1392.339    20788491.494    85125396.13746
     -1084.944  
  22941515.146   122291189.35105      2974.624           0.000           0.0000 
         0.000  
  20445261.161   109483446.07207     -2535.254    20445264.219    85153804.23205
     -1971.867  
  22982971.629   122641548.94806      3549.788    22982979.711    95387902.89905
      2760.948  
  19280838.089   103067126.39908       402.234    19280844.329    80163350.10006
       312.848  
  19567675.517   104637156.69708      -653.688    19567679.629    81384470.21508
      -508.425  
  20764674.322   111076999.23508     -3622.035    20764681.714    86393254.00806
     -2817.141  
  21523025.967   115174053.41608      3308.184    21523029.973    89579841.94907
      2573.030  
 20 09 27 06 01 50.0000000  0 15G15G18G30G20G 5G29G27G13R10R 8R 2R 1
                                R24R23R17
  20058686.879   105409111.00149       692.270    20058686.166    82136967.69348
       539.426  
  20496739.505   107711094.83849      1019.246    20496739.908    83930723.44448
       794.218  
  24282330.436   127604511.51444     -1642.093    24282333.276    99432076.92845
     -1279.554  
  22195941.000   116640458.61948      2810.288    22195940.701    90888666.54946
      2189.835  
  23199137.104   121912287.76047     -3108.054    23199137.363    94996588.14546
     -2421.859  
  23832333.690   125239754.33947     -3600.710    23832334.908    97589416.30345
     -2805.750  
  24623930.083   129399632.64746      2231.230    24623933.695   100830894.75846
      1738.629  
  20789818.282   109251231.45848     -1395.590    20789817.533    85130826.91946
     -1087.476  
  22938726.530   122276324.08105      2971.573           0.000           0.0000 
         0.000  
  20447629.311   109496127.18707     -2537.395    20447632.322    85163667.29805
     -1973.534  
  22979646.085   122623802.27206      3548.480    22979653.893    95374099.89405
      2759.921  
  19280463.188   103065122.58708       399.222    19280469.342    80161791.56206
       310.504  
  19568289.088   104640437.29608      -658.605    19568292.996    81387021.78608
      -512.253  
  20768061.101   111095116.81208     -3624.918    20768068.476    86407345.45806
     -2819.382  
  21519936.388   115157520.82908      3305.007    21519940.637    89566983.27007
      2570.563  
 20 09 27 06 01 55.0000000  0 15G15G18G30G20G 5G29G27G13R10R 8R 2R 1
                                R24R23R17
  20058029.991   105405659.37549       688.671    20058029.482    82134278.11948
       536.629  
  20495771.461   107706007.91949      1015.914    20495771.868    83926759.60548
       791.616  
  24283894.316   127612729.32045     -1644.976    24283897.161    99438480.46345
     -1281.797  
  22193268.132   116626412.07048      2808.754    22193267.808    90877721.18646
      2188.641  
  23202094.959   121927831.86346     -3109.215    23202095.299    95008700.42745
     -2422.766  
  23835760.491   125257762.02147     -3601.953    23835761.675    97603448.24745
     -2806.723  
  24621808.936   129388486.63446      2227.867    24621812.636   100822209.53145
      1735.991  
  20791147.875   109258218.61148     -1398.991    20791147.209    85136271.46846
     -1090.125  
  22935941.000   122261475.23305      2968.316           0.000           0.0000 
         0.000  
  20449999.411   109508819.62407     -2539.175    20450002.586    85173539.20805
     -1974.914  
  22976321.846   122606063.37005      3547.440    22976329.813    95360303.00805
      2759.124  
  19280091.533   103063135.84908       395.820    19280097.746    80160246.33806
       307.862  
  19568907.320   104643743.63608      -663.602    19568911.390    81389593.39008
      -516.132  
  20771451.234   111113251.45608     -3628.469    20771458.645    86421450.17306
     -2822.144  
  21516850.168   115141005.25008      3301.566    21516854.174    89554137.83307
      2567.886  
 20 09 27 06 02  0.0000000  0 15G15G18G30G20G 5G29G27G13R10R 8R 2R 1
                                R24R23R17
  20057376.132   105402223.17049       685.437    20057375.487    82131600.55848
       534.104  
  20494806.106   107700934.72549      1013.117    20494806.492    83922806.45848
       789.437  
  24285460.597   127620960.24745     -1648.117    24285463.664    99444894.15544
     -1284.245  
  22190595.835   116612369.93348      2807.562    22190595.619    90866779.26846
      2187.710  
  23205053.551   121943379.17946     -3109.925    23205053.955    95020815.22445
     -2423.324  
  23839187.883   125275773.36747     -3602.659    23839189.163    97617483.05145
     -2807.272  
  24619690.374   129377353.13846      2225.211    24619694.053   100813534.06946
      1733.925  
  20792480.339   109265220.03548     -1401.863    20792479.598    85141727.13246
     -1092.359  
  22933157.689   122246639.30605      2965.914           0.000           0.0000 
         0.000  
  20452371.278   109521520.29907     -2541.151    20452374.273    85183417.51505
     -1976.453  
  22972998.199   122588328.97005      3545.808    22973006.188    95346509.63805
      2757.855  
  19279722.427   103061162.70508       393.027    19279728.573    80158711.68906
       305.688  
  19569529.865   104647072.16308      -668.077    19569533.871    81392182.24408
      -519.621  
  20774843.820   111131399.60008     -3631.340    20774851.262    86435565.38706
     -2824.378  
  21513766.374   115124503.24607      3298.816    21513770.352    89541302.94907
      2565.746  
 20 09 27 06 02  5.0000000  0 16G15G18G30G20G 5G29G27G24G13R10R 8R 2
                                R 1R24R23R17
  20056725.141   105398802.65749       682.214    20056724.677    82128935.22448
       531.593  
  20493843.380   107695875.47549      1010.043    20493843.796    83918864.19448
       787.046  
  24287029.344   127629204.44245     -1650.265    24287032.062    99451318.17143
     -1285.930  
  22187924.682   116598332.39848      2806.940    22187924.251    90855840.93246
      2187.222  
  23208012.503   121958929.82946     -3110.926    23208013.048    95032932.59146
     -2424.105  
  23842616.001   125293788.56147     -3603.723    23842617.093    97631520.85044
     -2808.102  
  24617574.101   129366232.42546      2222.844    24617577.782   100804868.57547
      1732.085  
  24485753.596   128673502.09054      3832.862    24485758.341   100265091.34454
      2986.648  
  20793815.258   109272235.86548     -1404.858    20793814.457    85147193.99846
     -1094.699  
  22930376.973   122231816.52905      2962.690           0.000           0.0000 
         0.000  
  20454744.593   109534229.14007     -2542.765    20454747.621    85193302.14205
     -1977.714  
  22969675.524   122570598.91206      3545.465    22969683.533    95332719.57505
      2757.577  
  19279355.978   103059203.41708       390.194    19279362.005    80157187.77906
       303.480  
  19570156.497   104650423.07708      -672.702    19570160.469    81394788.50208
      -523.218  
  20778239.019   111149561.46708     -3633.957    20778246.450    86449691.26906
     -2826.413  
  21510685.214   115108015.05308      3295.851    21510689.184    89528478.79807
      2563.438  
 20 09 27 06 02 10.0000000  0 15G15G18G30G20G 5G29G27G13R10R 8R 2R 1
                                R24R23R17
  20056077.373   105395398.42449       679.015    20056076.767    82126282.57948
       529.102  
  20492883.330   107690830.78649      1007.223    20492883.809    83914933.26748
       784.848  
  24288600.747   127637462.49945     -1653.680    24288603.552    99457753.00144
     -1288.589  
  22185254.489   116584300.12648      2805.698    22185254.056    90844906.71046
      2186.258  
  23210972.453   121974484.31346     -3111.559    23210972.804    95045052.95346
     -2424.593  
  23846045.113   125311808.19748     -3604.472    23846046.280    97645562.11345
     -2808.687  
  24615460.588   129355125.08846      2220.026    24615464.117   100796213.53246
      1729.891  
  20795153.222   109279266.72448     -1407.874    20795152.520    85152672.57946
     -1097.051  
  22927598.729   122217007.54605      2960.461           0.000           0.0000 
         0.000  
  20457119.416   109546946.61507     -2544.609    20457122.451    85203193.50605
     -1979.144  
  22966354.052   122552874.34106      3544.206    22966361.767    95318933.79305
      2756.602  
  19278992.145   103057258.55208       387.211    19278998.356    80155675.09906
       301.160  
  19570787.407   104653797.05608      -677.410    19570791.367    81397412.70308
      -526.879  
  20781636.860   111167737.53208     -3636.883    20781644.304    86463828.20906
     -2828.690  
  21507606.675   115091541.35808      3292.789    21507610.672    89515665.92007
      2561.058  
 20 09 27 06 02 15.0000000  0 15G15G18G30G20G 5G29G27G13R10R 8R 2R 1
                                R24R23R17
  20055432.845   105392011.56149       676.038    20055432.288    82123643.45148
       526.780  
  20491926.349   107685801.75449      1004.574    20491926.757    83911014.55048
       782.784  
  24290174.909   127645735.34344     -1655.714    24290177.124    99464199.45443
     -1290.141  
  22182585.407   116570274.13048      2804.757    22182585.040    90833977.37946
      2185.531  
  23213933.241   121990043.67147     -3111.934    23213933.809    95057177.14945
     -2424.883  
  23849475.120   125329833.32147     -3605.051    23849476.207    97659607.65145
     -2809.132  
  24613349.650   129344032.22446      2217.429    24613353.181   100787569.79046
      1727.871  
  20796494.218   109286313.73848     -1410.585    20796493.478    85158163.76747
     -1099.155  
  22924823.373   122202213.46306      2957.727           0.000           0.0000 
         0.000  
  20459496.314   109559674.07707     -2546.258    20459499.195    85213092.65606
     -1980.422  
  22963033.833   122535156.04606      3543.184    22963041.299    95305152.86606
      2755.805  
  19278631.306   103055329.16408       384.777    19278637.321    80154174.44106
       299.265  
  19571422.829   104657195.09909      -681.597    19571426.862    81400055.62008
      -530.136  
  20785037.496   111185928.98608     -3639.379    20785045.013    86477977.12006
     -2830.633  
  21504531.099   115075083.17408      3290.483    21504535.250    89502865.12307
      2559.265  
 20 09 27 06 02 20.0000000  0 15G15G18G30G20G 5G29G27G13R10R 8R 2R 1
                                R24R23R17
  20054791.743   105388642.08249       671.878    20054790.991    82121017.88248
       523.542  
  20490972.417   107680788.39949      1000.726    20490972.869    83907108.03948
       779.785  
  24291751.940   127654023.35244     -1659.105    24291754.632    99470657.64842
     -1292.809  
  22179917.448   116556254.50448      2802.848    22179917.259    90823053.01346
      2184.038  
  23216895.181   122005608.11347     -3113.601    23216895.615    95069305.28146
     -2426.187  
  23852906.295   125347864.01447     -3607.059    23852907.447    97673657.53845
     -2810.698  
  24611241.383   129332953.86146      2214.180    24611245.139   100778937.30446
      1725.331  
  20797838.261   109293376.88948     -1414.452    20797837.633    85163667.51246
     -1102.176  
  22922050.755   122187434.50706      2954.074           0.000           0.0000 
         0.000  
  20461874.865   109572411.51407     -2548.953    20461877.873    85222999.54706
     -1982.523  
  22959714.677   122517444.11406      3541.038    22959722.124    95291376.93506
      2754.141  
  19278273.222   103053415.34208       381.012    19278279.165    80152685.90806
       296.340  
  19572062.774   104660617.26709      -687.163    19572066.922    81402717.30508
      -534.465  
  20788441.103   111204135.79908     -3643.233    20788448.425    86492137.97006
     -2833.629  
  21501458.309   115058640.61308      3286.711    21501462.468    89490076.47007
      2556.331  
 20 09 27 06 02 25.0000000  0 15G15G18G30G20G 5G29G27G13R10R 8R 2R 1
                                R24R23R17
  20054154.064   105385291.30649       669.097    20054153.355    82118406.90048
       521.375  
  20490021.688   107675792.03349       998.359    20490021.904    83903214.77848
       777.940  
  24293332.029   127662327.46244     -1661.655    24293335.328    99477128.36545
     -1294.801  
  22177251.011   116542242.50448      2802.648    22177250.693    90812134.55746
      2183.879  
  23219858.051   122021178.78847     -3113.819    23219858.613    95081438.26346
     -2426.354  
  23856338.581   125365901.52147     -3607.238    23856339.871    97687712.70845
     -2810.844  
  24609136.378   129321891.32847      2211.593    24609140.034   100770317.15645
      1723.316  
  20799185.736   109300457.35548     -1416.957    20799184.940    85169184.76047
     -1104.120  
  22919281.146   122172671.68305      2951.608           0.000           0.0000 
         0.000  
  20464255.690   109585160.13207     -2549.883    20464258.738    85232915.13906
     -1983.245  
  22956396.825   122499739.73006      3541.308    22956404.360    95277606.88706
      2754.351  
  19277918.329   103051518.45308       378.582    19277924.413    80151210.56106
       294.452  
  19572707.402   104664064.94609      -691.292    19572711.541    81405398.82808
      -537.676  
  20791847.862   111222359.41408     -3645.749    20791855.157    86506311.88006
     -2835.585  
  21498388.712   115042214.95908      3284.273    21498392.801    89477300.96907
      2554.434  
 20 09 27 06 02 30.0000000  0 15G15G18G30G20G 5G29G27G13R10R 8R 2R 1
                                R24R23R17
  20053518.474   105381951.53749       666.746    20053517.923    82115804.47548
       519.539  
  20489072.684   107670805.01749       996.417    20489072.907    83899328.79348
       776.430  
  24294913.843   127670640.13844     -1663.629    24294916.976    99483605.79244
     -1296.336  
  22174584.571   116528230.54448      2802.491    22174584.396    90801216.17146
      2183.858  
  23222820.910   122036748.12347     -3113.332    23222821.367    95093570.21445
     -2425.980  
  23859770.945   125383938.18347     -3607.211    23859772.298    97701767.26745
     -2810.813  
  24607032.776   129310836.94947      2209.968    24607036.278   100761703.34546
      1722.051  
  20800534.913   109307547.57848     -1418.897    20800534.197    85174709.61747
     -1105.637  
  22916513.302   122157917.23506      2950.339           0.000           0.0000 
         0.000  
  20466637.045   109597912.05607     -2551.077    20466640.054    85242833.29906
     -1984.171  
  22953079.051   122482035.39306      3540.644    22953086.525    95263836.89006
      2753.839  
  19277565.127   103049630.60208       376.737    19277571.305    80149742.23706
       293.020  
  19573355.559   104667530.24309      -694.956    19573359.788    81408094.06408
      -540.523  
  20795256.153   111240591.91108     -3647.179    20795263.604    86520492.70306
     -2836.698  
  21495320.955   115025798.51908      3282.348    21495325.050    89464532.62807
      2552.937  
 20 09 27 06 02 35.0000000  0 15G15G18G30G20G 5G29G27G13R10R 8R 2R 1
                                R24R23R17
  20052885.368   105378624.94949       663.504    20052884.938    82113212.32248
       517.012  
  20488125.782   107665829.51249       993.374    20488126.129    83895451.77248
       774.054  
  24296497.608   127678963.50544     -1665.624    24296501.080    99490091.52745
     -1297.895  
  22171918.521   116514220.73248      2801.483    22171918.325    90790299.43446
      2182.973  
  23225783.744   122052318.20447     -3114.472    23225784.116    95105702.73746
     -2426.867  
  23863203.439   125401976.11947     -3607.921    23863204.666    97715822.80146
     -2811.371  
  24604931.233   129299792.89347      2207.628    24604934.606   100753097.60345
      1720.229  
  20801886.357   109314649.68048     -1422.211    20801885.666    85180243.71747
     -1108.215  
  22913747.274   122143173.62405      2946.858           0.000           0.0000 
         0.000  
  20469019.325   109610669.52108     -2552.772    20469022.361    85252755.77406
     -1985.495  
  22949761.786   122464333.08206      3539.761    22949769.195    95250068.42606
      2753.147  
  19277214.164   103047754.00508       373.582    19277220.128    80148282.65906
       290.563  
  19574007.262   104671015.47609      -699.566    19574011.384    81410804.79108
      -544.109  
  20798666.663   111258835.43208     -3650.444    20798674.224    86534682.10406
     -2839.237  
  21492255.285   115009393.44008      3279.448    21492259.466    89451773.11807
      2550.680  
 20 09 27 06 02 40.0000000  0 15G15G18G30G20G 5G29G27G13R10R 8R 2R 1
                                R24R23R17
  20052255.707   105375315.62249       660.296    20052255.118    82110633.62848
       514.512  
  20487181.937   107660869.57649       990.616    20487182.246    83891586.88648
       771.905  
  24298084.296   127687301.88945     -1669.585    24298087.737    99496588.99943
     -1300.976  
  22169253.800   116500217.12548      2800.508    22169253.446    90779387.54245
      2182.214  
  23228747.486   122067893.14947     -3115.102    23228748.112    95117839.05445
     -2427.354  
  23866636.910   125420019.35147     -3609.004    23866638.264    97729882.43745
     -2812.215  
  24602832.520   129288763.30347      2204.566    24602835.819   100744503.10845
      1717.843  
  20803240.869   109321767.65948     -1424.953    20803240.327    85185790.20247
     -1110.351  
  22910984.050   122128444.89605      2944.344           0.000           0.0000 
         0.000  
  20471403.495   109623436.92808     -2554.136    20471406.590    85262685.97206
     -1986.555  
  22946445.666   122446637.09707      3538.898    22946452.890    95236304.84106
      2752.468  
  19276865.827   103045892.79208       370.957    19276872.088    80146835.06106
       288.523  
  19574663.464   104674524.60709      -704.043    19574667.783    81413534.12008
      -547.594  
  20802080.011   111277094.13808     -3653.026    20802087.428    86548883.31606
     -2841.246  
  21489192.409   114993003.90008      3276.504    21489196.541    89439025.68007
      2548.383  
 20 09 27 06 02 45.0000000  0 15G15G18G30G20G 5G29G27G13R10R 8R 2R 1
                                R24R23R17
  20051629.077   105372022.96949       656.750    20051628.481    82108067.93548
       511.754  
  20486240.945   107655924.65749       987.366    20486241.297    83887733.69948
       769.375  
  24299673.777   127695654.32244     -1672.503    24299677.514    99503097.33944
     -1303.250  
  22166590.049   116486219.23948      2799.015    22166589.874    90768480.09946
      2181.051  
  23231712.019   122083472.53047     -3116.473    23231712.557    95129978.80546
     -2428.429  
  23870071.314   125438067.35947     -3610.270    23870072.599    97743945.80746
     -2813.203  
  24600736.300   129277747.59247      2201.441    24600739.500   100735919.43945
      1715.410  
  20804598.398   109328901.08248     -1428.433    20804597.670    85191348.70147
     -1113.070  
  22908223.742   122113730.68406      2941.655           0.000           0.0000 
         0.000  
  20473789.505   109636213.37207     -2556.418    20473792.699    85272623.21906
     -1988.324  
  22943130.487   122428946.79306      3537.754    22943137.829    95222545.73306
      2751.585  
  19276520.492   103044046.46508       367.668    19276526.705    80145399.01106
       285.961  
  19575324.166   104678057.27109      -708.945    19575328.258    81416281.74108
      -551.406  
  20805495.958   111295367.52308     -3656.238    20805503.280    86563095.95006
     -2843.745  
  21486132.494   114976629.30008      3273.315    21486136.511    89426289.91107
      2545.918  
 20 09 27 06 02 50.0000000  0 15G15G18G30G20G 5G29G27G13R10R 8R 2R 1
                                R24R23R17
  20051005.862   105368747.67249       653.679    20051005.261    82105515.76648
       509.359  
  20485302.974   107650995.43149       984.656    20485303.271    83883892.73548
       767.262  
  24301265.967   127704021.65145     -1674.163    24301270.030    99509617.30144
     -1304.551  
  22163927.434   116472227.66548      2798.050    22163927.244    90757577.54246
      2180.293  
  23234677.567   122099056.80747     -3117.039    23234678.316    95142122.34445
     -2428.871  
  23873506.697   125456120.76747     -3610.793    23873508.117    97758013.33745
     -2813.617  
  24598642.878   129266746.33646      2199.691    24598646.103   100727347.01347
      1714.042  
  20805958.813   109336050.48948     -1431.094    20805958.163    85196919.66446
     -1115.141  
  22905466.192   122099031.51306      2938.687           0.000           0.0000 
         0.000  
  20476177.252   109648999.67807     -2557.867    20476180.444    85282568.09405
     -1989.461  
  22939816.517   122411262.71707      3536.573    22939823.875    95208791.43705
      2750.664  
  19276177.946   103042215.48708       365.035    19276183.947    80143974.93606
       283.918  
  19575989.339   104681614.06208      -713.289    19575993.548    81419048.14208
      -554.780  
  20808914.746   111313655.98708     -3658.690    20808922.307    86577320.29806
     -2845.651  
  21483075.411   114960270.45108      3270.648    21483079.576    89413566.37207
      2543.836  
 20 09 27 06 02 55.0000000  0 15G15G18G30G20G 5G29G27G13R10R 8R 2R 1
                                R24R23R17
  20050385.303   105365486.67749       650.488    20050384.722    82102974.73148
       506.874  
  20484367.294   107646078.83849       981.641    20484367.715    83880061.63148
       764.913  
  24302860.399   127712400.75744     -1677.390    24302864.597    99516146.47444
     -1307.062  
  22161265.579   116458239.36348      2797.089    22161265.328    90746677.59846
      2179.550  
  23237643.518   122114642.86247     -3117.789    23237644.265    95154267.34745
     -2429.449  
  23876942.648   125474176.46648     -3611.726    23876943.919    97772082.71446
     -2814.335  
  24596551.580   129255756.67746      2196.680    24596554.730   100718783.65946
      1711.699  
  20807321.717   109343212.78548     -1433.969    20807321.080    85202500.67347
     -1117.382  
  22902710.980   122084344.25006      2936.038           0.000           0.0000 
         0.000  
  20478566.243   109661792.61507     -2559.452    20478569.415    85292518.16705
     -1990.688  
  22936503.153   122393581.97606      3535.332    22936510.413    95195039.74706
      2749.702  
  19275837.869   103040397.01708       362.108    19275843.827    80142560.55106
       281.636  
  19576658.268   104685191.81508      -717.973    19576662.430    81421830.82808
      -558.426  
  20812335.966   111331956.48608     -3661.405    20812343.502    86591554.00806
     -2847.766  
  21480020.798   114943924.16508      3267.723    21480024.814    89400852.59307
      2541.558  
 20 09 27 06 03  0.0000000  0 15G15G18G30G20G 5G29G27G13R10R 8R 2R 1
                                R24R23R17
  20049767.982   105362242.35249       647.241    20049767.370    82100446.68448
       504.343  
  20483434.673   107641177.25649       979.020    20483435.065    83876242.21048
       762.866  
  24304457.834   127720794.05545     -1680.335    24304461.719    99522686.70344
     -1309.351  
  22158604.700   116444256.75948      2796.132    22158604.626    90735782.06146
      2178.805  
  23240610.410   122130233.08047     -3118.152    23240611.000    95166415.56745
     -2429.734  
  23880379.379   125492236.79847     -3612.335    23880380.754    97786155.69745
     -2814.812  
  24594462.935   129244780.80346      2193.969    24594466.267   100710231.03346
      1709.582  
  20808687.640   109350390.41448     -1436.944    20808686.955    85208093.64047
     -1119.699  
  22899958.352   122069671.31606      2933.429           0.000           0.0000 
         0.000  
  20480956.956   109674594.62107     -2561.242    20480960.109    85302475.29005
     -1992.078  
  22933190.969   122375906.68306      3534.894    22933198.207    95181292.33106
      2749.363  
  19275500.374   103038593.31908       359.323    19275506.364    80141157.67706
       279.468  
  19577331.672   104688792.96209      -722.394    19577335.877    81424631.71708
      -561.867  
  20815759.729   111350271.68308     -3664.324    20815767.319    86605799.15706
     -2850.034  
  21476968.776   114927592.89608      3265.144    21476972.941    89388150.49507
      2539.555  
 20 09 27 06 03  5.0000000  0 16G15G18G30G20G 5G29G27G24G13R10R 8R 2
                                R 1R24R23R17
  20049153.706   105359014.90449       643.480    20049153.215    82097931.78948
       501.413  
  20482504.711   107636290.89649       975.535    20482505.113    83872434.65248
       760.156  
  24306057.764   127729201.65244     -1683.288    24306061.867    99529238.07043
     -1311.647  
  22155945.155   116430280.00648      2794.515    22155944.941    90724891.09646
      2177.543  
  23243577.870   122145827.65547     -3119.449    23243578.632    95178567.18246
     -2430.737  
  23883817.248   125510302.04447     -3613.984    23883818.488    97800232.51946
     -2816.089  
  24592377.151   129233819.12446      2190.261    24592380.160   100701689.46446
      1706.694  
  24441999.083   128443571.19655      3830.930    24442004.722   100085923.11853
      2985.141  
  20810056.416   109357583.56848     -1440.276    20810055.744    85213698.69647
     -1122.293  
  22897208.419   122055012.93906      2929.901           0.000           0.0000 
         0.000  
  20483349.282   109687405.95007     -2563.565    20483352.539    85312439.64805
     -1993.891  
  22929879.768   122358237.41606      3532.710    22929887.002    95167549.60306
      2747.668  
  19275165.684   103036804.61208       356.019    19275171.788    80139766.46706
       276.897  
  19578009.551   104692417.70109      -727.586    19578013.653    81427450.95508
      -565.874  
  20819186.299   111368601.58608     -3667.761    20819193.741    86620055.73906
     -2852.707  
  21473919.724   114911276.89808      3261.387    21473923.977    89375460.28407
      2536.633  
 20 09 27 06 03 10.0000000  0 16G15G18G30G20G 5G29G27G24G13R10R 8R 2
                                R 1R24R23R17
  20048543.045   105355805.07549       639.628    20048542.438    82095430.63548
       498.413  
  20481577.980   107631420.51949       971.859    20481578.343    83868639.55648
       757.289  
  24307660.672   127737624.42745     -1686.887    24307664.398    99535801.26345
     -1314.461  
  22153286.560   116416309.90048      2792.835    22153286.468    90714005.28146
      2176.229  
  23246546.430   122161427.48347     -3120.593    23246547.047    95190722.84545
     -2431.645  
  23887255.888   125528372.90948     -3615.347    23887257.262    97814313.66046
     -2817.163  
  24590294.058   129222872.14347      2187.438    24590297.009   100693159.36846
      1704.495  
  24438354.052   128424416.58944      3829.801    24438359.460   100070997.44444
      2984.258  
  20811428.254   109364792.96948     -1444.160    20811427.723    85219316.41046
     -1125.324  
  22894461.678   122040370.04606      2926.816           0.000           0.0000 
         0.000  
  20485743.705   109700227.19407     -2565.922    20485746.807    85322411.71905
     -1995.722  
  22926569.834   122340574.69407      3530.801    22926576.904    95153811.90406
      2746.171  
  19274834.011   103035031.56908       352.265    19274840.114    80138387.44306
       273.983  
  19578691.894   104696066.77708      -732.940    19578696.252    81430289.12908
      -570.066  
  20822615.715   111386946.90008     -3671.315    20822623.277    86634324.30705
     -2855.472  
  21470873.714   114894976.92408      3257.895    21470877.846    89362782.52307
      2533.913  
 20 09 27 06 03 15.0000000  0 16G15G18G30G20G 5G29G27G24G13R10R 8R 2
                                R 1R24R23R17
  20047936.374   105352617.52849       636.452    20047935.791    82092946.83048
       495.933  
  20480655.049   107626570.76549       968.991    20480655.466    83864860.52948
       755.059  
  24309267.172   127746066.95545     -1689.491    24309270.694    99542379.89943
     -1316.487  
  22150630.455   116402351.09748      2791.754    22150630.158    90703128.29046
      2175.391  
  23249516.911   122177037.08946     -3121.887    23249517.589    95202886.18645
     -2432.645  
  23890696.594   125546453.99948     -3616.030    23890697.947    97828402.81746
     -2817.695  
  24588214.579   129211944.72147      2184.848    24588217.597   100684644.46446
      1702.477  
  24434710.253   128405268.73045      3829.629    24434715.681   100056077.05743
      2984.124  
  20812804.269   109372023.25948     -1446.995    20812803.618    85224950.40646
     -1127.534  
  22891718.512   122025747.23906      2924.062           0.000           0.0000 
         0.000  
  20488140.759   109713063.24507     -2567.535    20488143.901    85332395.31405
     -1996.976  
  22923262.109   122322923.47506      3530.147    22923269.261    95140083.20605
      2745.676  
  19274506.260   103033279.01808       349.569    19274512.311    80137024.36306
       271.886  
  19579379.875   104699745.03208      -737.387    19579383.879    81433149.99508
      -573.523  
  20826049.055   111405312.42108     -3673.960    20826056.440    86648608.59306
     -2857.527  
  21467831.600   114878697.64808      3254.987    21467835.599    89350120.86407
      2531.655  
 20 09 27 06 03 20.0000000  0 16G15G18G30G20G 5G29G27G24G13R10R 8R 2
                                R 1R24R23R17
  20047331.794   105349440.43949       634.437    20047331.380    82090471.17848
       494.366  
  20479733.833   107621729.92849       967.406    20479734.308    83861088.44948
       753.823  
  24310875.445   127754517.39345     -1690.585    24310878.683    99548964.59645
     -1317.344  
  22147973.989   116388391.83648      2791.960    22147973.609    90692250.95046
      2175.554  
  23252486.825   122192644.68448     -3121.496    23252487.499    95215047.93946
     -2432.336  
  23894137.097   125564533.52747     -3615.675    23894138.393    97842490.74446
     -2817.410  
  24586136.756   129201025.12447      2183.234    24586139.659   100676135.68446
      1701.223  
  24431065.699   128386116.21844      3830.948    24431071.209   100041153.05346
      2985.155  
  20814181.817   109379262.66448     -1448.597    20814181.208    85230591.50147
     -1128.777  
  22888976.859   122011132.59106      2922.015           0.000           0.0000 
         0.000  
  20490538.404   109725902.08707     -2567.852    20490541.481    85342381.08605
     -1997.219  
  22919954.168   122305271.76306      3530.852    22919961.364    95126354.08106
      2746.218  
  19274179.994   103031535.03608       347.882    19274185.958    80135667.93106
       270.570  
  19580070.858   104703440.30909      -740.750    19580075.125    81436024.09708
      -576.145  
  20829483.858   111423686.05108     -3675.328    20829491.345    86662899.18805
     -2858.593  
  21464791.210   114862427.28208      3253.249    21464795.246    89337466.14807
      2530.305  
 20 09 27 06 03 25.0000000  0 16G15G18G30G20G 5G29G27G24G13R10R 8R 2
                                R 1R24R23R17
  20046729.513   105346275.71349       631.500    20046729.166    82088005.15348
       492.073  
  20478814.721   107616899.77449       964.573    20478815.098    83857324.68848
       751.612  
  24312485.349   127762977.64944     -1693.188    24312488.756    99555557.04745
     -1319.366  
  22145317.878   116374433.91348      2790.710    22145317.573    90681374.67446
      2174.578  
  23255456.945   122208252.14747     -3122.043    23255457.571    95227209.63646
     -2432.758  
  23897577.621   125582613.32448     -3616.159    23897578.836    97856578.93945
     -2817.789  
  24584060.647   129190115.00547      2180.952    24584063.652   100667634.34745
      1699.449  
  24427420.388   128366960.82345      3831.070    24427425.900   100026226.77944
      2985.250  
  20815561.648   109386513.00848     -1451.684    20815561.001    85236241.11747
     -1131.183  
  22886237.167   121996528.08705      2919.628           0.000           0.0000 
         0.000  
  20492936.807   109738745.55207     -2569.516    20492939.852    85352370.46706
     -1998.511  
  22916646.619   122287621.13907      3529.355    22916653.520    95112625.86306
      2745.058  
