     2.11           OBSERVATION DATA    G                   RINEX VERSION / TYPE
LEICA GEO OFFICE 8.4                    29-9-20 09:58       PGM / RUN BY / DATE
                                                            OBSERVER / AGENCY
TARY                                                        MARKER NAME
TARY                                                        MARKER NUMBER
457569              LEICA GX1220        2.14                REC # / TYPE / VERS
                    LEIAX1202                               ANT # / TYPE
 -1173808.7423  3860805.5125  4923766.2475                  APPROX POSITION XYZ
        1.8130        0.0000        0.0000                  ANTENNA: DELTA H/E/N
L1PhaOff:   0.0648  L2PhaOff:   0.0622                      COMMENT
     1     1                                                WAVELENGTH FACT L1/2
     6    C1    L1    D1    P2    L2    D2                  # / TYPES OF OBSERV
  2020     9    28     9    16   55.0000000     GPS         TIME OF FIRST OBS
  2020     9    28    10    51   20.0000000     GPS         TIME OF LAST OBS
    18                                                      LEAP SECONDS
    11                                                      # OF SATELLITES
          C1    L1    D1    P2    L2    D2                  COMMENT
   G 1   986   986   986   985   985   985                  PRN / # OF OBS
   G 2     0     0     0     0     0     0                  PRN / # OF OBS
   G 3     0     0     0     0     0     0                  PRN / # OF OBS
   G 4     0     0     0     0     0     0                  PRN / # OF OBS
   G 5     0     0     0     0     0     0                  PRN / # OF OBS
   G 6     0     0     0     0     0     0                  PRN / # OF OBS
   G 7     0     0     0     0     0     0                  PRN / # OF OBS
   G 8     0     0     0     0     0     0                  PRN / # OF OBS
   G 9     0     0     0     0     0     0                  PRN / # OF OBS
   G10  1134  1134  1134  1134  1134  1134                  PRN / # OF OBS
   G11   641   641   641   641   641   641                  PRN / # OF OBS
   G12  1134  1134  1134  1134  1134  1134                  PRN / # OF OBS
   G13     0     0     0     0     0     0                  PRN / # OF OBS
   G14     0     0     0     0     0     0                  PRN / # OF OBS
   G15     0     0     0     0     0     0                  PRN / # OF OBS
   G16     0     0     0     0     0     0                  PRN / # OF OBS
   G17     0     0     0     0     0     0                  PRN / # OF OBS
   G18     0     0     0     0     0     0                  PRN / # OF OBS
   G19     0     0     0     0     0     0                  PRN / # OF OBS
   G20  1022  1022  1022  1022  1022  1022                  PRN / # OF OBS
   G21  1132  1132  1132  1132  1132  1132                  PRN / # OF OBS
   G22   393   393   393   393   393   393                  PRN / # OF OBS
   G23     0     0     0     0     0     0                  PRN / # OF OBS
   G24  1094  1094  1094  1094  1094  1094                  PRN / # OF OBS
   G25  1074  1074  1074  1073  1073  1073                  PRN / # OF OBS
   G26     0     0     0     0     0     0                  PRN / # OF OBS
   G27     0     0     0     0     0     0                  PRN / # OF OBS
   G28     0     0     0     0     0     0                  PRN / # OF OBS
   G29     0     0     0     0     0     0                  PRN / # OF OBS
   G30     0     0     0     0     0     0                  PRN / # OF OBS
   G31   865   865   865   865   865   865                  PRN / # OF OBS
   G32  1134  1134  1134  1134  1134  1134                  PRN / # OF OBS
                                                            END OF HEADER
 20 09 28 09 16 55.0000000  0  7G11G12G21G24G32G20G10
  23900117.515   125595967.18157       327.183    23900118.169    97866965.52054
       254.945  
  23561906.504   123818668.66757      2968.477    23561907.342    96482089.34555
      2313.093  
  23003982.065   120886759.41758        26.491    23003981.329    94197484.18456
        20.640  
  21380250.587   112354001.59858     -2243.738    21380253.106    87548599.17158
     -1748.371  
  21636907.916   113702752.06058      2293.827    21636910.419    88599581.80757
      1787.395  
  21090725.925   110832524.44958     -2525.175    21090725.949    86363025.61157
     -1967.672  
  20381117.695   107103536.37759        30.870    20381119.699    83457326.95258
        24.051  
 20 09 28 09 17  0.0000000  0  7G11G12G21G24G32G20G10
  23899808.208   125594341.17046       324.113    23899808.915    97865698.48845
       252.550  
  23559083.133   123803831.59747      2966.707    23559084.021    96470528.00745
      2311.714  
  23003958.444   120886635.44448        23.589    23003957.700    94197387.58346
        18.378  
  21382386.812   112365227.50548     -2246.354    21382389.209    87557346.62548
     -1750.410  
  21634726.212   113691287.50548      2292.340    21634728.880    88590648.39547
      1786.233  
  21093129.891   110845157.47148     -2527.648    21093129.970    86372869.51947
     -1969.597  
  20381089.920   107103390.51049        27.879    20381092.109    83457213.29048
        21.719  
 20 09 28 09 17  5.0000000  0  7G11G12G21G24G32G20G10
  23899501.844   125592732.77647       319.921    23899502.863    97864445.19645
       249.285  
  23556261.485   123789003.89347      2964.527    23556262.111    96458973.94545
      2310.020  
  23003937.503   120886525.90148        20.304    23003936.944    94197302.21446
        15.820  
  21384525.528   112376466.78348     -2249.315    21384528.011    87566104.50447
     -1752.719  
  21632546.015   113679830.48948      2290.562    21632548.569    88581720.85247
      1784.851  
  21095536.171   110857802.80848     -2530.405    21095536.417    86382723.02047
     -1971.749  
  20381065.001   107103259.74749        24.569    20381067.188    83457111.39748
        19.140  
 20 09 28 09 17 10.0000000  0  7G11G12G21G24G32G20G10
  23899199.202   125591141.72547       316.645    23899199.799    97863205.41744
       246.734  
  23553441.688   123774185.10247      2962.854    23553442.188    96447426.83246
      2308.715  
  23003919.429   120886430.39148        17.827    23003918.663    94197227.79745
        13.890  
  21386666.694   112387718.93848     -2251.547    21386669.249    87574872.42348
     -1754.457  
  21630367.142   113668380.59148      2289.355    21630369.718    88572798.85648
      1783.909  
  21097944.920   110870460.05848     -2532.538    21097944.818    86392585.80047
     -1973.409  
  20381042.935   107103143.69749        21.847    20381044.966    83457020.96648
        17.020  
 20 09 28 09 17 15.0000000  0  7G11G12G21G24G32G20G10
  23898899.645   125589566.10546       313.077    23898899.481    97861977.66444
       243.952  
  23550623.013   123759373.55147      2961.445    23550623.739    96435885.37945
      2307.617  
  23003903.634   120886347.19948        15.188    23003902.817    94197162.97046
        11.831  
  21388810.154   112398982.27148     -2253.922    21388812.673    87583649.04248
     -1756.304  
  21628189.414   113656936.05349      2288.352    21628192.094    88563881.03647
      1783.128  
  21100355.393   110883127.42848     -2534.632    21100355.407    86402456.47747
     -1975.042  
  20381023.338   107103040.59049        19.183    20381025.431    83456940.63048
        14.944  
 20 09 28 09 17 20.0000000  0  7G11G12G21G24G32G20G10
  23898603.147   125588007.65446       309.613    23898602.938    97860763.27844
       241.254  
  23547806.054   123744570.79947      2959.480    23547806.755    96424350.77045
      2306.085  
  23003890.337   120886277.88448        12.328    23003889.611    94197108.95946
         9.601  
  21390955.915   112410258.26148     -2256.565    21390958.308    87592435.52848
     -1758.366  
  21626012.821   113645498.48249      2286.663    21626015.444    88554968.64147
      1781.812  
  21102768.116   110895806.49548     -2537.055    21102768.183    86412336.26447
     -1976.929  
  20381006.578   107102952.01749        16.183    20381008.569    83456871.61348
        12.604  
 20 09 28 09 17 25.0000000  0  7G11G12G21G24G32G20G10
  23898309.810   125586466.87646       306.105    23898309.182    97859562.67944
       238.519  
  23544991.017   123729777.56047      2957.688    23544991.778    96412823.56646
      2304.688  
  23003880.047   120886223.15748         9.394    23003879.373    94197066.31546
         7.316  
  21393104.124   112421547.67448     -2259.250    21393106.604    87601232.47047
     -1760.457  
  21623837.740   113634068.57149      2285.265    21623840.506    88546062.23047
      1780.723  
  21105183.149   110908497.98548     -2539.526    21105183.184    86422225.72747
     -1978.854  
  20380992.499   107102878.71449        13.124    20380994.657    83456814.48848
        10.223  
 20 09 28 09 17 30.0000000  0  7G11G12G21G24G32G20G10
  23898019.966   125584943.17546       303.238    23898019.117    97858375.37845
       236.284  
  23542177.757   123714993.21547      2955.719    23542178.491    96401303.28345
      2303.151  
  23003872.258   120886182.28848         6.688    23003871.572    94197034.46645
         5.207  
  21395254.814   112432849.90748     -2261.792    21395257.332    87610039.40547
     -1762.438  
  21621664.002   113622645.62749      2283.854    21621666.778    88537161.23847
      1779.624  
  21107600.656   110921201.19548     -2541.819    21107600.628    86432124.32147
     -1980.640  
  20380981.288   107102819.92949        10.315    20380983.433    83456768.68548
         8.035  
 20 09 28 09 17 35.0000000  0  7G11G12G21G24G32G20G10
  23897733.061   125583435.82146       299.770    23897732.332    97857200.82445
       233.581  
  23539365.808   123700216.98147      2954.410    23539366.633    96389789.34745
      2302.133  
  23003866.895   120886154.57448         4.480    23003866.224    94197012.87946
         3.488  
  21397407.979   112444164.14648     -2263.809    21397410.292    87618855.69948
     -1764.011  
  21619491.402   113611228.94149      2282.886    21619494.279    88528265.12447
      1778.870  
  21110020.050   110933915.38648     -2543.972    21110020.035    86442031.48047
     -1982.320  
  20380972.703   107102774.99849         7.640    20380974.883    83456733.67748
         5.949  
 20 09 28 09 17 40.0000000  0  7G11G12G21G24G32G20G10
  23897449.467   125581945.43046       296.159    23897448.875    97856039.49045
       230.770  
  23536555.722   123685449.50147      2952.718    23536556.489    96378282.21846
      2300.816  
  23003864.210   120886140.68448         1.171    23003863.726    94197002.05746
         0.909  
  21399563.237   112455490.95048     -2266.734    21399565.658    87627681.77847
     -1766.288  
  21617320.340   113599819.15449      2281.104    21617323.016    88519374.38247
      1777.480  
  21112441.749   110946641.18948     -2546.473    21112441.619    86451947.68147
     -1984.270  
  20380967.009   107102744.54749         4.499    20380969.028    83456709.94848
         3.504  
 20 09 28 09 17 45.0000000  0  7G11G12G21G24G32G20G10
  23897169.237   125580472.93846       292.500    23897168.911    97854892.08344
       227.918  
  23533747.315   123670691.69147      2950.625    23533748.028    96366782.63246
      2299.184  
  23003864.419   120886141.43748        -1.535    23003863.761    94197002.63946
        -1.198  
  21401721.351   112466831.25548     -2269.289    21401723.730    87636518.38147
     -1768.280  
  21615150.618   113588417.12349      2279.688    21615153.198    88510489.68648
      1776.375  
  21114865.723   110959379.47448     -2548.777    21114865.641    86461873.61447
     -1986.063  
  20380964.151   107102729.43749         1.559    20380966.328    83456698.17448
         1.211  
 20 09 28 09 17 50.0000000  0  7G11G12G21G24G32G20G10
  23896892.347   125579017.15146       289.714    23896891.787    97853757.71144
       225.749  
  23530940.630   123655942.52447      2949.098    23530941.346    96355289.77045
      2297.995  
  23003867.066   120886155.78448        -4.301    23003866.463    94197013.82545
        -3.355  
  21403881.559   112478183.94648     -2271.534    21403884.014    87645364.63147
     -1770.030  
  21612982.036   113577021.80749      2278.402    21612984.841    88501610.22147
      1775.374  
  21117291.968   110972129.20048     -2551.062    21117291.854    86471808.45847
     -1987.844  
  20380963.948   107102728.61949        -1.226    20380966.096    83456697.53948
        -0.956  
 20 09 28 09 17 55.0000000  0  7G11G12G21G24G32G20G10
  23896618.459   125577577.76746       286.359    23896617.925    97852636.10444
       223.132  
  23528135.501   123641201.53547      2947.172    23528136.391    96343803.29246
      2296.496  
  23003872.333   120886183.27548        -6.934    23003871.820    94197035.23346
        -5.406  
  21406044.235   112489548.53948     -2274.276    21406046.730    87654220.15748
     -1772.168  
  21610814.792   113565632.76849      2277.104    21610817.475    88492735.65447
      1774.362  
  21119720.124   110984889.90148     -2553.292    21119720.012    86481751.85947
     -1989.581  
  20380966.406   107102741.65849        -4.066    20380968.539    83456707.69848
        -3.171  
 20 09 28 09 18  0.0000000  0  7G11G12G21G24G32G20G10
  23896347.933   125576155.14246       282.440    23896347.119    97851527.57544
       220.082  
  23525332.110   123626469.14647      2945.433    23525332.872    96332323.50746
      2295.140  
  23003880.116   120886224.29848        -9.566    23003879.628    94197067.20446
        -7.456  
  21408209.178   112500925.39548     -2276.555    21408211.650    87663085.23648
     -1773.940  
  21608648.875   113554250.32949      2275.796    21608651.569    88483866.22747
      1773.344  
  21122150.542   110997661.89548     -2555.492    21122150.654    86491704.05647
     -1991.297  
  20380971.565   107102768.89549        -6.847    20380973.647    83456728.92748
        -5.339  
 20 09 28 09 18  5.0000000  0  6G12G21G24G32G20G10
  23522530.049   123611744.74947      2944.866    23522530.801    96320849.96145
      2294.698  
  23003890.345   120886278.30147       -11.401    23003889.867    94197109.28945
        -8.887  
  21410376.409   112512314.01948     -2278.172    21410378.780    87671959.48747
     -1775.203  
  21606483.911   113542873.96148      2275.547    21606486.646    88475001.51047
      1773.148  
  21124583.072   111010444.61548     -2556.895    21124583.007    86501664.60447
     -1992.387  
  20380979.357   107102809.78049        -8.776    20380981.462    83456760.77248
        -6.843  
 20 09 28 09 18 10.0000000  0  6G12G21G24G32G20G10
  23519729.674   123597028.39747      2941.848    23519730.455    96309382.66846
      2292.344  
  23003903.051   120886345.35345       -15.203    23003902.475    94197161.53844
       -11.851  
  21412545.738   112523714.23348     -2281.979    21412548.084    87680842.76748
     -1778.167  
  21604320.265   113531503.70347      2272.652    21604322.949    88466141.59446
      1770.894  
  21127017.518   111023237.99549     -2560.358    21127017.543    86511633.46547
     -1995.089  
  20380989.832   107102864.29849       -12.883    20380991.960    83456803.25948
       -10.042  
 20 09 28 09 18 15.0000000  0  6G12G21G24G32G20G10
  23516931.390   123582323.47447      2939.992    23516932.249    96297924.29746
      2290.901  
  23003918.860   120886428.49648       -18.140    23003918.404    94197226.32946
       -14.140  
  21414717.930   112535129.58648     -2284.352    21414720.354    87689737.85148
     -1780.016  
  21602158.342   113520142.84849      2271.418    21602160.906    88457288.98447
      1769.934  
  21129454.825   111036045.56748     -2562.718    21129454.766    86521613.39447
     -1996.926  
  20381003.342   107102935.91649       -15.891    20381005.604    83456859.06748
       -12.386  
 20 09 28 09 18 20.0000000  0  7G11G12G21G24G32G20G10
  23895296.845   125570630.45355       269.175    23895297.801    97847249.98054
       209.745  
  23514134.826   123567627.30447      2938.461    23514135.567    96286472.72746
      2289.707  
  23003937.323   120886525.42247       -20.851    23003936.704    94197301.85844
       -16.250  
  21416892.605   112546557.32648     -2286.937    21416895.042    87698642.58447
     -1782.031  
  21599997.753   113508788.87548      2270.058    21600000.399    88448441.72347
      1768.875  
  21131894.213   111048864.54448     -2565.051    21131894.194    86531602.19247
     -1998.741  
  20381019.710   107103021.86749       -18.656    20381021.960    83456926.04348
       -14.539  
 20 09 28 09 18 25.0000000  0  6G12G21G24G32G20G10
  23511340.182   123552941.38247      2937.073    23511341.063    96275029.16845
      2288.624  
  23003958.618   120886637.45647       -23.094    23003958.224    94197389.13545
       -18.000  
  21419069.751   112557998.90448     -2289.020    21419072.428    87707558.08748
     -1783.659  
  21597838.856   113497443.04448      2269.175    21597841.376    88439600.82647
      1768.188  
  21134336.058   111061696.37348     -2567.022    21134336.069    86541601.04347
     -2000.280  
  20381039.113   107103123.64249       -21.305    20381041.251    83457005.34748
       -16.604  
 20 09 28 09 18 30.0000000  0  6G12G21G24G32G20G10
  23508546.650   123538261.89747      2934.305    23508547.542    96263590.57346
      2286.464  
  23003982.000   120886760.73647       -26.484    23003981.650    94197485.18546
       -20.640  
  21421248.987   112569450.42948     -2291.972    21421251.527    87716481.35048
     -1785.957  
  21595680.550   113486101.66648      2267.241    21595683.319    88430763.41247
      1766.679  
  21136779.622   111074537.23248     -2569.660    21136779.396    86551606.90347
     -2002.335  
  20381060.830   107103237.39549       -24.594    20381062.731    83457093.99348
       -19.167  
 20 09 28 09 18 35.0000000  0  6G12G21G24G32G20G10
  23505755.378   123523593.31947      2932.887    23505756.166    96252160.51146
      2285.363  
  23004008.497   120886899.82445       -29.675    23004007.967    94197593.57545
       -23.128  
  21423430.881   112580916.44948     -2294.515    21423433.309    87725415.94647
     -1787.934  
  21593524.115   113474769.24047      2266.000    21593526.726    88421932.95846
      1765.711  
  21139225.682   111087391.57848     -2572.109    21139225.624    86561623.26846
     -2004.246  
  20381085.583   107103367.68949       -27.593    20381087.661    83457195.54348
       -21.503  
 20 09 28 09 18 40.0000000  0  6G12G21G24G32G20G10
  23502965.431   123508932.92547      2931.008    23502966.305    96240736.84046
      2283.898  
  23004037.389   120887051.90245       -32.262    23004036.800    94197712.14044
       -25.141  
  21425615.059   112592394.22548     -2296.776    21425617.530    87734359.68347
     -1789.699  
  21591368.624   113463442.93348      2264.309    21591371.619    88413107.25246
      1764.395  
  21141673.857   111100256.73448     -2574.386    21141673.834    86571648.05746
     -2006.020  
  20381112.990   107103511.68449       -30.477    20381115.022    83457307.74048
       -23.749  
 20 09 28 09 18 45.0000000  0  5G12G24G32G20G10
  23500178.749   123494288.06247      2924.093    23500179.665    96229325.26546
      2278.512  
  21427802.670   112603890.95348     -2304.770    21427805.405    87743318.13647
     -1795.930  
  21589216.019   113452130.10648      2257.840    21589218.917    88404292.04646
      1759.351  
  21144125.435   111113139.98848     -2581.789    21144125.192    86581686.92946
     -2011.789  
  20381144.388   107103676.77749       -38.539    20381146.548    83457436.36648
       -30.034  
 20 09 28 09 18 50.0000000  0  5G12G24G32G20G10
  23497395.649   123479663.21047      2926.594    23497396.632    96217929.27245
      2280.461  
  21429995.023   112615411.06248     -2302.624    21429997.420    87752294.85248
     -1794.258  
  21587066.656   113440835.28447      2260.582    21587069.360    88395490.90645
      1761.488  
  21146581.379   111126045.74648     -2579.703    21146581.199    86591743.36746
     -2010.160  
  20381180.731   107103867.38049       -37.085    20381182.723    83457584.90248
       -28.902  
 20 09 28 09 18 55.0000000  0  6G12G21G24G32G20G10
  23494610.837   123465029.11147      2925.855    23494611.876    96206526.10245
      2279.883  
  23004144.470   120887598.17757       -39.645    23004145.244    94198129.20256
       -30.895  
  21432186.022   112626925.34248     -2304.073    21432188.708    87761267.02747
     -1795.387  
  21584915.208   113429529.03548      2260.687    21584917.856    88386680.85747
      1761.569  
  21149035.982   111138944.77248     -2580.862    21149035.763    86601794.55547
     -2011.065  
  20381216.319   107104054.24449       -38.698    20381218.387    83457730.50448
       -30.159  
 20 09 28 09 19  0.0000000  0  6G12G21G24G32G20G10
  23491824.161   123450385.40747      2926.491    23491825.161    96195115.43746
      2280.379  
  23004179.838   120887785.97648       -40.156    23004180.195    94198275.56946
       -31.293  
  21434375.907   112638433.44848     -2304.156    21434378.523    87770234.36247
     -1795.449  
  21582761.474   113418211.18049      2261.707    21582764.157    88377861.72848
      1762.366  
  21151489.263   111151836.63248     -2580.824    21151489.125    86611840.15947
     -2011.035  
  20381250.941   107104236.99749       -39.288    20381253.065    83457872.90948
       -30.616  
 20 09 28 09 19  5.0000000  0  7G11G12G21G24G32G20G10
  23893123.587   125559217.74656       237.823    23893125.090    97838356.53054
       185.316  
  23489042.282   123435766.97047      2921.257    23489043.347    96183724.46946
      2276.304  
  23004221.429   120888003.84948       -46.445    23004221.585    94198445.33646
       -36.194  
  21436571.306   112649970.19248     -2309.957    21436573.976    87779224.03247
     -1799.968  
  21580612.103   113406916.50648      2256.765    21580614.860    88369060.68448
      1758.516  
  21153947.877   111164756.20648     -2586.476    21153947.574    86621907.34547
     -2015.440  
  20381291.657   107104450.52449       -45.535    20381293.842    83458039.28948
       -35.483  
 20 09 28 09 19 10.0000000  0  7G11G12G21G24G32G20G10
  23892898.787   125558036.69646       234.765    23892898.928    97837436.21844
       182.929  
  23486263.433   123421163.77247      2920.272    23486264.483    96172345.36145
      2275.534  
  23004267.004   120888241.65748       -48.511    23004266.574    94198630.65146
       -37.805  
  21438770.140   112661525.58048     -2311.940    21438772.848    87788228.23047
     -1801.516  
  21578465.210   113395634.97349      2255.956    21578468.013    88360269.89048
      1757.886  
  21156409.718   111177693.42548     -2588.102    21156409.435    86631988.29047
     -2016.707  
  20381336.187   107104684.74949       -47.906    20381338.286    83458221.81348
       -37.331  
 20 09 28 09 19 15.0000000  0  7G11G12G21G24G32G20G10
  23892677.165   125556869.56846       232.351    23892676.719    97836526.77744
       181.051  
  23483485.730   123406566.62247      2918.831    23483486.560    96160970.94846
      2274.410  
  23004314.409   120888490.24648       -50.796    23004313.928    94198824.37246
       -39.586  
  21440970.901   112673090.34748     -2313.977    21440973.436    87797239.74048
     -1803.101  
  21576319.279   113384357.37349      2255.012    21576322.133    88351482.15347
      1757.147  
  21158873.275   111190639.12948     -2590.035    21158872.813    86642075.84747
     -2018.211  
  20381382.993   107104930.49749       -50.382    20381385.173    83458413.30548
       -39.262  
 20 09 28 09 19 20.0000000  0  7G11G12G21G24G32G20G10
  23892458.161   125555718.75346       228.563    23892458.157    97835630.05244
       178.098  
  23480709.529   123391977.87247      2917.004    23480710.622    96149603.10346
      2272.988  
  23004364.019   120888751.91748       -53.769    23004363.959    94199028.27246
       -41.902  
  21443173.748   112684666.82548     -2316.519    21443176.480    87806260.37047
     -1805.081  
  21574174.481   113373086.01149      2253.675    21574177.220    88342699.27947
      1756.108  
  21161338.725   111203595.59348     -2592.539    21161338.376    86652171.78947
     -2020.163  
  20381432.463   107105190.08649       -53.254    20381434.509    83458615.57848
       -41.499  
 20 09 28 09 19 25.0000000  0  7G11G12G21G24G32G20G10
  23892242.578   125554585.85746       224.547    23892242.508    97834747.25444
       174.969  
  23477935.425   123377399.23347      2914.499    23477936.372    96138243.13546
      2271.035  
  23004416.765   120889028.34848       -56.890    23004416.437    94199243.69246
       -44.332  
  21445379.258   112696256.57448     -2319.453    21445381.928    87815291.33947
     -1807.370  
  21572031.033   113361822.61549      2251.827    21572033.768    88333922.61147
      1754.668  
  21163806.653   111216564.48648     -2595.140    21163806.375    86662277.42647
     -2022.190  
  20381484.798   107105465.17449       -56.589    20381486.758    83458829.93548
       -44.098  
 20 09 28 09 19 30.0000000  0  7G11G12G21G24G32G20G10
  23892030.352   125553470.44546       221.285    23892030.496    97833878.13445
       172.425  
  23475163.024   123362830.16547      2912.828    23475163.859    96126890.62946
      2269.733  
  23004472.139   120889319.05748       -59.749    23004471.648    94199470.20646
       -46.563  
  21447587.252   112707859.16248     -2321.937    21447589.837    87824332.32647
     -1809.304  
  21569889.122   113350566.63749      2250.374    21569891.797    88325151.72147
      1753.535  
  21166276.857   111229545.33748     -2597.313    21166276.563    86672392.37247
     -2023.883  
  20381539.960   107105755.29949       -59.644    20381542.188    83459056.00748
       -46.480  
 20 09 28 09 19 35.0000000  0  7G11G12G21G24G32G20G10
  23891821.159   125552371.59946       218.012    23891821.150    97833021.86445
       169.875  
  23472392.151   123348269.87847      2911.069    23472393.001    96115544.95945
      2268.362  
  23004529.970   120889623.11848       -62.371    23004529.485    94199707.13646
       -48.605  
  21449797.352   112719473.75448     -2324.184    21449799.942    87833382.65047
     -1811.054  
  21567748.521   113339317.23449      2249.249    21567751.031    88316385.95347
      1752.660  
  21168749.153   111242537.18848     -2599.620    21168748.723    86682515.89047
     -2025.684  
  20381597.798   107106059.55449       -62.280    20381600.063    83459293.08848
       -48.535  
 20 09 28 09 19 40.0000000  0  7G11G12G21G24G32G20G10
  23891615.315   125551289.72446       214.668    23891615.304    97832178.86444
       167.269  
  23469623.225   123333718.70047      2909.546    23469624.151    96104206.38846
      2267.175  
  23004590.307   120889940.97148       -64.523    23004589.683    94199954.82146
       -50.281  
  21452009.898   112731100.66948     -2326.410    21452012.478    87842442.58247
     -1812.788  
  21565609.068   113328074.80449      2248.089    21565611.737    88307625.62247
      1751.754  
  21171223.557   111255540.48448     -2601.570    21171223.312    86692648.32747
     -2027.198  
  20381658.495   107106378.36249       -65.022    20381660.632    83459541.51548
       -50.671  
 20 09 28 09 19 45.0000000  0  7G11G12G21G24G32G20G10
  23891412.602   125550224.18146       210.805    23891412.308    97831348.56944
       164.261  
  23466855.814   123319175.98247      2907.453    23466856.776    96092874.42046
      2265.543  
  23004653.346   120890271.93248       -67.554    23004652.783    94200212.70847
       -52.644  
  21454224.723   112742739.21548     -2328.960    21454227.220    87851511.58347
     -1814.777  
  21563470.941   113316838.68549      2246.512    21563473.652    88298870.20847
      1750.526  
  21173700.044   111268554.51548     -2604.063    21173699.868    86702789.12747
     -2029.144  
  20381721.851   107106711.04849       -68.108    20381723.879    83459800.75148
       -53.074  
 20 09 28 09 19 50.0000000  0  7G11G12G21G24G32G20G10
  23891213.063   125549176.56446       207.410    23891212.989    97830532.23445
       161.612  
  23464090.458   123304643.47047      2905.555    23464091.365    96081550.39645
      2264.066  
  23004719.204   120890617.67248       -70.511    23004718.740    94200482.10246
       -54.949  
  21456442.027   112754391.03548     -2331.688    21456444.418    87860590.91947
     -1816.902  
  21561334.341   113305610.55649      2244.878    21561337.049    88290121.02047
      1749.253  
  21176178.833   111281580.98348     -2606.477    21176178.614    86712939.61547
     -2031.023  
  20381788.078   107107059.29549       -71.184    20381790.307    83460072.10848
       -55.473  
 20 09 28 09 19 55.0000000  0  7G11G12G21G24G32G20G10
  23891016.892   125548146.11746       204.383    23891017.093    97829729.29045
       159.257  
  23461326.770   123290120.28547      2903.706    23461327.720    96070233.63845
      2262.625  
  23004787.743   120890977.37948       -73.574    23004787.153    94200762.40046
       -57.331  
  21458661.605   112766055.24648     -2334.133    21458664.051    87869679.91247
     -1818.808  
  21559199.065   113294389.60249      2243.405    21559201.666    88281377.42147
      1748.105  
  21178660.078   111294619.04248     -2608.934    21178659.795    86723099.13847
     -2032.938  
  20381857.155   107107422.29549       -74.121    20381859.171    83460354.96748
       -57.762  
 20 09 28 09 20  0.0000000  0  7G11G12G21G24G32G20G10
  23890823.945   125547132.89346       201.238    23890824.085    97828939.76745
       156.804  
  23458564.772   123275606.57747      2902.050    23458565.936    96058924.28146
      2261.336  
  23004858.943   120891351.10148       -75.905    23004858.210    94201053.61546
       -59.151  
  21460883.662   112777732.08048     -2336.305    21460886.124    87878778.74447
     -1820.499  
  21557065.118   113283175.91849      2242.340    21557067.728    88272639.49147
      1747.273  
  21181143.210   111307668.77448     -2610.792    21181142.945    86733267.75447
     -2034.387  
  20381929.090   107107800.13149       -76.733    20381931.207    83460649.38248
       -59.796  
 20 09 28 09 20  5.0000000  0  7G11G12G21G24G32G20G10
  23890634.291   125546135.06546       197.714    23890634.386    97828162.26644
       154.062  
  23455804.363   123261100.56147      2900.101    23455805.370    96047620.91246
      2259.815  
  23004932.209   120891736.99148       -78.710    23004931.736    94201354.31646
       -61.336  
  21463107.635   112789419.69948     -2338.847    21463110.128    87887885.97947
     -1822.480  
  21554932.305   113271967.62749      2240.718    21554934.801    88263905.76147
      1746.011  
  21183628.457   111320728.30048     -2613.207    21183628.287    86743444.00047
     -2036.270  
  20382003.305   107108190.94649       -79.761    20382005.440    83460953.91448
       -62.155  
 20 09 28 09 20 10.0000000  0  7G11G12G21G24G32G20G10
  23890447.767   125545155.22046       194.065    23890447.910    97827398.73845
       151.219  
  23453045.901   123246604.77747      2898.102    23453047.029    96036325.50146
      2258.258  
  23005008.532   120892137.60548       -81.550    23005007.958    94201666.46646
       -63.550  
  21465334.257   112801120.42648     -2341.382    21465336.817    87897003.43047
     -1824.457  
  21552801.016   113260767.31949      2239.238    21552803.575    88255178.24748
      1744.859  
  21186115.984   111333800.21848     -2615.679    21186115.614    86753629.90747
     -2038.194  
  20382080.762   107108597.29849       -82.793    20382082.851    83461270.55548
       -64.516  
 20 09 28 09 20 15.0000000  0  7G11G12G21G24G32G20G10
  23890264.568   125544192.22046       191.214    23890264.811    97826648.35545
       148.995  
  23450289.318   123232118.14747      2896.280    23450290.411    96025037.23646
      2256.839  
  23005087.283   120892551.88048       -84.202    23005086.910    94201989.29146
       -65.616  
  21467563.189   112812833.38748     -2343.729    21467565.742    87906130.41147
     -1826.285  
  21550670.859   113249573.89149      2238.120    21550673.560    88246456.09948
      1743.987  
  21188605.583   111346883.40048     -2617.729    21188605.350    86763824.58647
     -2039.792  
  20382160.896   107109018.12549       -85.602    20382162.961    83461598.47048
       -66.707  
 20 09 28 09 20 20.0000000  0  7G11G12G21G24G32G20G10
  23890084.500   125543246.46046       187.586    23890084.830    97825911.39445
       146.167  
  23447534.427   123217641.03547      2894.191    23447535.455    96013756.36946
      2255.211  
  23005168.933   120892980.17448       -86.815    23005168.507    94202323.01146
       -67.651  
  21469794.392   112824558.87548     -2346.296    21469797.089    87915267.15747
     -1828.284  
  21548542.245   113238387.76049      2236.444    21548544.782    88237739.63948
      1742.679  
  21191097.499   111359978.25548     -2620.093    21191097.271    86774028.36547
     -2041.633  
  20382243.680   107109453.81049       -88.617    20382245.741    83461937.97048
       -69.054  
 20 09 28 09 20 25.0000000  0  7G11G12G21G24G32G20G10
  23889907.732   125542317.53746       183.921    23889908.124    97825187.56245
       143.312  
  23444781.257   123203173.02847      2892.496    23444782.184    96002482.62446
      2253.890  
  23005253.051   120893422.12248       -89.805    23005252.491    94202667.41046
       -69.979  
  21472028.068   112836296.45648     -2348.894    21472030.638    87924413.32147
     -1830.313  
  21546414.957   113227208.47449      2235.112    21546417.458    88229028.51047
      1741.645  
  21193591.494   111373084.34948     -2622.531    21193591.161    86784240.89947
     -2043.534  
  20382329.304   107109903.89549       -91.605    20382331.441    83462288.68048
       -71.382  
 20 09 28 09 20 30.0000000  0  7G11G12G21G24G32G20G10
  23889734.176   125541405.64646       181.093    23889734.575    97824477.00045
       141.108  
  23442029.765   123188714.43147      2890.620    23442030.879    95991216.20646
      2252.433  
  23005339.649   120893877.88448       -92.441    23005339.225    94203022.54146
       -72.034  
  21474264.051   112848046.37548     -2351.233    21474266.618    87933569.09747
     -1832.132  
  21544289.017   113216036.27149      2233.628    21544291.345    88220322.89848
      1740.487  
  21196087.590   111386201.86348     -2624.688    21196087.478    86794462.33547
     -2045.214  
  20382417.809   107110368.64749       -94.324    20382419.842    83462650.82248
       -73.504  
 20 09 28 09 20 35.0000000  0  7G11G12G21G24G32G20G10
  23889563.797   125540510.77046       176.874    23889564.197    97823779.70845
       137.819  
  23439280.229   123174265.17947      2888.738    23439281.324    95979957.05446
      2250.960  
  23005429.083   120894347.48748       -95.452    23005428.617    94203388.46146
       -74.383  
  21476502.290   112859808.52748     -2353.909    21476504.819    87942734.40848
     -1834.219  
  21542164.384   113204871.12849      2232.215    21542166.728    88211622.79348
      1739.386  
  21198585.950   111399330.73948     -2627.102    21198585.756    86804692.61547
     -2047.094  
  20382509.150   107110848.02249       -97.453    20382511.181    83463024.36948
       -75.941  
 20 09 28 09 20 40.0000000  0  7G11G12G21G24G32G20G10
  23889396.862   125539633.01846       173.882    23889397.283    97823095.75345
       135.488  
  23436532.438   123159825.47047      2887.714    23436533.422    95968705.35245
      2250.164  
  23005521.007   120894830.98848       -97.960    23005520.643    94203765.23146
       -76.335  
  21478742.816   112871582.97348     -2356.023    21478745.475    87951909.30247
     -1835.867  
  21540041.086   113193713.18249      2231.090    21540043.572    88202928.29147
      1738.508  
  21201086.593   111412471.14248     -2629.031    21201086.252    86814931.88447
     -2048.598  
  20382603.159   107111342.16849      -100.098    20382605.199    83463409.41948
       -78.000  
 20 09 28 09 20 45.0000000  0  7G11G12G21G24G32G20G10
  23889232.793   125538771.01747       170.288    23889233.448    97822424.06244
       132.691  
  23433786.165   123145393.89647      2885.405    23433787.012    95957459.98146
      2248.366  
  23005615.593   120895327.04148      -100.746    23005614.878    94204151.76246
       -78.507  
  21480985.618   112883368.41848     -2358.358    21480988.065    87961092.77047
     -1837.687  
  21537918.927   113182561.03849      2229.597    21537921.375    88194238.31247
      1737.344  
  21203588.964   111425621.66048     -2631.331    21203588.963    86825179.03647
     -2050.390  
  20382699.645   107111849.67449      -103.070    20382701.665    83463804.87248
       -80.315  
 20 09 28 09 20 50.0000000  0  7G11G12G21G24G32G20G10
  23889072.188   125537927.12846       167.222    23889072.724    97821766.45544
       130.301  
  23431041.960   123130972.81547      2883.320    23431042.763    95946222.77045
      2246.738  
  23005712.808   120895838.03648      -103.789    23005712.065    94204549.94646
       -80.879  
  21483230.900   112895167.20148     -2361.063    21483233.336    87970286.62447
     -1839.793  
  21535798.279   113171417.08149      2228.046    21535800.644    88185554.71248
      1736.137  
  21206093.810   111438784.68348     -2634.035    21206093.587    86835435.92947
     -2052.499  
  20382799.179   107112372.94549      -106.265    20382801.303    83464212.62248
       -82.808  
 20 09 28 09 20 55.0000000  0  7G11G12G21G24G32G20G10
  23888914.608   125537099.85146       163.566    23888915.251    97821121.85145
       127.452  
  23428299.456   123116560.73647      2881.843    23428300.238    95934992.59045
      2245.590  
  23005812.485   120896362.37548      -106.160    23005811.940    94204958.51047
       -82.726  
  21485478.291   112906977.72648     -2363.309    21485480.796    87979489.62747
     -1841.543  
  21533678.786   113160279.75649      2226.722    21533681.374    88176876.27847
      1735.104  
  21208600.745   111451958.71948     -2636.019    21208600.650    86845701.40247
     -2054.043  
  20382901.547   107112910.42549      -109.008    20382903.627    83464631.43348
       -84.944  
 20 09 28 09 21  0.0000000  0  7G11G12G21G24G32G20G10
  23888760.670   125536290.11946       160.480    23888761.204    97820490.89845
       125.046  
  23425558.830   123102158.61647      2879.440    23425559.671    95923770.17546
      2243.718  
  23005915.040   120896901.05648      -108.836    23005914.504    94205378.27346
       -84.808  
  21487728.144   112918800.97548     -2365.784    21487730.671    87988702.55247
     -1843.473  
  21531561.004   113149150.05449      2225.327    21531563.326    88168203.78747
      1734.019  
  21211109.944   111465144.61748     -2638.280    21211109.904    86855976.12847
     -2055.809  
  20383006.788   107113463.06349      -111.883    20383008.882    83465062.06048
       -87.184  
 20 09 28 09 21  5.0000000  0  7G11G12G21G24G32G20G10
  23888609.615   125535496.41446       156.679    23888610.371    97819872.41744
       122.085  
  23422819.728   123087764.97447      2877.918    23422820.633    95912554.37046
      2242.531  
  23006019.911   120897452.59048      -111.949    23006019.547    94205808.03546
       -87.238  
  21489980.284   112930635.39448     -2368.065    21489982.787    87997924.18247
     -1845.250  
  21529444.169   113138026.44349      2224.069    21529446.756    88159536.04048
      1733.038  
  21213621.064   111478340.85648     -2640.210    21213620.865    86866258.90547
     -2057.309  
  20383114.494   107114029.37849      -114.711    20383116.580    83465503.34948
       -89.386  
 20 09 28 09 21 10.0000000  0  7G11G12G21G24G32G20G10
  23888461.965   125534720.19846       153.262    23888462.667    97819267.59644
       119.421  
  23420082.707   123073381.33147      2875.453    23420083.544    95901346.35246
      2240.608  
  23006127.605   120898018.43348      -114.792    23006127.010    94206248.95346
       -89.453  
  21492234.702   112942482.59448     -2370.770    21492237.087    88007155.76047
     -1847.354  
  21527328.871   113126910.44849      2222.300    21527331.386    88150874.23447
      1731.660  
  21216134.449   111491548.97148     -2643.062    21216134.291    86876550.93147
     -2059.530  
  20383225.055   107114610.87749      -117.926    20383227.205    83465956.46448
       -91.895  
 20 09 28 09 21 15.0000000  0  7G11G12G21G24G32G20G10
  23888317.588   125533961.11546       150.140    23888318.281    97818676.10745
       116.987  
  23417347.418   123059007.26447      2874.108    23417348.148    95890145.79846
      2239.565  
  23006237.977   120898598.16348      -117.180    23006237.404    94206700.68446
       -91.312  
  21494491.611   112954342.10548     -2372.992    21494493.824    88016396.93747
     -1849.089  
  21525214.910   113115801.63449      2221.289    21525217.501    88142218.00947
      1730.871  
  21218650.154   111504768.49848     -2644.878    21218649.920    86886851.85847
     -2060.948  
  20383338.652   107115207.11549      -120.492    20383340.773    83466421.06648
       -93.895  
 20 09 28 09 21 20.0000000  0  7G11G12G21G24G32G20G10
  23888176.385   125533219.09146       146.464    23888176.924    97818097.89844
       114.125  
  23414613.773   123044642.76447      2871.688    23414614.708    95878952.69646
      2237.675  
  23006350.819   120899191.71348      -120.137    23006350.515    94207163.20046
       -93.617  
  21496750.583   112966213.77248     -2375.668    21496753.004    88025647.58847
     -1851.171  
  21523102.273   113104699.93449      2219.629    21523104.843    88133567.33948
      1729.578  
  21221167.952   111517999.39648     -2647.309    21221167.737    86897161.64547
     -2062.840  
  20383454.943   107115818.04249      -123.663    20383457.021    83466897.11548
       -96.363  
 20 09 28 09 21 25.0000000  0  7G11G12G21G24G32G20G10
  23888038.424   125532494.13046       143.058    23888038.952    97817532.99145
       111.472  
  23411882.068   123030287.87147      2870.012    23411883.191    95867767.08946
      2236.370  
  23006466.520   120899799.16248      -122.979    23006466.018    94207636.53946
       -95.831  
  21499012.022   112978097.52648     -2377.909    21499014.360    88034907.65247
     -1852.921  
  21520991.160   113093605.42849      2218.140    21520993.653    88124922.27648
      1728.417  
  21223687.841   111531241.72248     -2649.504    21223687.736    86907480.33947
     -2064.551  
  20383573.883   107116443.69849      -126.559    20383575.956    83467384.63548
       -98.620  
 20 09 28 09 21 30.0000000  0  7G11G12G21G24G32G20G10
  23887903.527   125531785.71147       139.980    23887904.180    97816980.99444
       109.074  
  23409152.065   123015941.98647      2868.312    23409153.148    95856588.49146
      2235.047  
  23006584.499   120900419.95848      -125.527    23006584.228    94208120.27546
       -97.816  
  21501275.750   112989993.02948     -2380.168    21501277.939    88044176.88147
     -1854.680  
  21518881.191   113082517.56149      2216.870    21518883.679    88116282.37947
      1727.430  
  21226209.796   111544494.90448     -2651.573    21226209.656    86917807.49347
     -2066.164  
  20383695.675   107117083.56849      -129.281    20383697.804    83467883.23948
      -100.742  
 20 09 28 09 21 35.0000000  0  7G11G12G21G24G32G20G10
  23887772.034   125531094.39847       136.195    23887772.785    97816442.30044
       106.121  
  23406423.964   123001605.74847      2866.089    23406425.051    95845417.41945
      2233.316  
  23006705.334   120901054.60848      -128.410    23006704.888    94208614.79646
      -100.063  
  21503541.590   113001900.78848     -2382.835    21503543.978    88053455.65147
     -1856.757  
  21516772.552   113071436.86649      2215.359    21516775.171    88107648.07847
      1726.249  
  21228734.046   111557759.45648     -2654.140    21228733.830    86928143.50047
     -2068.163  
  20383820.315   107117738.17849      -132.585    20383822.357    83468393.32448
      -103.315  
 20 09 28 09 21 40.0000000  0  7G11G12G21G24G32G20G10
  23887643.782   125530420.58346       133.113    23887644.535    97815917.23245
       103.722  
  23403697.762   122987279.61747      2864.038    23403698.890    95834254.21446
      2231.715  
  23006828.825   120901703.58948      -130.895    23006828.424    94209120.50146
      -101.999  
  21505810.087   113013821.16148     -2385.304    21505812.442    88062744.25547
     -1858.683  
  21514665.431   113060363.81149      2213.984    21514667.886    88099019.72448
      1725.179  
  21231260.392   111571035.84248     -2656.387    21231260.209    86938488.72647
     -2069.913  
  20383947.629   107118407.96749      -135.297    20383949.829    83468915.23648
      -105.430  
 20 09 28 09 21 45.0000000  0  7G11G12G21G24G32G20G10
  23887518.786   125529763.44546       129.808    23887519.361    97815405.19444
       101.144  
  23400973.294   122972962.69047      2862.258    23400974.483    95823098.19045
      2230.331  
  23006954.992   120902366.03648      -133.559    23006954.446    94209636.69646
      -104.073  
  21508080.663   113025753.18448     -2387.453    21508082.886    88072041.93647
     -1860.355  
  21512559.651   113049297.51949      2212.632    21512562.074    88090396.64948
      1724.124  
  21233789.023   111584323.16848     -2658.554    21233788.809    86948842.48247
     -2071.605  
  20384078.000   107119092.10449      -138.172    20384080.001    83469448.33248
      -107.667  
 20 09 28 09 21 50.0000000  0  7G11G12G21G24G32G20G10
  23887396.738   125529122.89346       126.331    23887397.414    97814906.06344
        98.437  
  23398250.501   122958654.94047      2860.538    23398251.693    95811949.32346
      2228.991  
  23007083.423   120903041.85248      -136.776    23007083.166    94210163.31346
      -106.582  
  21510353.361   113037696.94948     -2390.109    21510355.777    88081348.76547
     -1862.425  
  21510455.013   113038237.94349      2211.062    21510457.476    88081778.80048
      1722.901  
  21236319.546   111597621.31348     -2660.901    21236319.352    86959204.66547
     -2073.434  
  20384210.838   107119790.51349      -141.405    20384212.859    83469992.55048
      -110.190  
 20 09 28 09 21 55.0000000  0  8G11G12G25G21G24G32G20G10
  23887279.881   125528508.92746       121.812    23887280.442    97814427.67444
        94.917  
  23395531.574   122944366.41647      2857.270    23395532.652    95800815.43046
      2226.445  
  24572653.022   129130163.06415      3696.109           0.000           0.0000 
         0.000  
  23007216.616   120903741.00648      -140.488    23007216.241    94210708.10946
      -109.472  
  21512630.411   113049662.42648     -2393.444    21512632.778    88090672.51447
     -1865.027  
  21508353.774   113027195.04749      2208.566    21508356.038    88073173.94948
      1720.957  
  21238854.070   111610940.32548     -2664.305    21238854.019    86969583.10747
     -2076.086  
  20384348.410   107120513.14849      -145.276    20384350.341    83470555.64148
      -113.206  
 20 09 28 09 22  0.0000000  0  8G11G12G25G21G24G32G20G10
  23887164.368   125527901.65547       120.358    23887164.939    97813954.46044
        93.785  
  23392812.442   122930077.18547      2857.816    23392813.333    95789680.99046
      2226.870  
  24569135.408   129111676.59545      3698.168    24569141.202   100606513.46956
      2881.688  
  23007350.193   120904443.64348      -141.215    23007349.748    94211255.61046
      -110.039  
  21514907.678   113061629.60648     -2393.867    21514910.040    88099997.58747
     -1865.354  
  21506251.596   113016148.96349      2209.147    21506254.115    88064566.61548
      1721.410  
  21241388.771   111624260.26648     -2664.276    21241388.665    86979962.27847
     -2076.063  
  20384486.761   107121240.15449      -146.089    20384488.807    83471122.13948
      -113.839  
 20 09 28 09 22  5.0000000  0  8G11G12G25G21G24G32G20G10
  23887051.690   125527309.43446       116.496    23887052.369    97813493.00344
        90.773  
  23390094.626   122915795.68347      2855.660    23390095.718    95778552.56045
      2225.187  
  24565617.556   129093189.43745      3697.094    24565620.900   100592107.92145
      2880.852  
  23007486.237   120905158.15548      -144.644    23007485.710    94211812.38346
      -112.714  
  21517186.826   113073606.73548     -2396.827    21517189.250    88109330.41547
     -1867.659  
  21504150.767   113005108.09749      2207.199    21504153.171    88055963.34848
      1719.891  
  21243925.192   111637589.56148     -2667.249    21243925.030    86990348.73847
     -2078.379  
  20384627.383   107121979.94549      -149.788    20384629.479    83471698.60448
      -116.723  
 20 09 28 09 22 10.0000000  0  8G11G12G25G21G24G32G20G10
  23886942.433   125526735.34646       113.147    23886943.064    97813045.66645
        88.164  
  23387379.048   122901525.00847      2853.211    23387380.056    95767432.59745
      2223.284  
  24562099.893   129074704.59045      3696.793    24562103.973   100577704.16445
      2880.616  
  23007624.952   120905887.54648      -147.085    23007624.356    94212380.73846
      -114.617  
  21519468.666   113085597.10748     -2399.098    21519470.921    88118673.56747
     -1869.429  
  21502051.248   112994075.45649      2206.082    21502053.698    88047366.48347
      1719.022  
  21246464.082   111650931.24048     -2669.254    21246463.850    87000744.84447
     -2079.940  
  20384771.247   107122735.51549      -152.422    20384773.327    83472287.35648
      -118.772  
 20 09 28 09 22 15.0000000  0  8G11G12G25G21G24G32G20G10
  23886836.593   125526179.27646       110.086    23886837.390    97812612.35644
        85.777  
  23384665.185   122887265.00047      2850.905    23384666.353    95756320.93946
      2221.483  
  24558582.517   129056221.93445      3696.604    24558586.583   100563302.07045
      2880.468  
  23007766.540   120906631.75248      -150.265    23007765.943    94212960.64046
      -117.093  
  21521752.757   113097600.55048     -2401.952    21521755.017    88128026.90347
     -1871.656  
  21499953.450   112983051.01349      2204.105    21499955.932    88038776.01448
      1717.479  
  21249005.287   111664285.23948     -2672.008    21249005.123    87011150.55647
     -2082.085  
  20384917.951   107123506.82449      -155.831    20384920.118    83472888.37648
      -121.429  
 20 09 28 09 22 20.0000000  0  8G11G12G25G21G24G32G20G10
  23886733.762   125525639.89846       106.281    23886734.757    97812192.06144
        82.812  
  23381953.436   122873014.34947      2849.625    23381954.596    95745216.55846
      2220.488  
  24555065.219   129037740.25145      3696.206    24555070.424   100548900.79844
      2880.159  
  23007910.795   120907389.41348      -152.746    23007910.257    94213551.01946
      -119.027  
  21524039.151   113109615.75848     -2403.987    21524041.572    88137389.40247
     -1873.241  
  21497856.786   112972033.38049      2202.969    21497859.149    88030190.84948
      1716.598  
  21251548.590   111677650.13648     -2674.004    21251548.370    87021564.76047
     -2083.645  
  20385067.512   107124292.49349      -158.422    20385069.564    83473500.58648
      -123.449  
 20 09 28 09 22 25.0000000  0  8G11G12G25G21G24G32G20G10
  23886635.177   125525121.51646       102.258    23886636.214    97811788.13644
        79.679  
  23379244.197   122858777.45447      2846.772    23379245.301    95734122.88846
      2218.262  
  24551549.236   129019263.88945      3694.805    24551554.043   100534503.68146
      2879.070  
  23008058.263   120908164.92348      -156.293    23008057.721    94214155.32646
      -121.788  
  21526328.778   113121647.04948     -2407.140    21526331.036    88146764.43647
     -1875.695  
  21495762.226   112961026.92249      2200.992    21495764.805    88021614.39248
      1715.054  
  21254094.715   111691030.29848     -2676.788    21254094.492    87031990.86147
     -2085.812  
  20385220.509   107125096.90249      -162.016    20385222.700    83474127.40048
      -126.249  
 20 09 28 09 22 30.0000000  0  8G11G12G25G21G24G32G20G10
  23886539.105   125524616.78146        99.843    23886539.982    97811394.83344
        77.796  
  23376536.144   122844546.91247      2845.241    23376537.409    95723034.17845
      2217.074  
  24548032.818   129000785.33145      3695.640    24548037.754   100520104.81645
      2879.715  
  23008207.820   120908950.85148      -158.145    23008207.155    94214767.73646
      -123.233  
  21528619.721   113133686.88148     -2408.792    21528622.223    88156146.12247
     -1876.983  
  21493668.588   112950024.24749      2200.145    21493670.953    88013040.88647
      1714.395  
  21256642.347   111704418.35348     -2678.465    21256642.344    87042423.10547
     -2087.117  
  20385375.784   107125912.65849      -164.175    20385378.024    83474763.05248
      -127.934  
 20 09 28 09 22 35.0000000  0  8G11G12G25G21G24G32G20G10
  23886446.414   125524129.37346        95.863    23886447.285    97811015.03643
        74.694  
  23373830.187   122830326.42147      2842.644    23373831.302    95711953.30946
      2215.047  
  24544516.670   128982308.37945      3694.792    24544521.577   100505707.22045
      2879.059  
  23008360.027   120909750.85748      -161.242    23008359.545    94215391.12046
      -125.644  
  21530913.325   113145739.03648     -2411.815    21530915.580    88165537.41047
     -1879.339  
  21491576.292   112939029.03349      2198.320    21491578.801    88004473.18648
      1712.972  
  21259192.096   111717817.87548     -2680.984    21259192.141    87052864.28947
     -2089.082  
  20385533.908   107126743.41949      -167.535    20385536.029    83475410.39848
      -130.550  
 20 09 28 09 22 40.0000000  0  8G11G12G25G21G24G32G20G10
  23886356.815   125523658.34046        92.687    23886357.297    97810647.98545
        72.223  
  23371125.865   122816115.04847      2841.504    23371126.932    95700879.55245
      2214.159  
  24541000.603   128963832.10345      3695.444    24541006.217   100491310.16145
      2879.569  
  23008514.912   120910564.06548      -164.104    23008514.133    94216024.79145
      -127.879  
  21533208.840   113157802.61048     -2413.839    21533211.164    88174937.59847
     -1880.918  
  21489485.162   112928040.38349      2196.948    21489487.631    87995910.60148
      1711.906  
  21261744.157   111731228.01448     -2683.258    21261743.889    87063313.73647
     -2090.851  
  20385694.694   107127588.29349      -170.496    20385696.727    83476068.74448
      -132.855  
 20 09 28 09 22 45.0000000  0  8G11G12G25G21G24G32G20G10
  23886270.598   125523205.58046        88.445    23886271.396    97810295.17444
        68.913  
  23368423.490   122801914.75147      2839.190    23368424.769    95689814.39946
      2212.359  
  24537484.982   128945358.48545      3694.676    24537490.534   100476915.14944
      2878.965  
  23008672.473   120911392.36948      -166.870    23008671.905    94216670.21346
      -130.030  
  21535507.013   113169879.40548     -2416.503    21535509.417    88184348.09147
     -1882.991  
  21487395.744   112917060.20249      2195.410    21487398.166    87987354.62248
      1710.706  
  21264298.274   111744650.67748     -2685.632    21264298.090    87073772.95047
     -2092.703  
  20385858.539   107128449.18049      -173.695    20385860.602    83476739.56348
      -135.351  
 20 09 28 09 22 50.0000000  0  8G11G12G25G21G24G32G20G10
  23886187.453   125522768.80546        85.495    23886188.127    97809954.85845
        66.616  
  23365723.069   122787723.25647      2837.331    23365724.279    95678756.12546
      2210.909  
  24533969.557   128926885.14545      3694.695    24533975.137   100462520.34345
      2878.979  
  23008832.493   120912233.43748      -169.348    23008831.840    94217325.58946
      -131.960  
  21537807.271   113181967.12548     -2418.684    21537809.648    88193767.08947
     -1884.691  
  21485307.452   112906086.18249      2194.136    21485309.918    87978803.44048
      1709.714  
  21266854.509   111758083.53348     -2687.612    21266854.506    87084240.11147
     -2094.245  
  20386024.855   107129323.77049      -176.250    20386027.153    83477421.06348
      -137.339  
 20 09 28 09 22 55.0000000  0  8G11G12G25G21G24G32G20G10
  23886107.583   125522348.89847        82.457    23886108.213    97809627.65444
        64.249  
  23363024.355   122773541.42047      2835.284    23363025.479    95667705.36346
      2209.313  
  24530454.541   128908413.07745      3694.492    24530459.737   100448126.55744
      2878.823  
  23008995.197   120913088.16748      -172.270    23008994.534    94217991.60946
      -134.238  
  21540109.625   113194066.66748     -2421.020    21540112.061    88203195.30547
     -1886.512  
  21483220.492   112895119.19749      2192.698    21483222.887    87970257.74248
      1708.593  
  21269412.812   111771527.47548     -2689.844    21269412.626    87094715.90147
     -2095.983  
  20386194.014   107130212.95649      -179.309    20386196.154    83478113.93648
      -139.723  
 20 09 28 09 23  0.0000000  0  8G11G12G25G21G24G32G20G10
  23886031.111   125521946.06946        78.612    23886031.416    97809313.74644
        61.254  
  23360327.495   122759369.44947      2833.319    23360328.623    95656662.31346
      2207.785  
  24526939.587   128889942.40145      3693.273    24526944.850   100433733.83745
      2877.874  
  23009160.354   120913956.72948      -175.324    23009159.851    94218668.42846
      -136.620  
  21542414.456   113206178.26548     -2423.645    21542416.669    88212632.91347
     -1888.558  
  21481134.863   112884159.42249      2191.093    21481137.336    87961717.66548
      1707.343  
  21271973.213   111784982.63048     -2692.367    21271973.178    87105200.43547
     -2097.952  
  20386366.036   107131116.90849      -182.409    20386368.323    83478818.31648
      -142.141  
 20 09 28 09 23  5.0000000  0  8G11G12G25G21G24G32G20G10
  23885957.679   125521560.52346        75.140    23885958.152    97809013.33844
        58.546  
  23357632.553   122745207.65547      2831.374    23357633.724    95645627.18446
      2206.266  
  24523425.140   128871473.33045      3693.605    24523430.295   100419342.35645
      2878.133  
  23009328.388   120914839.41048      -178.043    23009327.879    94219356.22546
      -138.738  
  21544721.351   113218301.98548     -2425.957    21544723.729    88222079.96947
     -1890.359  
  21479050.760   112873207.16749      2189.597    21479053.237    87953183.44148
      1706.176  
  21274535.901   111798449.26848     -2694.395    21274535.658    87115693.92647
     -2099.531  
  20386540.915   107132035.90149      -185.269    20386543.170    83479534.41248
      -144.367  
 20 09 28 09 23 10.0000000  0  8G11G12G25G21G24G32G20G10
  23885887.316   125521190.98147        72.465    23885887.736    97808725.37144
        56.464  
  23354939.319   122731054.76947      2829.800    23354940.305    95634598.99146
      2205.038  
  24519910.630   128853004.79546      3693.374    24519915.964   100404951.31645
      2877.953  
  23009498.714   120915734.91648      -180.308    23009498.304    94220054.02446
      -140.503  
