     2.11           OBSERVATION DATA    G                   RINEX VERSION / TYPE
LEICA GEO OFFICE 8.4                    29-9-20 09:58       PGM / RUN BY / DATE
                                                            OBSERVER / AGENCY
TARY                                                        MARKER NAME
TARY                                                        MARKER NUMBER
457569              LEICA GX1220        2.14                REC # / TYPE / VERS
                    LEIAX1202                               ANT # / TYPE
 -1173808.7423  3860805.5125  4923766.2475                  APPROX POSITION XYZ
        1.9430        0.0000        0.0000                  ANTENNA: DELTA H/E/N
L1PhaOff:   0.0648  L2PhaOff:   0.0622                      COMMENT
     1     1                                                WAVELENGTH FACT L1/2
     6    C1    L1    D1    P2    L2    D2                  # / TYPES OF OBSERV
  2020     9    28     5    15   25.0000000     GPS         TIME OF FIRST OBS
  2020     9    28     9    11   25.0000000     GPS         TIME OF LAST OBS
    18                                                      LEAP SECONDS
    16                                                      # OF SATELLITES
          C1    L1    D1    P2    L2    D2                  COMMENT
   G 1     0     0     0     0     0     0                  PRN / # OF OBS
   G 2    79    79    79    79    79    79                  PRN / # OF OBS
   G 3     0     0     0     0     0     0                  PRN / # OF OBS
   G 4     0     0     0     0     0     0                  PRN / # OF OBS
   G 5  1019  1019  1019  1019  1019  1019                  PRN / # OF OBS
   G 6     0     0     0     0     0     0                  PRN / # OF OBS
   G 7     0     0     0     0     0     0                  PRN / # OF OBS
   G 8   638   638   638   637   637   637                  PRN / # OF OBS
   G 9     0     0     0     0     0     0                  PRN / # OF OBS
   G10  2167  2167  2167  2166  2166  2166                  PRN / # OF OBS
   G11   376   376   376   376   376   376                  PRN / # OF OBS
   G12   272   272   272   272   272   272                  PRN / # OF OBS
   G13  1904  1904  1904  1904  1904  1904                  PRN / # OF OBS
   G14     0     0     0     0     0     0                  PRN / # OF OBS
   G15  2833  2833  2833  2833  2833  2833                  PRN / # OF OBS
   G16     0     0     0     0     0     0                  PRN / # OF OBS
   G17     0     0     0     0     0     0                  PRN / # OF OBS
   G18  2668  2668  2668  2668  2668  2668                  PRN / # OF OBS
   G19     0     0     0     0     0     0                  PRN / # OF OBS
   G20  2833  2833  2833  2833  2833  2833                  PRN / # OF OBS
   G21  1311  1311  1311  1310  1310  1310                  PRN / # OF OBS
   G22     0     0     0     0     0     0                  PRN / # OF OBS
   G23     0     0     0     0     0     0                  PRN / # OF OBS
   G24  2338  2338  2338  2338  2338  2338                  PRN / # OF OBS
   G25     0     0     0     0     0     0                  PRN / # OF OBS
   G26     0     0     0     0     0     0                  PRN / # OF OBS
   G27  1600  1600  1600  1599  1599  1599                  PRN / # OF OBS
   G28     0     0     0     0     0     0                  PRN / # OF OBS
   G29   768   768   768   768   768   768                  PRN / # OF OBS
   G30   792   792   792   792   792   792                  PRN / # OF OBS
   G31     0     0     0     0     0     0                  PRN / # OF OBS
   G32  1039  1039  1039  1038  1038  1038                  PRN / # OF OBS
                                                            END OF HEADER
 20 09 28 05 15 25.0000000  0  8G13G 2G15G18G 5G29G30G20
  20509613.154   107778745.13348       279.390    20509612.617    83983436.69047
       217.702  
  24472996.493   128606454.34147     -3287.175    24472996.558   100212817.00746
     -2561.437  
  20782089.969   109210622.80349      2261.179    20782090.256    85099188.79248
      1761.953  
  21310733.781   111988662.97349      2270.116    21310734.527    87263895.08347
      1768.917  
  21807561.150   114599504.07548     -2595.077    21807560.959    89298315.24147
     -2022.140  
  22258058.936   116966885.66848     -2783.301    22258059.920    91143029.83347
     -2168.808  
  23850287.452   125334115.77645      -124.793    23850290.194    97662953.69844
       -97.242  
  23656628.086   124316420.53346      3194.233    23656629.364    96869954.69244
      2489.012  
 20 09 28 05 15 30.0000000  0  8G13G 2G15G18G 5G29G30G20
  20509348.648   107777355.51848       276.121    20509348.149    83982353.86647
       215.156  
  24476124.306   128622891.92546     -3287.844    24476124.479   100225625.47746
     -2561.964  
  20779940.013   109199324.46049      2258.332    20779940.201    85090384.89748
      1759.734  
  21308574.712   111977316.83348      2268.195    21308575.219    87255053.92547
      1767.421  
  21810030.801   114612482.86748     -2596.495    21810030.669    89308428.57246
     -2023.245  
  22260708.214   116980807.47248     -2785.434    22260709.143    91153877.98847
     -2170.472  
  23850407.899   125334748.04446      -128.069    23850410.569    97663446.36246
       -99.796  
  23653588.818   124300449.41847      3193.922    23653589.795    96857509.66345
      2488.765  
 20 09 28 05 15 35.0000000  0  8G13G 2G15G18G 5G29G30G20
  20509087.561   107775983.59548       272.566    20509087.100    83981284.84947
       212.386  
  24479253.273   128639334.06846     -3288.832    24479253.243   100238437.49345
     -2562.733  
  20777792.734   109188040.49549      2255.262    20777793.110    85081592.19848
      1757.343  
  21306417.719   111965981.00948      2266.145    21306418.111    87246220.83147
      1765.823  
  21812501.977   114625468.36148     -2597.819    21812501.849    89318547.14146
     -2024.277  
  22263359.754   116994741.24948     -2788.164    22263360.824    91164735.46247
     -2172.598  
  23850531.175   125335396.11345      -131.137    23850533.936    97663951.34345
      -102.187  
  23650550.170   124284481.33647      3193.128    23650551.368    96845067.00145
      2488.148  
 20 09 28 05 15 40.0000000  0  8G13G 2G15G18G 5G29G30G20
  20508829.721   107774628.85348       269.363    20508829.459    83980229.19547
       209.891  
  24482382.811   128655780.24647     -3289.577    24482382.850   100251252.67745
     -2563.315  
  20775648.091   109176770.41549      2252.785    20775648.441    85072810.32448
      1755.413  
  21304262.241   111954654.96048      2264.406    21304262.955    87237395.32947
      1764.468  
  21814974.282   114638460.03848     -2598.843    21814974.015    89328670.52647
     -2025.078  
  22266013.416   117008686.37248     -2790.011    22266014.448    91175601.79547
     -2174.039  
  23850657.355   125336059.44245      -133.976    23850660.119    97664468.23046
      -104.401  
  23647511.985   124268515.63346      3193.250    23647513.189    96832626.19944
      2488.242  
 20 09 28 05 15 45.0000000  0  8G13G 2G15G18G 5G29G30G20
  20508575.099   107773290.61748       265.773    20508574.758    83979186.42747
       207.094  
  24485512.951   128672229.74246     -3290.266    24485513.148   100264070.44645
     -2563.848  
  20773505.935   109165513.59149      2249.684    20773506.219    85064038.78548
      1752.995  
  21302108.894   111943338.04448      2262.050    21302109.281    87228576.95847
      1762.633  
  21817447.512   114651457.22948     -2600.343    21817447.382    89338798.20747
     -2026.245  
  22268669.158   117022642.20048     -2792.597    22268670.265    91186476.45547
     -2176.055  
  23850786.359   125336737.39746      -137.565    23850789.070    97664996.51345
      -107.198  
  23644474.138   124252551.63746      3192.352    23644475.158    96820186.72145
      2487.542  
 20 09 28 05 15 50.0000000  0  8G13G 2G15G18G 5G29G30G20
  20508323.909   107771970.72948       262.276    20508323.478    83978157.94447
       204.366  
  24488644.172   128688684.42146     -3291.218    24488644.355   100276892.24445
     -2564.594  
  20771366.638   109154271.75649      2246.973    20771366.962    85055278.91548
      1750.883  
  21299957.418   111932032.05548      2260.254    21299958.029    87219767.09747
      1761.233  
  21819922.066   114664461.75148     -2601.516    21819921.960    89348931.59847
     -2027.160  
  22271327.187   117036610.51848     -2794.772    22271328.263    91197360.85347
     -2177.750  
  23850918.407   125337431.80946      -140.500    23850921.159    97665537.61444
      -109.483  
  23641437.067   124236591.22146      3191.921    23641438.138    96807750.03544
      2487.207  
 20 09 28 05 15 55.0000000  0  8G13G 2G15G18G 5G29G30G20
  20508075.944   107770667.79048       259.022    20508075.606    83977142.67147
       201.832  
  24491775.952   128705142.84846     -3291.871    24491776.197   100289716.95844
     -2565.102  
  20769230.022   109143043.61149      2244.401    20769230.356    85046529.71548
      1748.882  
  21297807.654   111920735.65548      2258.465    21297808.237    87210964.71647
      1759.804  
  21822397.972   114677472.19548     -2602.402    21822397.735    89359069.60847
     -2027.847  
  22273987.357   117050589.93248     -2796.781    22273988.441    91208253.90047
     -2179.313  
  23851053.502   125338141.21246      -143.015    23851056.315    97666090.40045
      -111.444  
  23638400.211   124220632.96746      3191.496    23638401.324    96795315.04245
      2486.874  
 20 09 28 05 16  0.0000000  0  8G13G 2G15G18G 5G29G30G20
  20507831.415   107769382.09348       255.327    20507830.907    83976140.82447
       198.952  
  24494908.787   128721605.31946     -3292.925    24494908.921   100302544.84445
     -2565.917  
  20767096.064   109131829.45749      2241.319    20767096.459    85037791.41948
      1746.479  
  21295659.998   111909449.18148      2256.301    21295660.652    87202170.05447
      1758.152  
  21824874.844   114690488.93448     -2604.144    21824874.782    89369212.51247
     -2029.206  
  22276649.780   117064580.84048     -2799.289    22276650.807    91219155.90647
     -2181.265  
  23851191.457   125338866.01045      -146.370    23851194.222    97666655.16644
      -114.058  
  23635364.082   124204677.25346      3190.937    23635365.280    96782882.04345
      2486.441  
 20 09 28 05 16  5.0000000  0  8G13G 2G15G18G 5G29G30G20
  20507589.940   107768113.66648       251.761    20507589.639    83975152.43647
       196.176  
  24498042.098   128738071.88346     -3294.273    24498042.526   100315375.90444
     -2566.977  
  20764964.772   109120629.25649      2238.516    20764965.012    85029064.00048
      1744.292  
  21293514.049   111898172.60748      2254.172    21293514.783    87193383.11147
      1756.495  
  21827353.030   114703511.86048     -2605.418    21827353.014    89379360.23946
     -2030.198  
  22279314.461   117078583.14648     -2801.719    22279315.387    91230066.79247
     -2183.160  
  23851332.228   125339606.23946      -149.835    23851334.892    97667231.96945
      -116.758  
  23632328.298   124188724.03846      3190.136    23632329.088    96770450.97045
      2485.816  
 20 09 28 05 16 10.0000000  0  8G13G 2G15G18G 5G29G30G20
  20507351.900   107766862.81748       248.520    20507351.544    83974177.75647
       193.648  
  24501176.397   128754542.74046     -3294.409    24501177.001   100328210.33545
     -2567.074  
  20762836.134   109109443.37749      2235.887    20762836.487    85020347.73148
      1742.246  
  21291370.197   111886906.27948      2252.343    21291370.889    87184604.16147
      1755.070  
  21829832.560   114716541.37748     -2606.453    21829832.535    89389513.12247
     -2031.003  
  22281981.269   117092597.12848     -2803.988    22281982.166    91240986.77447
     -2184.930  
  23851476.129   125340362.12846      -152.780    23851478.741    97667820.97645
      -119.055  
  23629292.956   124172773.61047      3189.879    23629294.169    96758022.07645
      2485.617  
 20 09 28 05 16 15.0000000  0  8G13G 2G15G18G 5G29G30G20
  20507117.273   107765629.03248       244.855    20507116.855    83973216.36847
       190.792  
  24504311.554   128771017.59846     -3295.531    24504311.955   100341047.85445
     -2567.952  
  20760710.169   109098271.35349      2232.879    20760710.628    85011642.26048
      1739.901  
  21289228.062   111875649.75048      2250.063    21289228.684    87175832.84647
      1753.293  
  21832313.224   114729577.04048     -2607.976    21832313.011    89399670.78647
     -2032.190  
  22284650.169   117106622.29548     -2806.421    22284651.141    91251915.46947
     -2186.823  
  23851622.769   125341133.22646      -156.051    23851625.535    97668421.82245
      -121.602  
  23626258.095   124156825.62446      3189.184    23626259.390    96745595.06745
      2485.073  
 20 09 28 05 16 20.0000000  0  8G13G 2G15G18G 5G29G30G20
  20506885.699   107764412.95148       241.530    20506885.359    83972268.77547
       188.202  
  24507447.392   128787496.84946     -3296.324    24507447.926   100353888.82045
     -2568.565  
  20758586.855   109087113.76349      2230.129    20758587.463    85002948.03548
      1737.757  
  21287088.010   111864403.57748      2248.495    21287088.669    87167069.59447
      1752.070  
  21834795.028   114742619.38248     -2608.948    21834794.930    89409833.64347
     -2032.948  
  22287321.308   117120659.18948     -2808.495    22287322.288    91262853.30747
     -2188.441  
  23851772.487   125341920.09445      -158.883    23851775.205    97669034.97846
      -123.808  
  23623223.869   124140880.59547      3189.022    23623225.165    96733170.39345
      2484.953  
 20 09 28 05 16 25.0000000  0  8G13G 2G15G18G 5G29G30G20
  20506657.533   107763213.77148       238.136    20506657.278    83971334.32347
       185.555  
  24510583.961   128803979.78746     -3297.026    24510584.450   100366732.64345
     -2569.117  
  20756466.217   109075969.83049      2227.418    20756466.730    84994264.45848
      1735.647  
  21284949.859   111853167.01848      2246.152    21284950.354    87158313.83247
      1750.246  
  21837277.925   114755667.59647     -2610.358    21837278.082    89420001.07747
     -2034.050  
  22289994.557   117134707.05548     -2810.839    22289995.415    91273799.68847
     -2190.269  
  23851925.064   125342722.01646      -161.664    23851927.806    97669659.88145
      -125.976  
  23620190.011   124124937.71947      3188.246    23620191.449    96720747.36645
      2484.343  
 20 09 28 05 16 30.0000000  0  8G13G 2G15G18G 5G29G30G20
  20506432.815   107762032.40148       234.460    20506432.354    83970413.76747
       182.695  
  24513721.542   128820467.35646     -3297.729    24513722.185   100379580.04645
     -2569.671  
  20754348.425   109064840.47549      2224.604    20754348.930    84985592.23348
      1733.456  
  21282813.448   111841940.97748      2243.995    21282814.237    87149566.26047
      1748.565  
  21839762.176   114768722.58047     -2611.535    21839762.209    89430173.78847
     -2034.964  
  22292669.913   117148766.80148     -2813.027    22292670.964    91284755.33647
     -2191.973  
  23852080.510   125343539.89146      -165.187    23852083.681    97670297.16444
      -128.722  
  23617156.746   124108997.93047      3187.554    23617158.167    96708326.77044
      2483.805  
 20 09 28 05 16 35.0000000  0  8G13G 2G15G18G 5G29G30G20
  20506211.311   107760868.29848       231.301    20506210.860    83969506.69147
       180.230  
  24516859.838   128836959.02546     -3298.534    24516860.077   100392430.69145
     -2570.289  
  20752233.299   109053725.25749      2221.770    20752233.815    84976931.03348
      1731.245  
  21280679.133   111830724.98149      2242.207    21280679.845    87140826.52947
      1747.171  
  21842247.592   114781783.84148     -2612.766    21842247.759    89440351.38847
     -2035.926  
  22295347.753   117162838.04148     -2815.249    22295348.455    91295719.93247
     -2193.703  
  23852239.274   125344373.20546      -168.152    23852242.151    97670946.51345
      -131.031  
  23614124.058   124093060.76746      3187.163    23614125.519    96695908.20845
      2483.500  
 20 09 28 05 16 40.0000000  0  8G13G 2G15G18G 5G29G30G20
  20505993.037   107759721.60448       227.539    20505992.775    83968613.16947
       177.300  
  24519998.696   128853454.77645     -3299.363    24519999.257   100405284.48244
     -2570.941  
  20750120.842   109042624.15949      2218.628    20750121.148    84968280.82848
      1728.796  
  21278546.899   111819519.05048      2240.050    21278547.420    87132094.63947
      1745.492  
  21844734.338   114794851.34348     -2614.266    21844734.272    89450533.86846
     -2037.093  
  22298027.465   117176920.67548     -2817.757    22298028.420    91306693.41147
     -2195.660  
  23852400.676   125345221.94046      -171.265    23852403.466    97671607.84946
      -133.457  
  23611091.896   124077126.24247      3186.593    23611093.136    96683491.70245
      2483.058  
 20 09 28 05 16 45.0000000  0  8G13G 2G15G18G 5G29G30G20
  20505778.203   107758592.26548       224.218    20505777.854    83967733.16547
       174.710  
  24523138.476   128869954.61744     -3300.065    24523139.167   100418141.51645
     -2571.483  
  20748011.071   109031537.23949      2216.062    20748011.402    84959641.67648
      1726.797  
  21276416.359   111808323.20648      2238.261    21276416.922    87123370.60747
      1744.097  
  21847222.237   114807925.18448     -2615.387    21847222.254    89460721.27147
     -2037.968  
  22300709.444   117191014.66348     -2820.066    22300710.349    91317675.74147
     -2197.457  
  23852565.285   125346086.18246      -174.320    23852568.139    97672281.28344
      -135.836  
  23608060.122   124061194.41046      3186.093    23608061.396    96671077.29345
      2482.667  
 20 09 28 05 16 50.0000000  0  8G13G 2G15G18G 5G29G30G20
  20505566.564   107757480.28748       220.508    20505566.140    83966866.69947
       171.819  
  24526279.104   128886458.63545     -3301.011    24526279.752   100431001.74944
     -2572.222  
  20745903.973   109020464.48449      2213.058    20745904.372    84951013.55548
      1724.456  
  21274287.756   111797137.50748      2236.116    21274288.363    87114654.47847
      1742.425  
  21849711.283   114821005.36248     -2616.507    21849711.282    89470913.61147
     -2038.840  
  22303393.731   117205120.03148     -2822.449    22303394.464    91328666.93347
     -2199.313  
  23852732.557   125346965.89246      -177.488    23852735.347    97672966.78545
      -138.305  
  23605028.931   124045265.26947      3185.546    23605029.926    96658664.99345
      2482.242  
 20 09 28 05 16 55.0000000  0  8G13G 2G15G18G 5G29G30G20
  20505358.172   107756385.45648       217.512    20505357.809    83966013.58847
       169.488  
  24529420.407   128902966.54544     -3301.644    24529421.279   100443865.05744
     -2572.715  
  20743799.524   109009405.71849      2210.468    20743800.006    84942396.33948
      1722.441  
  21272161.033   111785961.72348      2234.344    21272161.767    87105946.08247
      1741.043  
  21852201.467   114834091.55648     -2617.594    21852201.496    89481110.65246
     -2039.687  
  22306079.890   117219236.58248     -2824.309    22306080.748    91339666.84647
     -2200.761  
  23852902.875   125347860.95046      -180.194    23852905.710    97673664.23546
      -140.413  
  23601998.102   124029338.56246      3185.004    23601999.326    96646254.57145
      2481.815  
 20 09 28 05 17  0.0000000  0  8G13G 2G15G18G 5G29G30G20
  20505153.009   107755307.79048       213.547    20505152.681    83965173.84247
       166.397  
  24532562.525   128919478.35945     -3303.055    24532563.287   100456731.36545
     -2573.815  
  20741697.740   108998360.86349      2207.640    20741698.088    84933789.96248
      1720.234  
  21270036.210   111774795.85648      2232.086    21270036.890    87097245.40947
      1739.284  
  21854692.813   114847183.85848     -2619.301    21854692.937    89491312.43446
     -2041.015  
  22308768.350   117233364.25248     -2826.617    22308769.229    91350675.41447
     -2202.562  
  23853076.266   125348771.24946      -183.780    23853078.805    97674373.56245
      -143.210  
  23598967.899   124013414.36347      3184.558    23598969.170    96633846.11745
      2481.473  
 20 09 28 05 17  5.0000000  0  8G13G 2G15G18G 5G29G30G20
  20504951.284   107754247.96448       210.315    20504951.202    83964348.00947
       163.879  
  24535705.231   128935994.79845     -3303.503    24535706.301   100469601.26745
     -2574.171  
  20739598.802   108987330.71649      2204.581    20739599.351    84925195.04648
      1717.852  
  21267913.473   111763640.64548      2229.934    21267914.208    87088553.03647
      1737.605  
  21857185.461   114860282.93648     -2620.581    21857185.571    89501519.51347
     -2042.015  
  22311458.907   117247503.75748     -2829.129    22311459.931    91361693.20347
     -2204.522  
  23853252.536   125349697.52246      -187.074    23853255.096    97675095.35145
      -145.772  
  23595938.269   123997493.36447      3184.094    23595939.504    96621440.14245
      2481.108  
 20 09 28 05 17 10.0000000  0  8G13G 2G15G18G 5G29G30G20
  20504752.985   107753205.33448       206.730    20504752.659    83963535.56847
       161.086  
  24538848.935   128952515.16745     -3304.460    24538849.788   100482474.28743
     -2574.906  
  20737502.548   108976314.57449      2201.753    20737503.073    84916611.04648
      1715.648  
  21265792.636   111752495.41548      2227.937    21265793.257    87079868.44247
      1736.051  
  21859679.426   114873388.15148     -2621.858    21859679.417    89511731.36346
     -2043.011  
  22314151.750   117261654.39948     -2831.320    22314152.614    91372719.66447
     -2206.227  
  23853431.797   125350639.14146      -189.762    23853434.247    97675829.07045
      -147.870  
  23592909.062   123981574.92847      3183.063    23592910.371    96609036.16045
      2480.305  
 20 09 28 05 17 15.0000000  0  8G13G 2G15G18G 5G29G30G20
  20504557.932   107752180.29548       203.698    20504557.537    83962736.82847
       158.722  
  24541993.360   128969039.82645     -3305.050    24541994.223   100495350.56844
     -2575.379  
  20735408.923   108965312.90649      2199.163    20735409.442    84908038.32048
      1713.632  
  21263673.715   111741360.59748      2226.265    21263674.234    87071191.96047
      1734.750  
  21862174.364   114886499.88948     -2622.733    21862174.507    89521948.30747
     -2043.690  
  22316846.696   117275816.59248     -2833.269    22316847.712    91383755.13947
     -2207.746  
  23853613.915   125351596.48846      -193.160    23853616.376    97676575.04444
      -150.520  
  23589880.590   123965659.32647      3183.405    23589881.703    96596634.39745
      2480.573  
 20 09 28 05 17 20.0000000  0  8G13G 2G15G18G 5G29G30G20
  20504365.731   107751170.05248       201.352    20504365.335    83961949.63647
       156.894  
  24545138.265   128985572.01055     -3304.722    24545135.651   100508227.09655
     -2575.112  
  20733317.610   108954322.82649      2197.667    20733318.018    84899474.63148
      1712.465  
  21261556.311   111730233.34448      2225.582    21261556.919    87062521.37747
      1734.133  
  21864670.236   114899615.31848     -2622.616    21864670.350    89532168.11647
     -2043.601  
  22319543.354   117289987.53048     -2834.313    22319544.281    91394797.41947
     -2208.558  
  23853798.514   125352566.72146      -194.749    23853801.170    97677331.08844
      -151.757  
  23586851.939   123949743.90647      3183.789    23586853.008    96584232.77445
      2480.871  
 20 09 28 05 17 25.0000000  0  8G13G 2G15G18G 5G29G30G20
  20504176.183   107750174.78148       195.852    20504176.070    83961174.09747
       152.609  
  24548283.599   129002099.78544     -3307.604    24548287.263   100521105.85744
     -2577.366  
  20731228.573   108943344.61349      2192.956    20731229.032    84890920.17748
      1708.792  
  21259440.234   111719113.91148      2221.441    21259440.847    87053856.88347
      1730.987  
  21867166.679   114912734.59048     -2625.801    21867166.687    89542390.92147
     -2046.082  
  22322241.705   117304167.36948     -2838.500    22322242.553    91405846.64247
     -2211.819  
  23853985.744   125353550.05946      -199.563    23853988.256    97678097.33344
      -155.508  
  23583823.459   123933828.76147      3181.059    23583824.559    96571831.37245
      2478.742  
 20 09 28 05 17 30.0000000  0  8G13G 2G15G18G 5G29G30G20
  20503991.781   107749205.93248       192.784    20503991.667    83960419.15447
       150.218  
  24551432.113   129018640.71745     -3307.581    24551431.978   100533994.84444
     -2577.352  
  20729143.900   108932389.64849      2190.254    20729144.197    84882383.84548
      1706.688  
  21257327.972   111708013.67848      2219.796    21257328.681    87045207.35447
      1729.706  
  21869666.205   114925869.15548     -2626.866    21869666.197    89552625.65247
     -2046.913  
  22324943.850   117318367.48548     -2840.390    22324944.757    91416911.65447
     -2213.292  
  23854177.354   125354557.91446      -202.473    23854179.855    97678882.67844
      -157.772  
  23580797.198   123917925.37346      3180.651    23580798.336    96559439.12245
      2478.426  
 20 09 28 05 17 35.0000000  0  8G13G 2G15G18G 5G29G30G20
  20503809.483   107748247.82548       190.023    20503809.249    83959672.59047
       148.065  
  24554579.353   129035179.07344     -3308.370    24554578.093   100546881.94344
     -2577.941  
  20727060.765   108921442.32549      2188.085    20727061.083    84873853.46748
      1705.000  
  21255216.470   111696917.06648      2218.304    21255216.997    87036560.64347
      1728.547  
  21872165.538   114939003.39748     -2627.480    21872165.696    89562860.12146
     -2047.391  
  22327646.959   117332572.29248     -2841.984    22327647.910    91427980.33447
     -2214.534  
  23854370.894   125355574.69046      -204.855    23854373.330    97679674.95945
      -159.629  
  23577770.210   123902018.15947      3180.621    23577771.076    96547043.90545
      2478.401  
 20 09 28 05 17 40.0000000  0  7G13G15G18G 5G29G30G20
  20503630.776   107747308.02348       186.214    20503630.494    83958940.27447
       145.098  
  20724980.471   108910510.18249      2184.871    20724980.660    84865334.91948
      1702.492  
  21253106.885   111685831.59048      2216.023    21253107.502    87027922.61247
      1726.770  
  21874666.185   114952144.91748     -2628.965    21874666.402    89573100.25147
     -2048.546  
  22330352.340   117346789.28948     -2844.648    22330353.252    91439058.50447
     -2216.612  
  23854567.470   125356607.89446      -208.340    23854570.137    97680480.03545
      -162.352  
  23574743.752   123886114.54647      3180.637    23574744.861    96534651.49645
      2478.414  
 20 09 28 05 17 45.0000000  0  7G13G15G18G 5G29G30G20
  20503455.322   107746386.50848       182.535    20503455.167    83958222.21447
       142.230  
  20722903.034   108899593.23849      2181.875    20722903.402    84856828.20748
      1700.159  
  21250999.587   111674757.32548      2213.726    21251000.224    87019293.31847
      1724.979  
  21877168.358   114965293.73648     -2630.339    21877168.579    89583346.08746
     -2049.616  
  22333060.035   117361018.38648     -2846.898    22333061.039    91450146.09647
     -2218.367  
  23854767.316   125357657.55746      -211.315    23854769.580    97681297.97145
      -164.664  
  23571718.045   123870214.60147      3180.160    23571719.135    96522261.93544
      2478.042  
 20 09 28 05 17 50.0000000  0  7G13G15G18G 5G29G30G20
  20503283.290   107745482.90948       178.784    20503283.219    83957518.11647
       139.308  
  20720828.448   108888691.12049      2178.730    20720828.837    84848333.05648
      1697.706  
  21248894.183   111663693.85148      2211.464    21248894.905    87010672.42247
      1723.214  
  21879671.859   114978449.28648     -2631.875    21879671.981    89593597.16247
     -2050.816  
  22335769.991   117375259.24148     -2849.391    22335770.816    91461242.86847
     -2220.309  
  23854970.172   125358723.29146      -214.922    23854972.544    97682128.41844
      -167.476  
  23568692.879   123854317.90446      3179.187    23568694.040    96509874.89846
      2477.284  
 20 09 28 05 17 55.0000000  0  7G13G15G18G 5G29G30G20
  20503114.677   107744596.94048       175.598    20503114.450    83956827.75547
       136.824  
  20718756.534   108877803.57649      2176.050    20718756.955    84839849.26148
      1695.620  
  21246790.861   111652640.90948      2209.604    21246791.547    87002059.74047
      1721.765  
  21882176.507   114991611.36048     -2632.898    21882176.639    89603853.32046
     -2051.612  
  22338482.053   117389511.66148     -2851.504    22338483.040    91472348.63047
     -2221.953  
  23855175.888   125359804.77446      -217.594    23855178.421    97682971.14045
      -169.558  
  23565668.474   123838424.20547      3178.819    23565669.680    96497490.20845
      2476.999  
 20 09 28 05 18  0.0000000  0  7G13G15G18G 5G29G30G20
  20502949.303   107743727.39348       172.312    20502949.117    83956150.17847
       134.265  
  20716687.266   108866929.40349      2173.241    20716687.509    84831375.88448
      1693.433  
  21244689.437   111641597.32248      2207.680    21244690.107    86993454.35247
      1720.266  
  21884682.095   115004778.75448     -2634.113    21884682.242    89614113.62847
     -2052.558  
  22341196.207   117403774.38748     -2853.492    22341197.229    91483462.43447
     -2223.504  
  23855384.481   125360900.87646      -220.851    23855387.010    97683825.24745
      -172.093  
  23562644.293   123822532.33646      3178.152    23562645.435    96485106.93546
      2476.479  
 20 09 28 05 18  5.0000000  0  7G13G15G18G 5G29G30G20
  20502787.188   107742875.62848       168.300    20502786.957    83955486.47447
       131.140  
  20714620.681   108856069.93049      2170.375    20714620.975    84822913.96048
      1691.198  
  21242589.905   111630564.42748      2205.375    21242590.632    86984857.29147
      1718.473  
  21887189.006   115017952.78548     -2635.405    21887189.313    89624379.10046
     -2053.566  
  22343912.469   117418048.74948     -2856.163    22343913.583    91494585.29347
     -2225.590  
  23855596.109   125362012.92746      -224.300    23855598.482    97684691.78345
      -174.780  
  23559620.698   123806643.61447      3177.555    23559622.126    96472726.11544
      2476.012  
 20 09 28 05 18 10.0000000  0  7G13G15G18G 5G29G30G20
  20502628.487   107742041.05448       165.382    20502628.203    83954836.15247
       128.867  
  20712556.971   108845224.59149      2167.694    20712557.391    84814463.05348
      1689.109  
  21240492.297   111619541.63948      2203.484    21240493.104    86976268.10647
      1716.996  
  21889697.048   115031132.85448     -2636.620    21889697.329    89634649.28746
     -2054.512  
  22346631.000   117432334.10048     -2858.159    22346631.862    91505716.72247
     -2227.141  
  23855810.808   125363140.26946      -227.063    23855813.170    97685570.23545
      -176.934  
  23556597.663   123790757.48847      3177.370    23556599.060    96460347.32045
      2475.870  
 20 09 28 05 18 15.0000000  0  7G13G15G18G 5G29G30G20
  20502473.018   107741224.34248       161.660    20502472.642    83954199.75148
       125.965  
  20710496.110   108834394.06749      2164.776    20710496.258    84806023.68448
      1686.836  
  21238396.766   111608529.61248      2201.620    21238397.548    86967687.31047
      1715.547  
  21892206.426   115044319.62648     -2637.765    21892206.586    89644924.68446
     -2055.406  
  22349351.624   117446631.07748     -2860.242    22349352.599    91516857.21847
     -2228.762  
  23856028.327   125364283.62246      -229.972    23856030.736    97686461.16444
      -179.202  
  23553575.208   123774874.60047      3176.398    23553576.669    96447971.04145
      2475.112  
 20 09 28 05 18 20.0000000  0  7G13G15G18G 5G29G30G20
  20502320.777   107740424.71748       158.229    20502320.480    83953576.67347
       123.292  
  20708437.704   108823577.60249      2161.941    20708438.031    84797595.27448
      1684.624  
  21236303.144   111597527.65148      2199.387    21236303.945    86959114.35747
      1713.804  
  21894716.980   115057512.36548     -2638.991    21894717.096    89655204.73746
     -2056.358  
  22352074.151   117460938.96248     -2862.464    22352075.305    91528006.21347
     -2230.495  
  23856248.860   125365442.25246      -233.315    23856251.125    97687363.99545
      -181.809  
  23550553.310   123758994.22847      3176.542    23550554.471    96435596.73645
      2475.226  
 20 09 28 05 18 25.0000000  0  7G13G15G18G 5G29G30G20
  20502171.963   107739642.03448       154.465    20502171.519    83952966.79447
       120.358  
  20706382.153   108812775.04549      2158.874    20706382.282    84789177.70248
      1682.237  
  21234211.439   111586535.60548      2197.070    21234212.289    86950549.12547
      1712.000  
  21897228.475   115070710.89548     -2640.550    21897228.806    89665489.30146
     -2057.574  
  22354798.972   117475257.61548     -2864.828    22354799.961    91539163.59747
     -2232.336  
  23856472.046   125366615.94546      -236.582    23856474.675    97688278.55344
      -184.352  
  23547531.821   123743116.25847      3175.339    23547533.126    96423224.30545
      2474.288  
 20 09 28 05 18 30.0000000  0  7G13G15G18G 5G29G30G20
  20502026.366   107738877.19848       151.737    20502025.949    83952370.80447
       118.234  
  20704329.274   108801987.31449      2156.476    20704329.438    84780771.68148
      1680.366  
  21232121.823   111575554.34848      2195.479    21232122.574    86941992.31147
      1710.762  
  21899741.476   115083916.11548     -2641.390    21899741.738    89675779.09046
     -2058.229  
  22357525.905   117489587.90248     -2866.992    22357527.056    91550330.03447
     -2234.023  
  23856698.467   125367805.64146      -239.164    23856701.090    97689205.58945
      -186.363  
  23544510.924   123727241.55947      3174.895    23544512.269    96410854.43145
      2473.945  
 20 09 28 05 18 35.0000000  0  7G13G15G18G 5G29G30G20
  20501883.847   107738128.94448       147.723    20501883.593    83951787.75647
       115.105  
  20702279.073   108791213.15049      2153.441    20702279.299    84772376.23448
      1678.004  
  21230033.916   111564582.66648      2193.129    21230034.608    86933442.94047
      1708.929  
  21902255.197   115097126.77748     -2642.797    21902255.634    89686073.10446
     -2059.324  
  22360254.933   117503928.47948     -2869.194    22360255.884    91561504.50447
     -2235.737  
  23856927.801   125369010.07846      -242.542    23856930.488    97690144.12245
      -188.996  
  23541490.400   123711368.81846      3174.155    23541491.884    96398486.05345
      2473.367  
 20 09 28 05 18 40.0000000  0  7G13G15G18G 5G29G30G20
  20501744.939   107737398.19548       144.390    20501744.627    83951218.33647
       112.508  
  20700231.518   108780453.45849      2150.734    20700231.829    84763992.06148
      1675.895  
  21227948.129   111553621.46648      2191.233    21227948.786    86924901.75447
      1707.452  
  21904770.255   115110343.77948     -2643.870    21904770.744    89696372.05947
     -2060.163  
  22362986.062   117518280.34448     -2871.284    22362986.914    91572687.77147
     -2237.367  
  23857159.960   125370230.17446      -245.582    23857162.498    97691094.85345
      -191.367  
  23538470.697   123695499.01547      3174.152    23538471.712    96386119.98545
      2473.362  
 20 09 28 05 18 45.0000000  0  8G13G 2G15G18G 5G29G30G20
  20501609.090   107736684.58748       140.847    20501608.830    83950662.27147
       109.749  
  24598726.494   129267184.74055     -3319.020    24598725.599   100727676.69155
     -2586.241  
  20698186.633   108769707.95749      2147.546    20698186.799    84755618.94448
      1673.409  
  21225864.254   111542670.44448      2189.164    21225864.921    86916368.48847
      1705.840  
  21907286.473   115123566.80848     -2645.266    21907286.825    89706675.70746
     -2061.249  
  22365719.268   117532643.15848     -2873.707    22365720.141    91583879.56647
     -2239.254  
  23857395.015   125371465.61646      -248.723    23857397.693    97692057.53345
      -193.813  
  23535451.119   123679631.77446      3173.378    23535452.321    96373755.92946
      2472.761  
 20 09 28 05 18 50.0000000  0  8G13G 2G15G18G 5G29G30G20
  20501477.043   107735990.26848       137.320    20501476.707    83950121.22047
       107.000  
  24601884.643   129283786.98745     -3320.819    24601885.717   100740613.56845
     -2587.647  
  20696144.997   108758978.67849      2144.612    20696145.185    84747258.46948
      1671.125  
  21223782.675   111531731.73349      2186.867    21223783.273    86907844.79947
      1704.051  
  21909804.212   115136797.93148     -2646.558    21909804.680    89716985.65447
     -2062.257  
  22368454.753   117547018.94948     -2876.206    22368455.817    91595081.48147
     -2241.203  
  23857633.510   125372718.47946      -252.277    23857636.059    97693033.78745
      -196.581  
  23532432.679   123663769.26547      3172.804    23532433.847    96361395.56245
      2472.315  
 20 09 28 05 18 55.0000000  0  8G13G 2G15G18G 5G29G30G20
  20501347.665   107735310.07248       134.797    20501347.293    83949591.22747
       105.034  
  24605045.741   129300389.85845     -3320.008    24605045.842   100753550.77944
     -2587.027  
  20694105.446   108748260.57849      2142.801    20694105.500    84738906.70748
      1669.711  
  21221702.606   111520800.14548      2185.913    21221703.095    86899326.69447
      1703.269  
  21912322.535   115150031.99448     -2646.800    21912322.981    89727297.92446
     -2062.444  
  22371191.953   117561402.59248     -2877.229    22371192.918    91606289.51547
     -2241.999  
  23857874.252   125373983.65046      -253.808    23857876.850    97694019.63145
      -197.777  
  23529414.063   123647906.42446      3172.840    23529415.175    96349034.88745
      2472.339  
 20 09 28 05 19  0.0000000  0  8G13G 2G15G18G 5G29G30G20
  20501221.318   107734646.77048       130.449    20501221.008    83949074.36247
       101.644  
  24608205.579   129316996.29145     -3322.374    24608204.662   100766490.87144
     -2588.866  
  20692068.563   108737556.30949      2138.895    20692068.516    84730565.72348
      1666.667  
  21219624.246   111509878.45048      2182.757    21219624.843    86890816.28647
      1700.805  
  21914842.029   115163271.74448     -2649.069    21914842.483    89737614.61447
     -2064.215  
  22373931.071   117575796.72648     -2880.530    22373931.982    91617505.71347
     -2244.574  
  23858117.833   125375263.83046      -258.296    23858120.577    97695017.18345
      -201.273  
  23526395.793   123632045.78046      3171.382    23526396.967    96336675.95145
      2471.202  
 20 09 28 05 19  5.0000000  0  8G13G 2G15G18G 5G29G30G20
  20501098.981   107734003.19448       126.762    20501098.401    83948572.87047
        98.773  
  24611366.744   129333608.95245     -3322.729    24611365.892   100779435.73743
     -2589.151  
  20690034.731   108726868.82649      2136.108    20690034.710    84722237.81348
      1664.495  
  21217548.361   111498969.53549      2180.719    21217548.815    86882315.83047
      1699.257  
  21917363.238   115176520.09948     -2650.265    21917363.475    89747937.99947
     -2065.144  
  22376672.856   117590204.30948     -2882.737    22376673.773    91628732.39047
     -2246.293  
  23858364.864   125376561.89346      -260.593    23858367.501    97696028.63745
      -203.062  
  23523378.668   123616190.36547      3171.266    23523380.094    96324321.11245
      2471.116  
 20 09 28 05 19 10.0000000  0  8G13G 2G15G18G 5G29G30G20
  20500979.852   107733377.70048       123.397    20500979.457    83948085.47147
        96.151  
  24614528.729   129350226.44945     -3323.629    24614527.038   100792384.44344
     -2589.847  
  20688003.931   108716196.49449      2132.980    20688003.818    84713921.71548
      1662.059  
  21215474.597   111488071.80248      2178.426    21215475.213    86873824.08747
      1697.473  
  21919885.566   115189775.36748     -2651.761    21919885.927    89758266.76847
     -2066.313  
  22379416.731   117604623.68948     -2885.242    22379417.757    91639968.26247
     -2248.241  
  23858615.154   125377876.27446      -264.222    23858617.495    97697052.85245
      -205.891  
  23520362.148   123600338.54146      3170.219    23520363.567    96311969.03246
      2470.297  
 20 09 28 05 19 15.0000000  0  8G13G 2G15G18G 5G29G30G20
  20500863.800   107732767.90448       120.241    20500863.461    83947610.32947
        93.690  
  24617691.713   129366846.13745     -3324.038    24617690.223   100805334.84544
     -2590.163  
  20685975.394   108705536.89549      2130.761    20685975.388    84705615.53948
      1660.331  
  21213402.514   111477182.77748      2176.930    21213403.065    86865339.14647
      1696.305  
  21922408.848   115203035.11348     -2652.500    21922409.363    89768599.03846
     -2066.887  
  22382162.513   117619052.33648     -2886.762    22382163.448    91651211.34847
     -2249.429  
  23858867.857   125379204.45446      -267.136    23858870.183    97698087.78744
      -208.159  
  23517345.748   123584487.75146      3170.785    23517347.138    96299617.76246
      2470.737  
 20 09 28 05 19 20.0000000  0  8G13G 2G15G18G 5G29G30G20
  20500751.154   107732175.63248       116.617    20500750.601    83947148.81047
        90.866  
  24620855.045   129383470.02945     -3325.351    24620853.832   100818288.51645
     -2591.187  
  20683949.715   108694891.91649      2127.460    20683949.649    84697320.75648
      1657.758  
  21211332.506   111466304.37248      2174.401    21211332.882    86856862.46747
      1694.335  
  21924933.291   115216301.24748     -2654.077    21924933.751    89778936.29446
     -2068.116  
  22384910.382   117633492.14348     -2889.258    22384911.326    91662463.13547
     -2251.370  
  23859123.639   125380548.34846      -270.530    23859125.808    97699134.96545
      -210.809  
  23514330.176   123568640.09746      3168.878    23514331.372    96287268.92345
      2469.249  
 20 09 28 05 19 25.0000000  0  8G13G 2G15G18G 5G29G30G20
  20500641.936   107731601.63048       113.059    20500641.445    83946701.52547
        88.093  
  24624019.081   129400098.71145     -3325.969    24624017.514   100831245.91944
     -2591.668  
  20681927.092   108684262.27149      2124.464    20681926.857    84689037.91948
      1655.425  
  21209264.608   111455437.37248      2172.285    21209264.930    86848394.67147
      1692.688  
  21927459.053   115229574.49548     -2655.312    21927459.634    89789279.08546
     -2069.077  
  22387660.319   117647943.91048     -2891.495    22387661.373    91673724.24247
     -2253.117  
  23859382.435   125381908.70346      -273.395    23859384.889    97700195.01844
      -213.034  
  23511315.132   123552796.15046      3168.125    23511316.595    96274923.00545
      2468.664  
 20 09 28 05 19 30.0000000  0  8G13G 2G15G18G 5G29G30G20
  20500536.153   107731045.45348       109.472    20500535.701    83946268.11147
        85.296  
  24627184.155   129416731.75646     -3326.378    24627183.317   100844206.66545
     -2591.996  
  20679907.120   108673647.43349      2121.604    20679906.988    84680766.61248
      1653.194  
  21207198.796   111444581.23548      2170.191    21207199.125    86839935.32947
      1691.055  
  21929986.130   115242854.34348     -2656.570    21929986.479    89799626.99647
     -2070.058  
  22390412.741   117662407.11048     -2893.632    22390413.641    91684994.25847
     -2254.781  
  23859644.210   125383284.96846      -276.938    23859646.758    97701267.41945
      -215.797  
  23508300.664   123536955.42147      3168.254    23508301.980    96262579.63045
      2468.770  
 20 09 28 05 19 35.0000000  0  8G13G 2G15G18G 5G29G30G20
  20500433.563   107730506.30848       106.273    20500432.921    83945847.99547
        82.808  
  24630350.076   129433368.43946     -3327.832    24630349.089   100857170.34744
     -2593.116  
  20677889.814   108663046.73149      2118.554    20677889.805    84672506.33448
      1650.820  
  21205134.895   111433735.24148      2168.011    21205135.034    86831483.90747
      1689.355  
  21932514.186   115256139.96248     -2657.695    21932514.852    89809979.41747
     -2070.933  
  22393166.868   117676880.98748     -2895.979    22393167.874    91696272.60047
     -2256.613  
  23859909.064   125384676.46946      -279.773    23859911.432    97702351.71746
      -218.008  
  23505286.791   123521117.22347      3167.383    23505288.212    96250238.16345
      2468.086  
 20 09 28 05 19 40.0000000  0  8G13G 2G15G18G 5G29G30G20
  20500334.238   107729984.38148       102.582    20500333.791    83945441.29447
        79.929  
  24633516.383   129450008.87146     -3328.444    24633515.893   100870136.88045
     -2593.601  
  20675875.377   108652460.32449      2115.901    20675875.317    84664257.18748
      1648.750  
  21203072.895   111422899.57548      2166.145    21203073.148    86823040.51747
      1687.902  
  21935043.590   115269431.57147     -2658.804    21935044.166    89820336.50747
     -2071.801  
  22395923.275   117691365.66248     -2898.265    22395924.290    91707559.35247
     -2258.390  
  23860176.751   125386083.36346      -282.688    23860178.968    97703447.98245
      -220.276  
  23502273.334   123505281.71446      3166.671    23502274.668    96237898.82645
      2467.535  
 20 09 28 05 19 45.0000000  0  8G13G 2G15G18G 5G29G30G20
  20500238.161   107729479.49248        99.058    20500237.585    83945047.87947
        77.184  
  24636683.518   129466652.90445     -3329.055    24636683.503   100883106.21545
     -2594.073  
  20673863.581   108641888.07649      2113.128    20673863.524    84656019.07548
      1646.589  
  21201012.983   111412074.10248      2164.144    21201013.206    86814605.08847
      1686.343  
  21937574.124   115282729.05248     -2660.145    21937574.697    89830698.16947
     -2072.844  
  22398681.563   117705860.99948     -2900.065    22398682.681    91718854.40547
     -2259.797  
  23860447.350   125387505.49846      -286.020    23860449.686    97704556.15245
      -222.875  
  23499260.423   123489448.75947      3166.292    23499261.903    96225561.46545
      2467.237  
 20 09 28 05 19 50.0000000  0  8G13G 2G15G18G 5G29G30G20
  20500145.478   107728992.18948        95.645    20500145.014    83944668.15747
        74.523  
  24639851.750   129483301.13546     -3330.191    24639851.068   100896078.86445
     -2594.957  
  20671854.440   108631330.50549      2110.147    20671854.402    84647792.39848
      1644.270  
  21198954.985   111401259.34449      2162.070    21198954.980    86806177.99447
      1684.726  
  21940105.657   115296032.88248     -2661.417    21940106.178    89841064.78547
     -2073.835  
  22401442.151   117720367.49048     -2902.434    22401443.263    91730158.15347
     -2261.640  
  23860720.989   125388943.38346      -289.175    23860723.271    97705676.59446
      -225.336  
  23496248.073   123473618.94247      3165.125    23496249.546    96213226.55645
      2466.327  
 20 09 28 05 19 55.0000000  0  8G13G 2G15G18G 5G29G30G20
  20500055.861   107728521.68748        92.382    20500055.402    83944301.52347
        71.983  
  24643020.281   129499952.72146     -3330.863    24643020.227   100909054.07345
     -2595.487  
  20669847.954   108620786.88049      2107.444    20669847.973    84639576.59548
      1642.160  
  21196898.871   111390454.58048      2159.905    21196898.977    86797758.69447
      1683.038  
  21942638.527   115309342.29448     -2662.452    21942638.866    89851435.74947
     -2074.641  
  22404204.646   117734884.40248     -2904.456    22404205.783    91741470.02547
     -2263.215  
  23860997.452   125390396.27246      -292.020    23860999.704    97706808.69544
      -227.550  
  23493236.317   123457791.39847      3165.605    23493237.738    96200893.39144
      2466.703  
 20 09 28 05 20  0.0000000  0  8G13G 2G15G18G 5G29G30G20
  20499969.647   107728068.35048        88.742    20499969.187    83943948.30047
        69.148  
  24646189.552   129516607.98146     -3331.539    24646189.550   100922032.20044
     -2596.007  
  20667844.338   108610257.55649      2104.366    20667844.211    84631371.92948
      1639.762  
  21194844.845   111379660.13148      2157.601    21194844.917    86789347.47647
      1681.250  
  21945172.311   115322657.63948     -2663.882    21945172.792    89861811.37847
     -2075.758  
  22406969.243   117749412.05148     -2906.749    22406970.262    91752790.25847
     -2265.003  
  23861276.772   125391864.48046      -295.137    23861279.166    97707952.73545
      -229.983  
  23490224.909   123441966.59447      3164.112    23490226.375    96188562.39644
      2465.538  
 20 09 28 05 20  5.0000000  0  8G13G 2G15G18G 5G29G30G20
  20499886.667   107727632.91348        85.574    20499886.174    83943608.97147
        66.680  
  24649359.817   129533267.71146     -3332.520    24649359.664   100935013.78845
     -2596.776  
  20665843.573   108599743.24549      2101.222    20665843.396    84623178.95848
      1637.313  
  21192792.730   111368876.75548      2155.625    21192792.794    86780944.81347
      1679.702  
  21947707.425   115335979.66148     -2665.008    21947707.971    89872192.14047
     -2076.633  
  22409735.927   117763951.13648     -2908.961    22409736.933    91764119.40747
     -2266.727  
  23861559.182   125393348.74546      -298.250    23861561.743    97709109.33845
      -232.402  
  23487214.323   123426145.16847      3164.078    23487215.789    96176234.01645
      2465.512  
 20 09 28 05 20 10.0000000  0  8G13G 2G15G18G 5G29G30G20
  20499807.093   107727214.52948        82.148    20499806.568    83943282.96747
        64.008  
  24652530.717   129549930.99346     -3332.929    24652530.629   100947998.11144
     -2597.098  
  20663845.460   108589243.09349      2098.758    20663845.506    84614997.02848
      1635.390  
  21190742.706   111358103.58548      2153.565    21190742.879    86772550.15947
      1678.101  
  21950243.643   115349307.45148     -2666.074    21950244.100    89882577.44547
     -2077.465  
  22412504.479   117778500.78748     -2910.969    22412505.531    91775456.79347
     -2268.288  
  23861844.607   125394848.25646      -301.199    23861847.014    97710277.78744
      -234.702  
  23484204.127   123410326.29447      3163.589    23484205.431    96163907.63445
      2465.133  
 20 09 28 05 20 15.0000000  0  8G13G 2G15G18G 5G29G30G20
  20499730.586   107726812.91748        78.539    20499730.389    83942970.02847
        61.194  
  24655702.331   129566597.59646     -3333.684    24655702.072   100960985.10545
     -2597.679  
  20661849.823   108578756.91549      2095.602    20661849.816    84606825.97848
      1632.933  
  21188694.588   111347340.40449      2151.488    21188694.675    86764163.26247
      1676.480  
  21952780.806   115362640.83447     -2667.352    21952781.425    89892967.08647
     -2078.457  
  22415275.153   117793060.74648     -2913.077    22415276.342    91786802.20747
     -2269.933  
  23862132.712   125396362.72546      -304.371    23862135.239    97711457.86745
      -237.176  
  23481194.290   123394509.74347      3163.351    23481195.749    96151583.05145
      2464.945  
 20 09 28 05 20 20.0000000  0  8G13G 2G15G18G 5G29G30G20
  20499657.693   107726429.11648        75.034    20499657.125    83942670.96147
        58.464  
  24658874.812   129583268.56547     -3334.812    24658874.565   100973975.43445
     -2598.558  
  20659857.228   108568285.76049      2092.773    20659857.292    84598666.64348
      1630.729  
  21186648.549   111336588.30548      2149.308    21186648.442    86755784.99647
      1674.781  
  21955319.313   115375980.90248     -2668.573    21955319.733    89903361.93846
     -2079.410  
  22418048.115   117807632.07748     -2915.269    22418049.126    91798156.47847
     -2271.640  
  23862424.017   125397893.23446      -307.659    23862426.702    97712650.48345
      -239.737  
  23478185.190   123378696.60147      3162.313    23478186.623    96139261.15545
      2464.141  
 20 09 28 05 20 25.0000000  0  8G13G 2G15G18G 5G29G30G20
  20499587.648   107726061.90148        71.831    20499587.265    83942384.83447
        55.969  
  24662047.771   129599942.61046     -3335.191    24662047.485   100986968.23044
     -2598.851  
  20657867.301   108557828.34249      2090.094    20657867.449    84590518.01048
      1628.641  
  21184604.228   111325845.97948      2147.397    21184604.401    86747414.36547
      1673.292  
  21957858.955   115389326.28048     -2669.644    21957859.269    89913760.94546
     -2080.245  
  22420822.780   117822213.44448     -2917.375    22420823.837    91809518.58247
     -2273.281  
  23862718.005   125399438.52446      -310.844    23862720.778    97713854.61145
      -242.219  
  23475176.436   123362885.61647      3161.855    23475177.736    96126940.89046
      2463.780  
 20 09 28 05 20 30.0000000  0  8G13G 2G15G18G 5G29G30G20
  20499521.211   107725712.55448        68.085    20499520.843    83942112.62647
        53.050  
  24665221.741   129616621.06046     -3336.082    24665221.486   100999964.39245
     -2599.551  
  20655880.238   108547386.00649      2086.890    20655880.310    84582381.13148
      1626.144  
  21182562.190   111315114.77948      2145.144    21182562.323    86739052.39847
      1671.526  
  21960399.773   115402678.33648     -2671.019    21960400.227    89924165.14847
     -2081.315  
  22423599.754   117836806.19448     -2919.487    22423600.786    91820889.53747
     -2274.929  
  23863015.082   125400999.86246      -313.663    23863017.976    97715071.21245
      -244.418  
  23472168.456   123347078.04247      3161.358    23472169.829    96114623.29645
      2463.395  
 20 09 28 05 20 35.0000000  0  8G13G 2G15G18G 5G29G30G20
  20499458.077   107725380.22048        64.819    20499457.587    83941853.66847
        50.507  
  24668396.266   129633303.02046     -3336.633    24668395.998   101012963.30045
     -2599.977  
  20653895.641   108536957.81649      2084.285    20653895.846    84574255.26948
      1624.113  
  21180522.051   111304393.83848      2143.093    21180522.188    86730698.41747
      1669.940  
  21962941.723   115416036.12248     -2672.261    21962941.945    89934573.80946
     -2082.284  
  22426378.619   117851409.42148     -2921.938    22426379.663    91832268.66647
     -2276.836  
  23863315.228   125402576.38946      -316.711    23863317.835    97716299.67944
      -246.789  
  23469160.879   123331273.05647      3160.316    23469162.139    96102307.71345
      2462.582  
 20 09 28 05 20 40.0000000  0  8G13G 2G15G18G 5G29G30G20
  20499397.925   107725064.99348        61.438    20499397.761    83941608.03247
        47.870  
  24671571.303   129649988.63546     -3337.499    24671571.339   101025965.07245
     -2600.651  
  20651913.910   108526543.96749      2081.296    20651914.081    84566140.58748
      1621.784  
  21178484.003   111293683.26448      2141.081    21178483.995    86722352.51347
      1668.370  
  21965484.599   115429399.74748     -2673.395    21965485.149    89944987.02346
     -2083.168  
  22429159.569   117866023.18848     -2923.897    22429160.721    91843656.01047
     -2278.366  
  23863618.201   125404168.24146      -320.003    23863620.884    97717540.11445
      -249.355  
  23466153.655   123315470.70647      3160.198    23466155.127    96089994.19045
      2462.488  
 20 09 28 05 20 45.0000000  0  8G13G 2G15G18G 5G29G30G20
  20499341.629   107724768.28248        57.562    20499341.121    83941376.82147
        44.852  
  24674747.485   129666679.24146     -3338.508    24674747.469   101038970.69945
     -2601.441  
  20649935.209   108516145.79349      2078.398    20649935.513    84558038.11848
      1619.527  
  21176448.023   111282984.43048      2138.909    21176447.997    86714015.75547
      1666.680  
  21968029.012   115442770.57248     -2674.687    21968029.380    89955405.84846
     -2084.176  
  22431942.599   117880648.89148     -2925.909    22431943.720    91855052.64647
     -2279.934  
  23863924.191   125405776.76346      -323.339    23863926.777    97718793.47545
      -251.956  
  23463147.382   123299672.41347      3159.565    23463148.684    96077683.83745
      2461.995  
 20 09 28 05 20 50.0000000  0  8G13G 2G15G18G 5G29G30G20
  20499288.160   107724487.92348        54.323    20499287.870    83941158.36147
        42.328  
  24677924.024   129683372.69146     -3339.191    24677924.146   101051978.56445
     -2601.969  
  20647959.174   108505761.15749      2075.457    20647959.375    84549946.19748
      1617.234  
  21174413.979   111272295.23648      2136.629    21174413.965    86705686.51747
      1664.901  
  21970574.371   115456146.45748     -2675.780    21970574.771    89965828.61246
     -2085.026  
  22434727.752   117895284.40648     -2928.254    22434728.695    91866456.93547
     -2281.758  
  23864233.089   125407399.78346      -326.051    23864235.701    97720058.18845
      -254.070  
  23460141.465   123283876.02747      3159.078    23460142.648    96065375.00045
      2461.621  
 20 09 28 05 20 55.0000000  0  8G13G 2G15G18G 5G29G30G20
  20499238.107   107724224.74048        50.738    20499237.830    83940953.29747
        39.531  
  24681101.338   129700069.81146     -3340.007    24681101.685   101064989.30544
     -2602.604  
  20645985.627   108495390.93949      2072.418    20645985.921    84541865.51048
      1614.867  
  21172381.818   111261616.49948      2134.679    21172381.899    86697365.42147
      1663.382  
  21973120.871   115469528.25148     -2677.159    21973121.171    89976255.97447
     -2086.101  
  22437514.813   117909930.51448     -2930.491    22437515.839    91877869.48047
     -2283.503  
  23864545.035   125409038.19546      -329.129    23864547.306    97721334.87545
      -256.469  
  23457135.972   123268082.46247      3158.160    23457137.411    96053068.30445
      2460.901  
 20 09 28 05 21  0.0000000  0  8G13G 2G15G18G 5G29G30G20
  20499191.482   107723979.78448        47.214    20499191.192    83940762.41747
        36.788  
  24684279.583   129716771.63146     -3340.679    24684279.756   101078003.69444
     -2603.129  
  20644015.330   108485036.11848      2069.565    20644015.402    84533796.81848
      1612.645  
  21170351.932   111250949.28348      2132.391    21170352.028    86689053.31247
      1661.601  
  21975668.713   115482917.03048     -2678.304    21975669.015    89986688.78546
     -2086.991  
  22440304.109   117924588.26748     -2932.492    22440305.222    91889291.09747
     -2285.062  
  23864859.992   125410693.05446      -332.757    23864862.289    97722624.36645
      -259.296  
  23454131.264   123252292.67447      3157.929    23454132.616    96040764.57745
      2460.722  
 20 09 28 05 21  5.0000000  0  8G13G 2G15G18G 5G29G30G20
  20499147.891   107723750.95948        44.195    20499147.678    83940584.10847
        34.434  
  24687458.465   129733476.05246     -3341.113    24687458.600   101091020.09444
     -2603.473  
  20642047.297   108474694.69149      2066.926    20642047.564    84525738.56548
      1610.589  
