     2.11           OBSERVATION DATA    M                   RINEX VERSION / TYPE
LEICA GEO OFFICE 8.4                    30-9-20 20:19       PGM / RUN BY / DATE
                                                            OBSERVER / AGENCY
UBRK                                                        MARKER NAME
UBRK                                                        MARKER NUMBER
468588              LEICA GX1220GG      5.60                REC # / TYPE / VERS
                    LEIAX1202GG                             ANT # / TYPE
 -1207301.4500  3817442.8050  4949515.1170                  APPROX POSITION XYZ
        1.5290        0.0000        0.0000                  ANTENNA: DELTA H/E/N
L1PhaOff:   0.0644  L2PhaOff:   0.0640                      COMMENT
     1     1                                                WAVELENGTH FACT L1/2
     6    C1    L1    D1    P2    L2    D2                  # / TYPES OF OBSERV
  2020     9    30     5    33   45.0000000     GPS         TIME OF FIRST OBS
  2020     9    30     7     8   30.0000000     GPS         TIME OF LAST OBS
    18                                                      LEAP SECONDS
    20                                                      # OF SATELLITES
          C1    L1    D1    P2    L2    D2                  COMMENT
   G 1     0     0     0     0     0     0                  PRN / # OF OBS
   G 2     0     0     0     0     0     0                  PRN / # OF OBS
   G 3     0     0     0     0     0     0                  PRN / # OF OBS
   G 4     0     0     0     0     0     0                  PRN / # OF OBS
   G 5   715   715   715   713   713   713                  PRN / # OF OBS
   G 6     0     0     0     0     0     0                  PRN / # OF OBS
   G 7     0     0     0     0     0     0                  PRN / # OF OBS
   G 8     0     0     0     0     0     0                  PRN / # OF OBS
   G 9     0     0     0     0     0     0                  PRN / # OF OBS
   G10   774   774   774   774   774   774                  PRN / # OF OBS
   G11     0     0     0     0     0     0                  PRN / # OF OBS
   G12     0     0     0     0     0     0                  PRN / # OF OBS
   G13  1138  1138  1138  1138  1138  1138                  PRN / # OF OBS
   G14     0     0     0     0     0     0                  PRN / # OF OBS
   G15  1138  1138  1138  1138  1138  1138                  PRN / # OF OBS
   G16     0     0     0     0     0     0                  PRN / # OF OBS
   G17     0     0     0     0     0     0                  PRN / # OF OBS
   G18  1138  1138  1138  1138  1138  1138                  PRN / # OF OBS
   G19     0     0     0     0     0     0                  PRN / # OF OBS
   G20  1137  1137  1137  1137  1137  1137                  PRN / # OF OBS
   G21     0     0     0     0     0     0                  PRN / # OF OBS
   G22     0     0     0     0     0     0                  PRN / # OF OBS
   G23     0     0     0     0     0     0                  PRN / # OF OBS
   G24   953   953   953   953   953   953                  PRN / # OF OBS
   G25     0     0     0     0     0     0                  PRN / # OF OBS
   G26     0     0     0     0     0     0                  PRN / # OF OBS
   G27   976   976   976   975   975   975                  PRN / # OF OBS
   G28     0     0     0     0     0     0                  PRN / # OF OBS
   G29   438   438   438   438   438   438                  PRN / # OF OBS
   G30   492   492   492   492   492   492                  PRN / # OF OBS
   G31     0     0     0     0     0     0                  PRN / # OF OBS
   G32     0     0     0     0     0     0                  PRN / # OF OBS
   R 1     0     0     0     0     0     0                  PRN / # OF OBS
   R 2     0     0     0     0     0     0                  PRN / # OF OBS
   R 3  1133  1133  1133  1132  1132  1132                  PRN / # OF OBS
   R 4  1138  1138  1138  1138  1138  1138                  PRN / # OF OBS
   R 5  1132  1132  1132  1130  1130  1130                  PRN / # OF OBS
   R 6     0     0     0     0     0     0                  PRN / # OF OBS
   R 7     0     0     0     0     0     0                  PRN / # OF OBS
   R 8     0     0     0     0     0     0                  PRN / # OF OBS
   R 9     0     0     0     0     0     0                  PRN / # OF OBS
   R10     0     0     0     0     0     0                  PRN / # OF OBS
   R11     0     0     0     0     0     0                  PRN / # OF OBS
   R12   861   861   861   860   860   860                  PRN / # OF OBS
   R13   912   912   912   913   913   913                  PRN / # OF OBS
   R14   510   510   510   508   508   508                  PRN / # OF OBS
   R15     0     0     0     0     0     0                  PRN / # OF OBS
   R16     0     0     0     0     0     0                  PRN / # OF OBS
   R17     0     0     0     0     0     0                  PRN / # OF OBS
   R18   542   542   542   542   542   542                  PRN / # OF OBS
   R19  1019  1019  1019  1013  1013  1013                  PRN / # OF OBS
   R20  1120  1120  1120  1120  1120  1120                  PRN / # OF OBS
   R21   270   270   270   269   269   269                  PRN / # OF OBS
   R22     0     0     0     0     0     0                  PRN / # OF OBS
   R23     0     0     0     0     0     0                  PRN / # OF OBS
   R24     0     0     0     0     0     0                  PRN / # OF OBS
                                                            END OF HEADER
 20 09 30 05 33 45.0000000  0 13G15G18G20G29G 5G30G13R 4R 3R18R12R 5
                                R19
  20257935.646   106456169.43349      1352.784    20257935.343    82952859.07548
      1054.113  
  20743151.471   109005996.21149      1538.675    20743151.267    84939736.48548
      1198.965  
  22752592.695   119565680.92748      3008.901    22752592.469    93168062.20245
      2344.598  
  23246972.538   122163664.94048     -3389.800    23246973.334    95192468.10746
     -2641.406  
  22603133.681   118780269.91148     -2940.831    22603133.903    92556054.26447
     -2291.563  
  23983255.799   126032859.15447     -1101.226    23983258.202    98207428.68345
      -858.098  
  20566904.427   108079811.65049      -760.352    20566903.747    84218032.79148
      -592.483  
  19773602.076   105886740.42109      1636.359    19773604.855    82356366.39108
      1272.719  
  19898800.482   106519835.61909     -2035.500    19898803.553    82848774.33708
     -1583.167  
  21397072.252   114219023.24808     -3953.914    21397078.179    88837043.22107
     -3075.270  
  22683013.620   121168580.78507       693.226    22683020.356    94242261.34706
       539.172  
  23546118.563   125867486.73206      3735.581    23546124.337    97896966.07706
      2905.453  
  19470787.232   104155585.86506      -549.758    19470790.588    81009910.54207
      -427.594  
 20 09 30 05 33 50.0000000  0 13G15G18G20G29G 5G30G13R 4R 3R18R12R 5
                                R19
  20256651.242   106449419.84749      1347.640    20256650.916    82947599.65648
      1050.104  
  20741689.973   108998316.07849      1534.051    20741689.770    84933751.96148
      1195.359  
  22749731.445   119550644.77148      3006.184    22749731.107    93156345.74646
      2342.480  
  23250199.592   122180623.44348     -3393.163    23250200.451    95205682.51746
     -2644.027  
  22605933.626   118794983.81948     -2944.012    22605933.865    92567519.63947
     -2294.039  
  23984306.117   126038378.58247     -1106.211    23984308.562    98211729.51045
      -861.988  
  20567630.758   108083628.57649      -765.855    20567630.085    84221007.02348
      -596.773  
  19772076.752   105878572.44009      1631.417    19772079.490    82350013.51808
      1268.879  
  19900703.988   106530025.20509     -2039.757    19900707.022    82856699.56408
     -1586.479  
  21400778.272   114238806.39108     -3958.641    21400784.168    88852430.11207
     -3078.944  
  22682368.156   121165132.05107       686.832    22682374.630    94239578.98806
       534.250  
  23542626.110   125848818.56607      3732.648    23542631.879    97882446.40706
      2903.171  
  19471304.920   104158353.61906      -556.840    19471307.990    81012063.23907
      -433.102  
 20 09 30 05 33 55.0000000  0 13G15G18G20G29G 5G30G13R 4R 3R18R12R 5
                                R19
  20255370.156   106442687.75549      1345.125    20255369.841    82942353.86948
      1048.145  
  20740231.297   108990650.74749      1532.105    20740231.122    84927778.98248
      1193.843  
  22746871.236   119535614.39648      3005.698    22746870.950    93144633.75746
      2342.102  
  23253428.341   122197590.75847     -3393.977    23253429.205    95218903.78746
     -2644.660  
  22608734.807   118809704.34348     -2944.460    22608735.111    92578990.18047
     -2294.390  
  23985359.593   126043914.66747     -1108.473    23985362.024    98216043.35545
      -863.746  
  20568360.553   108087463.61049      -768.512    20568359.853    84223995.36348
      -598.840  
  19770554.401   105870420.03909      1629.327    19770557.105    82343672.77608
      1267.254  
  19902609.999   106540227.91509     -2041.410    19902612.988    82864635.00208
     -1587.765  
  21404486.748   114258602.45308     -3960.195    21404492.597    88867827.03707
     -3080.155  
  22681726.961   121161706.40407       682.960    22681733.197    94236914.61706
       531.210  
  23539135.004   125830156.32205      3732.348    23539140.788    97867931.33105
      2902.933  
  19471827.221   104161146.35406      -560.616    19471830.027    81014235.37407
      -436.034  
 20 09 30 05 34  0.0000000  0 13G15G18G20G29G 5G30G13R 4R 3R18R12R 5
                                R19
  20254091.547   106435968.55549      1342.042    20254091.210    82937118.11948
      1045.738  
  20738774.575   108982995.65449      1529.437    20738774.400    84921813.97848
      1191.766  
  22744011.298   119520585.25448      3005.484    22744010.975    93132922.73245
      2341.933  
  23256657.911   122214562.26847     -3395.351    23256658.723    95232128.34245
     -2645.734  
  22611536.402   118824426.85448     -2945.293    22611536.672    92590462.26147
     -2295.039  
  23986415.301   126049462.82947     -1111.554    23986417.845    98220366.60945
      -866.147  
  20569092.930   108091312.15349      -771.690    20569092.224    84226994.20648
      -601.324  
  19769033.928   105862278.53909      1626.672    19769036.744    82337340.46308
      1265.180  
  19904517.383   106550438.92009     -2043.504    19904520.429    82872576.89308
     -1589.394  
  21408196.772   114278407.06107     -3962.090    21408202.672    88883230.60806
     -3081.632  
  22681089.016   121158299.24007       679.069    22681095.241    94234264.60306
       528.222  
  23535644.062   125811495.54706      3731.464    23535649.777    97853417.39506
      2902.246  
  19472353.176   104163959.26906      -565.187    19472355.871    81016423.16507
      -439.598  
 20 09 30 05 34  5.0000000  0 12G15G18G20G29G 5G30G13R 4R 3R18R12R19
  20252816.508   106429268.08649      1338.199    20252816.128    82931896.93348
      1042.746  
  20737320.938   108975356.64448      1526.184    20737320.749    84915861.45847
      1189.230  
  22741152.690   119505563.20346      3003.968    22741152.409    93121217.19543
      2340.750  
  23259889.398   122231543.53248     -3397.155    23259890.094    95245360.42145
     -2647.144  
  22614339.498   118839157.22248     -2946.812    22614339.799    92601940.44247
     -2296.223  
  23987474.448   126055028.90347     -1114.840    23987477.170    98224703.77746
      -868.711  
  20569828.955   108095179.99049      -775.480    20569828.236    84230008.08647
      -604.273  
  19767516.687   105854153.90408      1623.269    19767519.527    82331021.27507
      1262.539  
  19906427.510   106560664.06909     -2046.441    19906430.558    82880529.75508
     -1591.680  
  21411909.580   114298226.22407     -3965.104    21411915.453    88898645.44507
     -3083.980  
  22680455.821   121154916.57507       674.120    22680462.116    94231633.62506
       524.312  
  19472883.818   104166798.41005      -570.609    19472886.610    81018631.35106
      -443.813  
 20 09 30 05 34 10.0000000  0 13G15G18G20G29G 5G30G13R 4R 3R18R12R20
                                R19
  20251544.823   106422585.21449      1335.394    20251544.398    82926689.50548
      1040.563  
  20735870.131   108967732.57448      1523.934    20735869.925    84909920.63847
      1187.480  
  22738295.233   119490547.07146      3003.191    22738295.232    93109516.34244
      2340.151  
  23263122.574   122248533.82747     -3398.319    23263123.336    95258599.59945
     -2648.047  
  22617143.845   118853894.29348     -2947.296    22617144.191    92613423.86347
     -2296.597  
  23988536.874   126060611.76647     -1117.601    23988539.598    98229054.05445
      -870.862  
  20570568.444   108099066.03249      -778.387    20570567.700    84233036.16148
      -606.538  
  19766002.297   105846045.00908      1620.750    19766005.268    82324714.37807
      1260.582  
  19908340.103   106570902.36409     -2048.355    19908343.172    82888492.87408
     -1593.167  
  21415624.847   114318058.31808     -3967.359    21415630.742    88914070.41507
     -3085.726  
  22679826.961   121151557.13307       670.254    22679833.243    94229020.72506
       521.305  
  22200216.372   118714535.74214      3698.425    22200224.655    92333560.47617
      2876.554  
  19473418.942   104169662.52405      -574.499    19473422.042    81020859.02906
      -446.831  
 20 09 30 05 34 15.0000000  0 13G15G18G20G29G 5G30G13R 4R 3R18R12R20
                                R19
  20250275.595   106415915.25249      1332.128    20250275.147    82921492.13648
      1038.019  
  20734421.277   108960118.79448      1521.253    20734421.054    84903987.81647
      1185.390  
  22735438.075   119475532.26046      3002.301    22735437.880    93097816.52743
      2339.456  
  23266356.541   122265528.37747     -3399.741    23266357.251    95271842.09946
     -2649.147  
  22619948.590   118868633.38748     -2948.581    22619948.967    92624908.88947
     -2297.594  
  23989601.585   126066206.70647     -1120.690    23989604.121    98233413.75345
      -873.266  
  20571310.507   108102965.53849      -781.832    20571309.752    84236074.73748
      -609.223  
  19764489.978   105837946.92508      1618.051    19764492.986    82318415.87007
      1258.483  
  19910254.207   106581148.86709     -2050.723    19910257.335    82896462.37408
     -1595.012  
  21419341.655   114337898.95907     -3969.695    21419347.543    88929502.00507
     -3087.546  
  22679201.505   121148216.21507       665.522    22679207.758    94226422.24006
       517.676  
  22196760.375   118696049.44503      3695.887    22196767.461    92319182.28305
      2874.586  
  19473958.027   104172546.73106      -579.336    19473961.125    81023102.27406
      -450.602  
 20 09 30 05 34 20.0000000  0 13G15G18G20G29G 5G30G13R 4R 3R18R12R20
                                R19
  20249009.333   106409260.96749      1329.304    20249008.889    82916306.98848
      1035.820  
  20732974.891   108952518.01449      1518.887    20732974.674    84898065.13348
      1183.547  
  22732581.591   119460521.17948      3001.844    22732581.136    93086119.54545
      2339.089  
  23269591.771   122282529.69148     -3400.897    23269592.519    95285089.88846
     -2650.047  
  22622754.259   118883377.24848     -2949.214    22622754.602    92636397.58947
     -2298.093  
  23990669.057   126071816.49647     -1123.241    23990671.640    98237785.00345
      -875.258  
  20572055.651   108106881.26549      -784.777    20572054.907    84239125.96248
      -611.516  
  19762980.259   105829862.60409      1615.441    19762983.302    82312128.06108
      1256.449  
  19912170.335   106591406.55109     -2052.569    19912173.566    82904440.58308
     -1596.445  
  21423060.538   114357750.73107     -3971.401    21423066.443    88944942.28107
     -3088.867  
  22678580.031   121144896.66307       661.828    22678586.277    94223840.35906
       514.750  
  22193305.360   118677574.39504      3693.362    22193312.444    92304812.77307
      2872.608  
  19474501.631   104175453.99106      -583.546    19474504.606    81025363.47607
      -453.870  
 20 09 30 05 34 25.0000000  0 13G15G18G20G29G 5G30G13R 4R 3R18R12R 5
                                R19
  20247746.043   106402622.24049      1326.038    20247745.587    82911133.94848
      1033.272  
  20731530.977   108944930.19748      1516.151    20731530.760    84892152.57946
      1181.422  
  22729725.842   119445514.14948      3000.855    22729725.337    93074425.71145
      2338.319  
  23272828.330   122299537.79548     -3402.289    23272829.072    95298342.96946
     -2651.137  
  22625560.813   118898125.75548     -2950.449    22625561.155    92647889.92647
     -2299.055  
  23991739.353   126077440.94148     -1126.198    23991741.999    98242167.69446
      -877.562  
  20572803.867   108110813.10449      -788.116    20572803.093    84242189.72048
      -614.120  
  19761473.124   105821791.80508      1612.710    19761476.096    82305850.78707
      1254.332  
  19914088.545   106601675.03508     -2055.000    19914091.774    82912427.17807
     -1598.332  
  21426781.512   114377613.57607     -3973.858    21426787.452    88960391.18307
     -3090.780  
  22677962.606   121141598.27007       657.500    22677968.796    94221274.94307
       511.387  
  23518204.490   125718266.04516      3727.094    23518210.347    97780909.44216
      2898.851  
  19475049.330   104178384.18405      -587.862    19475052.388    81027642.53906
      -457.227  
 20 09 30 05 34 30.0000000  0 13G15G18G20G29G 5G30G13R 4R 3R18R12R 5
                                R19
  20246485.463   106395997.78749      1323.457    20246484.996    82905972.03948
      1031.265  
  20730089.258   108937353.97249      1514.073    20730089.000    84886249.03148
      1179.792  
  22726870.610   119430509.83148      3000.409    22726870.146    93062734.05646
      2337.979  
  23276065.884   122316551.31948     -3403.276    23276066.642    95311600.24646
     -2651.909  
  22628367.996   118912877.56948     -2951.030    22628368.340    92659384.84947
     -2299.503  
  23992812.207   126083078.85646     -1128.914    23992814.929    98246560.85044
      -879.675  
  20573554.916   108114759.79749      -790.988    20573554.162    84245265.06848
      -616.354  
  19759968.279   105813733.39909      1610.469    19759971.216    82299583.14008
      1252.585  
  19916008.555   106611953.31008     -2056.714    19916011.828    82920421.39407
     -1599.668  
  21430504.324   114397486.07407     -3975.469    21430510.252    88975847.55607
     -3092.034  
  22677348.942   121138319.81206       654.172    22677355.076    94218725.03105
       508.801  
  23514718.879   125699631.70607      3726.452    23514724.375    97766416.08606
      2898.352  
  19475601.201   104181336.07306      -592.378    19475604.159    81029938.44707
      -460.737  
 20 09 30 05 34 35.0000000  0 13G15G18G20G29G 5G30G13R 4R 3R18R12R 5
                                R19
  20245227.859   106389389.06149      1319.914    20245227.422    82900822.39148
      1028.503  
  20728650.045   108929790.89148      1511.347    20728649.782    84880355.70347
      1177.676  
  22724016.164   119415509.55348      2999.414    22724015.673    93051045.53146
      2337.202  
  23279304.787   122333571.74648     -3405.020    23279305.509    95324862.92647
     -2653.266  
  22631176.109   118927634.18148     -2951.957    22631176.433    92670883.48747
     -2300.229  
  23993887.906   126088731.56647     -1132.472    23993890.664    98250965.55345
      -882.452  
  20574309.043   108118722.70049      -794.352    20574308.257    84248353.05347
      -618.977  
  19758466.027   105805688.74908      1607.371    19758468.919    82293326.18807
      1250.175  
  19917930.690   106622242.55708     -2059.171    19917933.947    82928424.14707
     -1601.577  
  21434229.239   114417369.89207     -3978.035    21434235.170    88991312.72207
     -3094.034  
  22676739.203   121135062.69607       648.823    22676745.350    94216191.70606
       504.632  
  23511233.623   125681001.89007      3725.227    23511238.921    97751926.25806
      2897.398  
  19476157.212   104184311.04305      -597.663    19476160.289    81032252.30706
      -464.852  
 20 09 30 05 34 40.0000000  0 13G15G18G20G29G 5G30G13R 4R 3R18R12R 5
                                R19
  20243973.296   106382796.25649      1317.199    20243972.855    82895685.14748
      1026.391  
  20727213.364   108922241.11249      1509.007    20727213.109    84874472.73848
      1175.848  
  22721162.497   119400513.40447      2998.953    22721162.004    93039360.26244
      2336.852  
  23282544.972   122350599.12848     -3405.867    23282545.693    95338131.00146
     -2653.926  
  22633985.154   118942395.71748     -2952.461    22633985.501    92682385.99547
     -2300.617  
  23994966.489   126094399.34047     -1134.742    23994969.160    98255382.00546
      -884.214  
  20575066.305   108122702.07549      -797.171    20575065.476    84251453.86447
      -621.172  
  19756966.293   105797657.96508      1605.148    19756969.209    82287080.01107
      1248.445  
  19919854.936   106632543.10409     -2060.961    19919858.156    82936435.66508
     -1602.977  
  21437956.293   114437264.90608     -3979.991    21437962.179    89006786.63206
     -3095.551  
  22676133.527   121131827.15507       645.226    22676139.675    94213675.18706
       501.843  
  23507749.379   125662376.48406      3725.046    23507754.929    97737439.85106
      2897.261  
  19476717.813   104187309.16605      -601.905    19476720.745    81034584.16207
      -468.151  
 20 09 30 05 34 45.0000000  0 13G15G18G20G29G 5G30G13R 4R 3R18R12R 5
                                R19
  20242721.622   106376218.63649      1313.901    20242721.162    82890559.73847
      1023.824  
  20725779.079   108914703.95748      1506.086    20725778.842    84868599.65547
      1173.574  
  22718309.518   119385520.99344      2998.102    22718309.007    93027677.96644
      2336.198  
  23285786.402   122367632.89248     -3407.604    23285787.092    95351404.02046
     -2655.284  
  22636795.006   118957161.55748     -2953.793    22636795.318    92693891.82046
     -2301.660  
  23996047.766   126100081.43147     -1137.929    23996050.427    98259809.61245
      -886.698  
  20575826.557   108126697.16248      -800.852    20575825.704    84254566.96446
      -624.031  
  19755469.090   105789640.44608      1602.147    19755471.983    82280844.21106
      1246.121  
  19921781.078   106642854.17208     -2063.348    19921784.347    82944455.40207
     -1604.819  
  21441685.358   114457170.63008     -3982.425    21441691.150    89022268.81306
     -3097.453  
  22675531.791   121128612.57007       640.483    22675537.888    94211174.94406
       498.151  
  23504265.878   125643754.95605      3723.535    23504271.211    97722956.45504
      2896.081  
  19477282.737   104190329.97205      -606.288    19477285.463    81036933.72006
      -471.558  
 20 09 30 05 34 50.0000000  0 13G15G18G20G29G 5G30G13R 4R 3R18R12R 5
                                R19
  20241473.118   106369657.70349      1311.144    20241472.642    82885447.34847
      1021.671  
  20724347.472   108907180.77748      1503.750    20724347.225    84862737.48346
      1171.757  
  22715457.500   119370533.50246      2996.909    22715456.806    93015999.33744
      2335.250  
  23289029.330   122384674.44048     -3408.655    23289029.978    95364683.09546
     -2656.104  
  22639605.963   118971933.10948     -2954.383    22639606.267    92705402.15346
     -2302.116  
  23997132.007   126105779.27847     -1140.562    23997134.682    98264249.48445
      -888.754  
  20576590.057   108130709.41749      -803.437    20576589.155    84257693.38947
      -626.054  
  19753974.586   105781637.57008      1599.765    19753977.476    82274619.73606
      1244.257  
  19923709.485   106653177.21008     -2065.285    19923712.785    82952484.43307
     -1606.331  
  21445416.626   114477088.36108     -3984.124    21445422.354    89037760.36207
     -3098.773  
  22674934.124   121125420.22206       636.863    22674940.272    94208692.03105
       495.340  
  23500783.183   125625138.89107      3723.254    23500788.758    97708477.26305
      2895.859  
  19477852.038   104193374.69205      -610.757    19477854.608    81039301.82306
      -475.038  
 20 09 30 05 34 55.0000000  0 12G15G18G29G 5G30G13R 4R 3R18R12R 5R19
  20240227.584   106363112.31249      1307.593    20240227.070    82880347.03348
      1018.898  
  20722918.302   108899670.44149      1500.383    20722918.035    84856885.25347
      1169.121  
  23292273.498   122401722.53448     -3410.211    23292274.166    95377967.34446
     -2657.308  
  22642417.767   118986709.18048     -2955.987    22642418.042    92716915.96447
     -2303.371  
  23998219.055   126111491.72247     -1144.292    23998221.629    98268700.75746
      -891.652  
  20577356.599   108134737.68549      -807.406    20577355.674    84260832.27948
      -629.155  
  19752482.660   105773648.37308      1595.745    19752485.536    82268405.92007
      1241.137  
  19925639.973   106663511.01409     -2068.147    19925643.239    82960521.82307
     -1608.563  
  21449149.901   114497016.99007     -3987.027    21449155.623    89053260.41807
     -3101.022  
  22674340.535   121122249.09707       631.828    22674346.663    94206225.60905
       491.422  
  23497301.309   125606526.74706      3722.527    23497306.673    97694001.19004
      2895.309  
  19478425.533   104196442.22005      -616.159    19478428.028    81041687.68107
      -479.233  
 20 09 30 05 35  0.0000000  0 13G15G18G20G29G 5G30G13R 4R 3R18R12R 5
                                R19
  20238984.971   106356582.33849      1304.367    20238984.444    82875258.71848
      1016.387  
  20721491.591   108892173.02449      1498.128    20721491.319    84851043.05648
      1167.366  
  22709755.557   119340570.02958      2995.523    22709754.929    92992649.16855
      2334.175  
  23295518.861   122418777.09248     -3411.663    23295519.550    95391256.68246
     -2658.438  
  22645230.423   119001489.66348     -2956.508    22645230.699    92728433.20146
     -2303.777  
  23999308.870   126117218.70647     -1147.180    23999311.519    98273163.33045
      -893.909  
  20578126.184   108138781.91049      -810.487    20578125.275    84263983.60448
      -631.554  
  19750993.215   105765672.56009      1593.796    19750996.082    82262202.49208
      1239.617  
  19927572.404   106673855.59209     -2069.979    19927575.698    82968567.59708
     -1609.988  
  21452885.195   114516956.37007     -3988.808    21452890.975    89068768.87206
     -3102.402  
  22673750.803   121119099.10307       627.879    22673756.976    94203775.60906
       488.352  
  23493820.393   125587918.78805      3721.448    23493825.625    97679528.36405
      2894.460  
  19479003.257   104199532.43506      -620.059    19479005.712    81044091.15607
      -482.272  
 20 09 30 05 35  5.0000000  0 13G15G18G20G29G 5G30G13R 4R 3R18R12R 5
                                R19
  20237745.732   106350070.09449      1300.496    20237745.206    82870184.24648
      1013.370  
  20720067.757   108884690.72249      1494.784    20720067.501    84845212.69948
      1164.766  
  22706906.144   119325596.29148      2994.288    22706905.504    92980981.30945
      2333.206  
  23298765.910   122435840.45048     -3413.625    23298766.574    95404552.76546
     -2659.972  
  22648044.385   119016276.94148     -2958.168    22648044.626    92739955.76247
     -2305.069  
  24000401.847   126122962.49947     -1150.667    24000404.465    98277639.01145
      -896.624  
  20578899.229   108142844.32249      -814.461    20578898.343    84267149.12647
      -634.647  
  19749506.740   105757712.54909      1590.386    19749509.614    82256011.37608
      1236.965  
  19929507.322   106684213.20709     -2072.897    19929510.602    82976623.51908
     -1612.258  
  21456622.951   114536908.89107     -3991.913    21456628.738    89084287.46107
     -3104.823  
  22673165.516   121115972.54407       622.711    22673171.723    94201343.84006
       484.328  
  23490340.565   125569317.30306      3719.875    23490345.902    97665060.52006
      2893.229  
  19479585.805   104202647.80006      -625.492    19479588.135    81046514.21707
      -486.496  
 20 09 30 05 35 10.0000000  0 13G15G18G20G29G 5G30G13R 4R 3R18R12R 5
                                R19
  20236509.573   106343574.09849      1297.535    20236509.037    82865122.43748
      1011.066  
  20718646.515   108877222.08049      1492.347    20718646.291    84839392.98648
      1162.863  
  22704057.608   119310627.16548      2993.254    22704056.981    92969317.05545
      2332.402  
  23302014.325   122452911.07948     -3414.801    23302014.975    95417854.54946
     -2660.887  
  22650859.364   119031069.56948     -2959.148    22650859.567    92751482.47647
     -2305.831  
  24001497.772   126128721.59347     -1153.281    24001500.449    98282126.60345
      -898.663  
  20579675.453   108146923.43949      -817.586    20579674.595    84270327.65348
      -637.082  
  19748022.908   105749766.88709      1587.476    19748025.827    82249831.42108
      1234.702  
  19931444.352   106694582.40509     -2075.176    19931447.663    82984688.45208
     -1614.026  
  21460362.907   114556873.05807     -3994.019    21460368.671    89099815.15306
     -3106.460  
  22672584.333   121112867.93807       618.543    22672590.601    94198929.14306
       481.116  
  23486861.694   125550720.61806      3718.640    23486867.145    97650596.47305
      2892.281  
  19480172.578   104205786.82706      -629.855    19480174.973    81048955.68307
      -489.891  
 20 09 30 05 35 15.0000000  0 13G15G18G20G29G 5G30G13R 4R 3R18R12R 5
                                R19
  20235276.181   106337092.64249      1295.035    20235275.651    82860071.95648
      1009.116  
  20717227.550   108869765.39849      1490.425    20717227.347    84833582.58648
      1161.371  
  22701209.629   119295660.93548      2993.160    22701209.036    92957655.07045
      2332.331  
  23305263.808   122469987.32148     -3415.706    23305264.506    95431160.71246
     -2661.594  
  22653674.982   119045865.70948     -2959.397    22653675.172    92763011.93747
     -2306.027  
  24002596.311   126134494.29747     -1155.644    24002598.952    98286624.81845
      -900.503  
  20580454.530   108151017.54649      -820.046    20580453.685    84273517.86647
      -638.999  
  19746541.417   105741833.69309      1585.620    19746544.359    82243661.16008
      1233.257  
  19933383.198   106704961.29409     -2076.472    19933386.527    82992760.92108
     -1615.034  
  21464104.689   114576846.88508     -3995.558    21464110.464    89115350.35307
     -3107.659  
  22672006.882   121109783.54707       615.097    22672013.219    94196530.17106
       478.405  
  23483383.277   125532127.17006      3718.578    23483388.772    97636134.89706
      2892.223  
  19480763.422   104208947.78806      -634.382    19480765.926    81051414.20607
      -493.413  
 20 09 30 05 35 20.0000000  0 14G15G18G20G29G 5G30G13R 4R 3R18R12R 5
                                R20R19
  20234045.664   106330626.23249      1291.539    20234045.117    82855033.19048
      1006.391  
  20715810.960   108862321.16549      1487.378    20715810.755    84827781.88048
      1158.991  
  22698362.290   119280698.10048      2992.062    22698361.706    92945995.73045
      2331.476  
  23308514.412   122487069.55148     -3417.270    23308515.132    95444471.51046
     -2662.816  
  22656491.363   119060665.86548     -2960.663    22656491.569    92774544.51947
     -2307.016  
  24003697.497   126140281.09947     -1159.004    24003700.154    98291134.02945
      -903.120  
  20581236.566   108155127.14349      -823.699    20581235.715    84276720.15047
      -641.843  
  19745062.370   105733913.55809      1582.500    19745065.347    82237501.06608
      1230.831  
  19935323.979   106715350.53709     -2079.148    19935327.325    83000841.44508
     -1617.116  
  21467848.446   114596831.12808     -3997.979    21467854.182    89130893.63607
     -3109.543  
  22671433.334   121106719.82107       610.300    22671439.699    94194147.27906
       474.679  
  23479905.646   125513537.39607      3717.218    23479911.253    97621676.21705
      2891.175  
  22152010.194   118456748.77215      3666.648    22152016.053    92133053.67117
      2851.836  
  19481358.527   104212130.94806      -639.328    19481361.000    81053890.00407
      -497.254  
 20 09 30 05 35 25.0000000  0 14G15G18G20G29G 5G30G13R 4R 3R18R12R 5
                                R20R19
  20232818.016   106324174.96149      1288.710    20232817.460    82850006.23448
      1004.190  
  20714396.753   108854889.49149      1485.140    20714396.541    84821990.97148
      1157.253  
  22695515.633   119265738.75648      2991.609    22695515.023    92934339.10345
      2331.125  
  23311766.217   122504157.89748     -3417.992    23311766.875    95457787.13746
     -2663.371  
  22659308.532   119075470.12448     -2961.144    22659308.734    92786080.30647
     -2307.390  
  24004801.397   126146082.07247     -1161.633    24004803.939    98295654.24745
      -905.171  
  20582021.556   108159252.29049      -826.598    20582020.720    84279934.55148
      -644.101  
  19743585.783   105726006.59309      1580.121    19743588.767    82231351.19508
      1228.979  
  19937266.679   106725750.02809     -2080.987    19937270.021    83008929.93208
     -1618.550  
  21471594.136   114616825.68707     -3999.839    21471599.862    89146444.96807
     -3110.992  
  22670863.715   121103676.92507       606.469    22670870.071    94191780.58306
       471.699  
  23476428.676   125494951.40607      3716.887    23476434.407    97607220.45706
      2890.913  
  22148582.890   118438419.27705      3665.229    22148588.385    92118797.40607
      2850.734  
  19481957.853   104215336.56506      -643.503    19481960.262    81056383.25107
      -500.508  
 20 09 30 05 35 30.0000000  0 14G15G18G20G29G 5G30G13R 4R 3R18R12R 5
                                R20R19
  20231593.577   106317740.55249      1285.535    20231593.041    82844992.41248
      1001.715  
  20712985.290   108847472.13849      1482.426    20712985.075    84816211.22148
      1155.133  
  22692669.969   119250784.68748      2990.644    22692669.372    92922686.57245
      2330.367  
  23315019.521   122521254.06348     -3419.699    23315020.151    95471108.79146
     -2664.703  
  22662126.820   119090280.23348     -2962.280    22662126.995    92797620.64547
     -2308.272  
  24005908.306   126151899.00847     -1164.691    24005910.843    98300186.92845
      -907.555  
  20582809.860   108163394.79349      -829.866    20582809.005    84283162.47748
      -646.652  
  19742112.003   105718114.57009      1577.453    19742114.983    82225212.96508
      1226.905  
  19939211.660   106736161.69409     -2082.925    19939215.015    83017027.89408
     -1620.058  
  21475342.069   114636832.37407     -4002.214    21475347.778    89162005.71307
     -3112.835  
  22670298.319   121100656.58307       602.277    22670304.658    94189431.43506
       468.438  
  23472952.790   125476370.77407      3715.948    23472958.443    97592768.86406
      2890.184  
  22145157.606   118420102.59305      3662.793    22145163.111    92104551.10007
      2848.839  
  19482561.621   104218566.37706      -648.034    19482564.058    81058895.33607
      -504.026  
 20 09 30 05 35 35.0000000  0 14G15G18G20G29G 5G30G13R 4R 3R18R12R 5
                                R20R19
  20230372.141   106311321.86149      1282.112    20230371.599    82839990.84148
       999.051  
  20711576.309   108840067.92749      1479.503    20711576.092    84810441.70248
      1152.855  
  22689825.062   119235834.66548      2989.702    22689824.461    92911037.23145
      2329.644  
  23318274.095   122538356.99848     -3421.476    23318274.761    95484435.75046
     -2666.089  
  22664945.987   119105094.99548     -2963.520    22664946.096    92809164.61346
     -2309.238  
  24007018.029   126157730.64147     -1167.870    24007020.513    98304731.05945
      -910.030  
  20583601.221   108167553.42249      -833.347    20583600.365    84286402.96447
      -649.363  
  19740640.768   105710236.20509      1574.203    19740643.754    82219085.35108
      1224.378  
  19941158.683   106746584.19509     -2085.641    19941162.026    83025134.28408
     -1622.168  
  21479092.066   114656850.05307     -4004.598    21479097.757    89177575.02107
     -3114.690  
  22669736.987   121097657.73607       597.707    22669743.231    94187099.00206
       464.883  
  23469477.658   125457794.76407      3714.840    23469483.359    97578320.86905
      2889.323  
  22141734.646   118401797.20305      3659.784    22141739.860    92090313.58207
      2846.499  
  19483169.744   104221819.17706      -652.999    19483172.134    81061425.28807
      -507.894  
 20 09 30 05 35 40.0000000  0 14G15G18G20G29G 5G30G13R 4R 3R18R12R 5
                                R20R19
  20229153.816   106304919.61549      1278.773    20229153.284    82835002.07548
       996.444  
  20710169.970   108832677.59849      1476.577    20710169.759    84804683.00648
      1150.578  
  22686981.113   119220889.45448      2988.304    22686980.467    92899391.61545
      2328.551  
  23321530.056   122555467.25048     -3422.934    23321530.794    95497768.40946
     -2667.226  
  22667766.173   119119915.17148     -2964.733    22667766.250    92820712.79746
     -2310.188  
  24008130.708   126163577.74947     -1171.065    24008133.163    98309287.23845
      -912.523  
  20584395.793   108171728.92749      -836.965    20584394.946    84289656.60947
      -652.179  
  19739172.242   105702372.34409      1571.137    19739175.227    82212969.01708
      1221.995  
  19943107.872   106757018.32709     -2088.145    19943111.209    83033249.71808
     -1624.116  
  21482844.243   114676879.36707     -4007.167    21482849.927    89193153.36406
     -3116.690  
  22669179.751   121094681.02007       592.815    22669185.953    94184783.77706
       461.109  
  23466003.703   125439223.85506      3713.640    23466009.273    97563876.83705
      2888.387  
  22138313.673   118383504.13005      3657.387    22138318.973    92076085.64507
      2844.633  
  19483782.232   104225095.79306      -657.895    19483784.677    81063973.76607
      -511.698  
 20 09 30 05 35 45.0000000  0 14G15G18G20G29G 5G30G13R 4R 3R18R12R 5
                                R20R19
  20227938.487   106298533.01849      1276.328    20227937.950    82830025.51548
       994.542  
  20708766.139   108825300.41549      1474.534    20708765.936    84798934.55348
      1148.987  
  22684137.888   119205948.26848      2988.452    22684137.268    92887749.13045
      2328.663  
  23324787.238   122572584.04748     -3423.457    23324788.047    95511106.16146
     -2667.633  
  22670587.233   119134739.96948     -2964.929    22670587.278    92832264.58846
     -2310.339  
  24009246.156   126169439.56347     -1173.199    24009248.674    98313854.88245
      -914.184  
  20585193.430   108175920.50849      -839.430    20585192.585    84292922.77648
      -654.101  
  19737706.270   105694522.16209      1569.249    19737709.254    82206863.32308
      1220.526  
  19945059.081   106767463.36309     -2089.508    19945062.437    83041373.63508
     -1625.171  
  21486598.471   114696919.53207     -4008.613    21486604.132    89208740.15907
     -3117.812  
  22668626.508   121091725.63207       589.444    22668632.682    94182485.13806
       458.452  
  23462530.375   125420657.27207      3713.124    23462536.003    97549436.16305
      2887.983  
  22134894.910   118365222.40605      3655.831    22134900.236    92061866.52507
      2843.426  
  19484399.014   104228395.34806      -662.266    19484401.493    81066540.08307
      -515.097  
 20 09 30 05 35 50.0000000  0 14G15G18G20G29G 5G30G13R 4R 3R18R12R 5
                                R20R19
  20226725.726   106292159.91549      1272.863    20226725.180    82825059.45948
       991.835  
  20707364.396   108817934.17349      1471.733    20707364.202    84793194.62548
      1146.800  
  22681295.042   119191008.98248      2987.246    22681294.389    92876108.14045
      2327.723  
  23328045.273   122589705.22648     -3424.938    23328046.083    95524447.33346
     -2668.784  
  22673408.766   119149567.19548     -2966.027    22673408.766    92843818.26847
     -2311.194  
  24010364.023   126175313.89747     -1176.644    24010366.645    98318432.28845
      -916.866  
  20585993.718   108180125.98849      -842.741    20585992.860    84296199.76848
      -656.688  
  19736242.455   105686683.47209      1566.073    19736245.442    82200766.56808
      1218.058  
  19947011.910   106777917.01209     -2091.999    19947015.266    83049504.24908
     -1627.113  
  21490354.316   114716968.36207     -4010.999    21490359.989    89224333.68507
     -3119.671  
  22668076.872   121088789.38907       584.828    22668082.998    94180201.40006
       454.867  
  23459057.511   125402092.88507      3712.206    23459063.122    97534997.20405
      2887.269  
  22131477.762   118346949.78605      3653.663    22131483.234    92047654.49807
      2841.737  
  19485019.738   104231715.64806      -666.457    19485022.204    81069122.54107
      -518.355  
 20 09 30 05 35 55.0000000  0 14G15G18G20G29G 5G30G13R 4R 3R18R12R 5
                                R20R19
  20225516.234   106285803.99249      1269.425    20225515.682    82820106.79648
       989.160  
  20705965.438   108810582.56849      1468.796    20705965.246    84787466.10448
      1144.512  
  22678453.247   119176075.25048      2986.077    22678452.602    92864471.46646
      2326.813  
  23331304.805   122606834.43248     -3426.887    23331305.659    95537794.75546
     -2670.304  
  22676231.485   119164400.62048     -2967.211    22676231.442    92855376.77946
     -2312.117  
  24011484.904   126181204.38547     -1179.480    24011487.570    98323022.25645
      -919.081  
  20586797.349   108184349.06349      -846.410    20586796.477    84299490.47547
      -659.542  
  19734781.491   105678860.04309      1563.078    19734784.472    82194681.67908
      1215.723  
  19948967.083   106788383.04909     -2094.602    19948970.418    83057644.50208
     -1629.137  
  21494112.437   114737029.47007     -4013.590    21494118.119    89239936.77107
     -3121.683  
  22667531.523   121085876.11007       580.300    22667537.617    94177935.51106
       451.343  
  23455585.696   125383534.35707      3711.069    23455591.368    97520562.80006
      2886.386  
  22128062.972   118328690.21105      3650.151    22128068.611    92033452.61407
      2839.007  
  19485645.010   104235060.49106      -671.547    19485647.509    81071724.08307
      -522.312  
 20 09 30 05 36  0.0000000  0 14G15G18G20G29G 5G30G13R 4R 3R18R12R 5
                                R20R19
  20224309.862   106279464.40349      1266.546    20224309.291    82815166.85848
       986.917  
  20704569.099   108803244.79049      1466.483    20704568.929    84781748.35648
      1142.714  
  22675612.352   119161146.27648      2985.676    22675611.707    92852838.50745
      2326.500  
  23334565.738   122623970.84948     -3427.530    23334566.632    95551147.79946
     -2670.808  
  22679055.214   119179239.38948     -2968.109    22679055.127    92866939.45547
     -2312.813  
  24012608.760   126187110.26047     -1182.398    24012611.406    98327624.24045
      -921.347  
  20587604.154   108188588.85649      -849.323    20587603.298    84302794.21348
      -661.816  
  19733323.189   105671050.93409      1560.535    19733326.185    82188607.93108
      1213.749  
  19950924.352   106798860.39909     -2096.339    19950927.674    83065793.54708
     -1630.492  
  21497872.696   114757102.02007     -4015.309    21497878.405    89255548.74907
     -3123.023  
  22666990.335   121082984.89707       576.297    22666996.360    94175686.78506
       448.180  
  23452114.924   125364980.81307      3710.253    23452120.593    97506132.28506
      2885.754  
  22124650.649   118310442.86505      3648.319    22124656.213    92019260.23707
      2837.582  
  19486274.744   104238428.92406      -675.848    19486277.203    81074343.97707
      -525.659  
 20 09 30 05 36  5.0000000  0 14G15G18G20G29G 5G30G13R 4R 3R18R12R 5
                                R20R19
  20223106.003   106273138.08049      1263.472    20223105.419    82810237.26548
       984.523  
  20703174.813   108795917.70749      1463.784    20703174.640    84776038.94348
      1140.612  
  22672771.791   119146218.87248      2984.784    22672771.079    92841206.76745
      2325.804  
  23337827.454   122641111.31148     -3429.047    23337828.381    95564503.99246
     -2671.988  
  22681879.335   119194080.21348     -2968.742    22681879.250    92878503.73646
     -2313.309  
  24013734.964   126193028.31247     -1185.430    24013737.603    98332235.70445
      -923.714  
  20588413.541   108192842.21249      -852.574    20588412.700    84306108.51548
      -664.347  
  19731866.985   105663252.99309      1557.776    19731869.982    82182542.86608
      1211.605  
  19952883.184   106809346.15109     -2098.589    19952886.515    83073949.13108
     -1632.242  
  21501634.515   114777182.89307     -4017.569    21501640.258    89271167.19807
     -3124.781  
  22666452.628   121080112.56307       572.063    22666458.647    94173452.75406
       444.934  
  23448644.488   125346429.15307      3709.796    23448650.103    97491703.23205
      2885.398  
  22121240.010   118292204.39305      3646.140    22121245.520    92005074.76207
      2835.886  
  19486908.203   104241817.84606      -680.246    19486910.718    81076979.80507
      -529.085  
 20 09 30 05 36 10.0000000  0 14G15G18G20G29G 5G30G13R 4R 3R18R12R 5
                                R20R19
  20221905.399   106266828.83049      1259.835    20221904.801    82805320.96748
       981.687  
  20701783.263   108788605.12249      1460.780    20701783.102    84770340.82748
      1138.266  
  22669932.231   119131296.88148      2983.660    22669931.519    92829579.24445
      2324.926  
  23341090.694   122658259.66048     -3430.777    23341091.608    95577866.33046
     -2673.336  
  22684704.610   119208927.00748     -2970.309    22684704.499    92890072.65546
     -2314.531  
  24014864.190   126198962.37447     -1188.620    24014866.801    98336859.64145
      -926.203  
  20589226.244   108197112.96249      -856.171    20589225.389    84309436.37448
      -667.148  
  19730413.538   105655470.10309      1554.710    19730416.583    82176489.51208
      1209.218  
  19954844.282   106819844.06109     -2100.976    19954847.620    83082114.16908
     -1634.098  
  21505398.602   114797275.94207     -4020.082    21505404.392    89286795.11907
     -3126.734  
  22665919.199   121077263.01807       567.324    22665925.160    94171236.43606
       441.250  
  23445175.070   125327883.25106      3708.184    23445180.654    97477278.63605
      2884.140  
  22117831.407   118273978.93705      3643.397    22117837.276    91990899.40807
      2833.754  
  19487546.271   104245231.17306      -685.335    19487548.819    81079634.61507
      -533.043  
 20 09 30 05 36 15.0000000  0 14G15G18G20G29G 5G30G13R 4R 3R18R12R 5
                                R20R19
  20220707.873   106260535.69749      1257.586    20220707.243    82800417.23048
       979.937  
  20700394.319   108781306.17049      1458.984    20700394.171    84764653.32748
      1136.867  
  22667093.532   119116379.41748      2983.495    22667092.799    92817955.25346
      2324.801  
  23344355.224   122675414.94348     -3431.198    23344356.164    95591234.07846
     -2673.664  
  22687530.798   119223778.78648     -2970.207    22687530.670    92901645.48047
     -2314.449  
  24015996.275   126204911.58447     -1191.019    24015998.923    98341495.39846
      -928.070  
  20590042.080   108201400.17749      -858.601    20590041.234    84312777.05848
      -669.043  
  19728962.791   105647701.38609      1552.742    19728965.838    82170447.17708
      1207.687  
  19956807.519   106830353.23309     -2102.395    19956810.821    83090287.96808
     -1635.194  
  21509164.791   114817380.20807     -4021.293    21509170.612    89302431.76507
     -3127.676  
  22665389.856   121074435.33107       564.054    22665395.804    94169037.12806
       438.710  
  23441706.582   125309342.19607      3707.944    23441712.140    97462857.83005
      2883.957  
  22114425.223   118255765.38505      3642.312    22114431.208    91976733.32607
      2832.910  
  19488188.731   104248667.84006      -688.960    19488191.282    81082307.57707
      -535.862  
 20 09 30 05 36 20.0000000  0 14G15G18G20G29G 5G30G13R 4R 3R18R12R 5
                                R20R19
  20219512.936   106254256.26249      1254.168    20219512.299    82795524.16648
       977.273  
  20699007.489   108774018.36249      1456.171    20699007.349    84758974.52048
      1134.680  
  22664255.250   119101464.02248      2982.640    22664254.501    92806332.86345
      2324.137  
  23347620.596   122692574.68448     -3432.667    23347621.598    95604605.29546
     -2674.808  
  22690357.467   119238633.13048     -2971.605    22690357.339    92913220.28147
     -2315.538  
  24017130.801   126210873.40247     -1193.843    24017133.442    98346140.97045
      -930.273  
  20590860.572   108205701.38649      -861.960    20590859.735    84316128.65147
      -671.655  
  19727514.188   105639944.24609      1550.039    19727517.247    82164413.84808
      1205.586  
  19958772.330   106840871.11809     -2104.691    19958775.650    83098468.54308
     -1636.984  
  21512932.554   114837493.03207     -4023.566    21512938.450    89318075.06607
     -3129.444  
  22664864.098   121071626.92407       559.543    22664870.057    94166852.81306
       435.199  
  23438238.460   125290803.41005      3707.172    23438244.068    97448438.76806
      2883.352  
  22111020.937   118237561.38605      3639.746    22111026.936    91962574.65207
      2830.909  
  19488835.064   104252125.35006      -693.680    19488837.627    81084996.75007
      -539.531  
 20 09 30 05 36 25.0000000  0 14G15G18G20G29G 5G30G13R 4R 3R18R12R 5
                                R20R19
  20218321.410   106247994.71949      1250.663    20218320.760    82790645.04348
       974.538  
  20697623.600   108766745.94649      1453.074    20697623.455    84753307.70648
      1132.262  
  22661418.141   119086554.91448      2981.234    22661417.381    92794715.39445
      2323.039  
  23350887.621   122709743.07748     -3434.370    23350888.640    95617983.25646
     -2676.136  
  22693185.445   119253494.22348     -2972.921    22693185.336    92924800.35946
     -2316.562  
  24018268.503   126216852.06547     -1197.351    24018271.170    98350799.65345
      -933.004  
  20591682.526   108210020.84449      -865.602    20591681.708    84319494.46148
      -674.499  
  19726068.598   105632203.17909      1546.675    19726071.659    82158393.02408
      1202.968  
  19960739.582   106851401.99909     -2107.226    19960742.899    83106659.22708
     -1638.956  
  21516702.809   114857618.90707     -4026.351    21516708.726    89333728.51807
     -3131.609  
  22664342.831   121068842.25207       554.598    22664348.782    94164686.95206
       431.352  
  23434771.654   125272271.28306      3705.891    23434777.293    97434024.91405
      2882.359  
  22107619.338   118219371.22605      3636.414    22107625.273    91948426.76307
      2828.319  
  19489486.062   104255608.12306      -699.269    19489488.695    81087705.57407
      -543.878  
 20 09 30 05 36 30.0000000  0 14G15G18G20G29G 5G30G13R 4R 3R18R12R 5
                                R20R19
  20217133.097   106241750.09249      1247.281    20217132.433    82785779.10548
       971.905  
  20696242.444   108759487.95149      1450.230    20696242.304    84747652.12448
      1130.047  
  22658582.042   119071651.11148      2980.237    22658581.236    92783102.04145
      2322.262  
  23354156.136   122726919.14748     -3435.949    23354157.159    95631367.20346
     -2677.366  
  22696014.522   119268361.15148     -2973.832    22696014.409    92936384.97447
     -2317.276  
  24019409.215   126222846.60847     -1200.425    24019411.858    98355470.73545
      -935.398  
  20592507.767   108214357.54449      -868.973    20592506.954    84322873.70748
      -677.124  
  19724625.796   105624477.06909      1543.688    19724628.847    82152383.82608
      1200.644  
  19962709.044   106861944.80809     -2109.604    19962712.390    83114859.18408
     -1640.809  
  21520475.296   114877756.73107     -4028.620    21520481.255    89349391.26507
     -3133.374  
  22663825.802   121066080.22007       550.176    22663831.747    94162538.70706
       427.914  
  23431305.832   125253744.85106      3704.983    23431311.543    97419615.47605
      2881.652  
  22104220.177   118201193.88805      3634.296    22104225.990    91934288.83607
      2826.676  
  19490141.610   104259115.05106      -703.796    19490144.269    81090433.17907
      -547.401  
 20 09 30 05 36 35.0000000  0 14G15G18G20G29G 5G30G13R 4R 3R18R12R 5
                                R20R19
  20215947.492   106235519.63449      1244.491    20215946.825    82780924.20748
       969.734  
  20694863.522   108752241.63749      1447.976    20694863.377    84742005.64848
      1128.293  
  22655746.415   119056749.88648      2979.969    22655745.619    92771490.69745
      2322.054  
  23357425.574   122744100.12948     -3436.925    23357426.619    95644754.96946
     -2678.128  
  22698844.180   119283231.10748     -2974.438    22698844.089    92947971.94547
     -2317.746  
  24020552.430   126228854.24547     -1202.757    24020555.016    98360151.99445
      -937.218  
  20593335.773   108218708.71849      -871.828    20593334.955    84326264.23147
      -679.351  
  19723185.262   105616763.07709      1541.500    19723188.321    82146384.05708
      1198.945  
  19964680.267   106872496.85709     -2111.554    19964683.587    83123066.33508
     -1642.323  
  21524249.523   114897903.59307     -4030.387    21524255.455    89365061.03907
     -3134.749  
  22663312.524   121063338.03607       546.382    22663318.440    94160405.89006
       424.960  
  23427840.618   125235221.20406      3704.066    23427846.323    97405208.20905
      2880.940  
  22100822.794   118183026.55305      3632.886    22100828.623    91920158.69307
      2825.578  
  19490801.186   104262643.43006      -708.160    19490803.863    81093177.47707
      -550.797  
 20 09 30 05 36 40.0000000  0 14G15G18G20G29G 5G30G13R 4R 3R18R12R 5
                                R20R19
  20214764.981   106229305.49749      1241.280    20214764.306    82776082.02048
       967.230  
  20693487.216   108745009.10049      1445.207    20693487.079    84736369.90648
      1126.137  
  22652911.716   119041853.31648      2978.886    22652910.883    92759882.98945
      2321.210  
  23360696.317   122761288.08948     -3438.187    23360697.399    95658148.17246
     -2679.108  
  22701674.822   119298106.22948     -2975.445    22701674.753    92959562.94847
     -2318.530  
  24021698.559   126234877.09847     -1206.198    24021701.111    98364845.12345
      -939.897  
  20594166.921   108223076.45849      -875.094    20594166.100    84329667.66547
      -681.894  
  19721747.399   105609063.26009      1538.581    19721750.428    82140395.31208
      1196.675  
  19966653.588   106883060.20109     -2113.753    19966656.922    83131282.26208
     -1644.035  
  21528025.809   114918061.75807     -4032.512    21528031.779    89380739.60607
     -3136.401  
  22662803.329   121060617.88007       541.910    22662809.216    94158290.22106
       421.484  
  23424376.307   125216702.59806      3703.801    23424382.035    97390804.85106
      2880.733  
  22097427.623   118164871.45404      3630.347    22097433.536    91906038.06507
      2823.605  
  19491465.230   104266195.30906      -712.718    19491467.849    81095940.04707
      -554.339  
 20 09 30 05 36 45.0000000  0 14G15G18G20G29G 5G30G13R 4R 3R18R12R 5
                                R20R19
  20213585.591   106223107.72949      1238.378    20213584.911    82771252.59648
       964.969  
  20692113.554   108737790.46149      1442.612    20692113.409    84730744.99048
      1124.113  
  22650077.919   119026961.55048      2978.195    22650077.083    92748279.01945
      2320.671  
  23363968.429   122778483.09148     -3439.223    23363969.511    95671546.86146
     -2679.917  
  22704506.462   119312986.63048     -2976.308    22704506.420    92971158.05547
     -2319.206  
  24022847.545   126240915.25147     -1208.910    24022850.203    98369550.18145
      -942.012  
  20595001.258   108227460.89649      -878.180    20595000.416    84333084.11348
      -684.300  
  19720312.181   105601377.85609      1535.956    19720315.225    82134417.77708
      1194.633  
  19968629.027   106893634.90909     -2115.663    19968632.366    83139507.03508
     -1645.519  
  21531804.288   114938231.28407     -4034.644    21531810.232    89396427.00807
     -3138.062  
  22662298.264   121057919.82207       537.730    22662304.148    94156191.72806
       418.230  
  23420912.938   125198189.12806      3702.534    23420918.740    97376405.49706
      2879.749  
  22094034.909   118146728.71305      3627.660    22094040.707    91891927.04107
      2821.511  
  19492133.643   104269770.77406      -716.984    19492136.243    81098720.96107
      -557.660  
 20 09 30 05 36 50.0000000  0 14G15G18G20G29G 5G30G13R 4R 3R18R12R 5
                                R20R19
  20212408.877   106216924.08749      1234.921    20212408.204    82766434.17748
       962.276  
  20690742.109   108730583.46749      1439.910    20690741.949    84725129.15448
      1122.004  
  22647244.595   119012072.30248      2977.331    22647243.793    92736677.01345
      2319.999  
  23367241.463   122795682.94048     -3441.059    23367242.586    95684949.33946
     -2681.348  
  22707338.691   119327869.99948     -2977.215    22707338.676    92982755.48547
     -2319.910  
  24023999.034   126246966.42547     -1211.691    24024001.637    98374265.39545
      -944.180  
  20595838.324   108231859.71249      -881.496    20595837.467    84336511.75748
      -686.883  
  19718879.236   105593704.59609      1533.058    19718882.313    82128449.68708
      1192.378  
  19970606.209   106904218.79709     -2118.050    19970609.540    83147738.94608
     -1647.370  
  21535584.426   114958409.82407     -4037.059    21535590.390    89412121.42507
     -3139.937  
  22661796.925   121055241.60207       533.413    22661802.785    94154108.66006
       414.874  
  23417450.149   125179678.44107      3701.284    23417455.952    97362008.30906
      2878.776  
  22090644.064   118128595.99604      3625.191    22090649.776    91877823.82407
      2819.594  
  19492805.996   104273367.56106      -722.112    19492808.625    81101518.46207
      -561.645  
 20 09 30 05 36 55.0000000  0 14G15G18G20G29G 5G30G13R 4R 3R18R12R 5
                                R20R19
  20211235.335   106210757.08249      1232.022    20211234.662    82761628.71948
       960.015  
  20689373.370   108723390.66249      1437.358    20689373.204    84719524.37248
      1120.016  
