     2.11           OBSERVATION DATA    M                   RINEX VERSION / TYPE
LEICA GEO OFFICE 8.4                    30-9-20 20:19       PGM / RUN BY / DATE
                                                            OBSERVER / AGENCY
UBRK                                                        MARKER NAME
UBRK                                                        MARKER NUMBER
468588              LEICA GX1220GG      5.60                REC # / TYPE / VERS
                    LEIAX1202GG                             ANT # / TYPE
 -1207301.4500  3817442.8050  4949515.1170                  APPROX POSITION XYZ
        1.4190        0.0000        0.0000                  ANTENNA: DELTA H/E/N
L1PhaOff:   0.0644  L2PhaOff:   0.0640                      COMMENT
     1     1                                                WAVELENGTH FACT L1/2
     6    C1    L1    D1    P2    L2    D2                  # / TYPES OF OBSERV
  2020     9    30     7    12   15.0000000     GPS         TIME OF FIRST OBS
  2020     9    30     8    46   20.0000000     GPS         TIME OF LAST OBS
    18                                                      LEAP SECONDS
    22                                                      # OF SATELLITES
          C1    L1    D1    P2    L2    D2                  COMMENT
   G 1     0     0     0     0     0     0                  PRN / # OF OBS
   G 2     0     0     0     0     0     0                  PRN / # OF OBS
   G 3     0     0     0     0     0     0                  PRN / # OF OBS
   G 4     0     0     0     0     0     0                  PRN / # OF OBS
   G 5     0     0     0     0     0     0                  PRN / # OF OBS
   G 6     0     0     0     0     0     0                  PRN / # OF OBS
   G 7     0     0     0     0     0     0                  PRN / # OF OBS
   G 8   640   640   640   639   639   639                  PRN / # OF OBS
   G 9     0     0     0     0     0     0                  PRN / # OF OBS
   G10  1130  1130  1130  1130  1130  1130                  PRN / # OF OBS
   G11   170   170   170   169   169   169                  PRN / # OF OBS
   G12    75    75    75    75    75    75                  PRN / # OF OBS
   G13   462   462   462   462   462   462                  PRN / # OF OBS
   G14     0     0     0     0     0     0                  PRN / # OF OBS
   G15  1130  1130  1130  1130  1130  1130                  PRN / # OF OBS
   G16     0     0     0     0     0     0                  PRN / # OF OBS
   G17     0     0     0     0     0     0                  PRN / # OF OBS
   G18  1117  1117  1117  1117  1117  1117                  PRN / # OF OBS
   G19     0     0     0     0     0     0                  PRN / # OF OBS
   G20  1130  1130  1130  1130  1130  1130                  PRN / # OF OBS
   G21  1072  1072  1072  1071  1071  1071                  PRN / # OF OBS
   G22     0     0     0     0     0     0                  PRN / # OF OBS
   G23     0     0     0     0     0     0                  PRN / # OF OBS
   G24  1130  1130  1130  1130  1130  1130                  PRN / # OF OBS
   G25     0     0     0     0     0     0                  PRN / # OF OBS
   G26     0     0     0     0     0     0                  PRN / # OF OBS
   G27   567   567   567   567   567   567                  PRN / # OF OBS
   G28     0     0     0     0     0     0                  PRN / # OF OBS
   G29     0     0     0     0     0     0                  PRN / # OF OBS
   G30     0     0     0     0     0     0                  PRN / # OF OBS
   G31     0     0     0     0     0     0                  PRN / # OF OBS
   G32   819   819   819   819   819   819                  PRN / # OF OBS
   R 1     0     0     0     0     0     0                  PRN / # OF OBS
   R 2     0     0     0     0     0     0                  PRN / # OF OBS
   R 3   150   150   150   150   150   150                  PRN / # OF OBS
   R 4  1130  1130  1130  1130  1130  1130                  PRN / # OF OBS
   R 5  1130  1130  1130  1130  1130  1130                  PRN / # OF OBS
   R 6   703   703   703     0     0     0                  PRN / # OF OBS
   R 7     0     0     0     0     0     0                  PRN / # OF OBS
   R 8     0     0     0     0     0     0                  PRN / # OF OBS
   R 9     0     0     0     0     0     0                  PRN / # OF OBS
   R10     0     0     0     0     0     0                  PRN / # OF OBS
   R11     0     0     0     0     0     0                  PRN / # OF OBS
   R12     0     0     0     0     0     0                  PRN / # OF OBS
   R13   513   513   513   500   500   500                  PRN / # OF OBS
   R14  1130  1130  1130  1130  1130  1130                  PRN / # OF OBS
   R15   935   935   935   934   934   934                  PRN / # OF OBS
   R16     0     0     0     0     0     0                  PRN / # OF OBS
   R17     0     0     0     0     0     0                  PRN / # OF OBS
   R18     0     0     0     0     0     0                  PRN / # OF OBS
   R19     0     0     0     0     0     0                  PRN / # OF OBS
   R20  1023  1023  1023  1023  1023  1023                  PRN / # OF OBS
   R21  1130  1130  1130  1130  1130  1130                  PRN / # OF OBS
   R22   363   363   363    90    90    90                  PRN / # OF OBS
   R23     0     0     0     0     0     0                  PRN / # OF OBS
   R24     0     0     0     0     0     0                  PRN / # OF OBS
                                                            END OF HEADER
 20 09 30 07 12 15.0000000  0 15G15G18G20G 8G27G24G10G13R 4R 3R13R14
                                R21R 5R20
  20781442.550   109207218.69049     -2070.379    20781442.259    85096534.07048
     -1613.285  
  21023664.775   110480097.44649     -2086.457    21023664.712    86088385.37147
     -1625.816  
  20218209.930   106247418.04249      1195.566    20218208.850    82790195.38748
       931.604  
  24744381.419   130032605.41016       881.011           0.000           0.0000 
         0.000  
  23989185.713   126064021.03657      -964.628    23989188.339    98231716.97655
      -751.648  
  21377507.347   112339590.58748      2346.866    21377509.717    87537357.76548
      1828.722  
  22599086.158   118759021.88248      2812.628    22599088.058    92539515.76847
      2191.656  
  23132601.637   121562641.83148     -3322.055    23132601.390    94724138.83445
     -2588.616  
  19710998.823   105551505.71709     -1382.620    19711001.833    82095628.57708
     -1075.370  
  23126051.920   123795569.30406     -3443.375    23126056.750    96285459.63406
     -2678.062  
  21786108.916   116336610.92504      -884.128    21786112.992    90484043.11505
      -687.659  
  21739936.391   115886108.59308      2939.688    21739942.602    90133676.56807
      2286.422  
  22599196.802   120932873.46807      3210.272    22599201.120    94058921.92007
      2496.878  
  20252805.617   108262874.81508      2016.715    20252809.860    84204489.05908
      1568.555  
  20425226.714   109222867.73505      -996.355    20425232.795    84951146.60508
      -774.945  
 20 09 30 07 12 20.0000000  0 15G15G18G20G 8G27G24G10G13R 4R 3R13R14
                                R21R 5R20
  20783413.601   109217576.63349     -2072.770    20783413.317    85104605.19448
     -1615.147  
  21025651.457   110490537.50249     -2089.468    21025651.390    86096520.45447
     -1628.160  
  20217073.562   106241446.41949      1193.148    20217072.504    82785542.17548
       929.723  
  24743545.338   130028210.83746       877.656    24743547.462   101320697.26154
       683.886  
  23990105.092   126068852.18647      -967.917    23990107.530    98235481.47345
      -754.227  
  21375275.684   112327863.15048      2343.913    21375278.049    87528219.51847
      1826.425  
  22596410.509   118744961.31048      2811.597    22596412.421    92528559.48147
      2190.851  
  23135762.920   121579254.58048     -3323.167    23135762.743    94737083.82645
     -2589.484  
  19712290.868   105558424.56009     -1384.855    19712293.861    82101009.89008
     -1077.112  
  23129268.196   123812786.31307     -3443.757    23129273.040    96298850.64106
     -2678.480  
  21786938.565   116341041.76605      -888.969    21786942.679    90487489.32905
      -691.422  
  21737180.562   115871418.47208      2936.429    21737186.764    90122250.91407
      2283.887  
  22596198.651   120916829.84907      3206.992    22596202.996    94046443.55907
      2494.327  
  20250920.414   108252797.38709      2014.398    20250924.653    84196651.05708
      1566.749  
  20426159.827   109227857.72605     -1001.116    20426165.956    84955027.70808
      -778.468  
 20 09 30 07 12 25.0000000  0 15G15G18G20G 8G27G24G10G13R 4R 3R13R14
                                R21R 5R20
  20785386.587   109227944.71149     -2073.809    20785386.296    85112684.21348
     -1615.956  
  21027640.713   110500991.14549     -2091.409    21027640.646    86104666.15647
     -1629.675  
  20215939.301   106235485.80949      1191.809    20215938.245    82780897.54548
       928.684  
  24742711.523   130023831.04846       875.401    24742714.480   101317284.46545
       682.133  
  23991027.285   126073698.37347      -969.882    23991029.560    98239257.71945
      -755.758  
  21373046.613   112316149.30548      2342.222    21373048.949    87519091.85247
      1825.104  
  22593735.673   118730904.92548      2811.695    22593737.566    92517606.45947
      2190.925  
  23138924.974   121595871.44248     -3323.030    23138924.926    94750032.03245
     -2589.374  
  19713584.798   105565353.37009     -1385.977    19713587.753    82106398.96708
     -1077.983  
  23132484.725   123830004.71106     -3442.813    23132489.594    96312242.71806
     -2677.746  
  21787772.450   116345494.57104      -892.530    21787776.511    90490952.63205
      -694.190  
  21734427.518   115856743.29008      2934.401    21734433.728    90110836.87707
      2282.309  
  22593203.305   120900801.11607      3204.855    22593207.645    94033976.77007
      2492.664  
  20249036.943   108242729.05808      2013.655    20249041.145    84188820.14808
      1566.176  
  20427097.322   109232870.68505     -1004.547    20427103.417    84958926.66308
      -781.112  
 20 09 30 07 12 30.0000000  0 15G15G18G20G 8G27G24G10G13R 4R 3R13R14
                                R21R 5R20
  20787360.893   109238319.85249     -2076.468    20787360.612    85120768.73948
     -1618.031  
  21029631.975   110511455.29749     -2094.679    21029631.923    86112820.03948
     -1632.222  
  20214806.560   106229533.21549      1188.938    20214805.506    82776259.16648
       926.444  
  24741880.340   130019463.02946       871.624    24741882.342   101313880.81044
       679.187  
  23991951.741   126078556.51647      -973.355    23991953.916    98243043.27345
      -758.461  
  21370819.583   112304446.11848      2338.789    21370821.908    87509972.49147
      1822.433  
  22591061.046   118716849.72448      2810.297    22591062.919    92506654.35447
      2189.835  
  23142087.271   121612489.39648     -3324.566    23142087.253    94762981.07345
     -2590.573  
  19714879.969   105572288.98309     -1388.645    19714882.929    82111793.33108
     -1080.062  
  23135700.820   123847221.37206     -3444.128    23135705.830    96325633.43906
     -2678.769  
  21788609.932   116349966.33504      -897.203    21788613.957    90494430.66205
      -697.824  
  21731676.724   115842080.04208      2930.569    21731682.953    90099432.15207
      2279.331  
  22590210.177   120884784.16107      3201.344    22590214.434    94021519.13807
      2489.934  
  20247154.552   108232666.69308      2011.077    20247158.756    84180993.86408
      1564.171  
  20428038.468   109237903.32005     -1009.488    20428044.566    84962840.92808
      -785.155  
 20 09 30 07 12 35.0000000  0 15G15G18G20G 8G27G24G10G13R 4R 3R13R14
                                R21R 5R20
  20789338.464   109248712.05849     -2080.059    20789338.175    85128866.56148
     -1620.828  
  21031627.134   110521939.95549     -2098.629    21031627.101    86120989.89747
     -1635.300  
  20213677.225   106223598.58149      1185.487    20213676.174    82771634.77248
       923.758  
  24741053.163   130015116.80946       867.374    24741056.355   101310494.12845
       675.866  
  23992880.456   126083436.63348      -977.980    23992882.669    98246845.95345
      -762.069  
  21368596.439   112292763.44948      2334.729    21368598.763    87500869.11447
      1819.270  
  22588388.560   118702805.68648      2807.785    22588390.412    92495710.94647
      2187.878  
  23145251.675   121629118.38948     -3326.738    23145251.603    94775938.71745
     -2592.265  
  19716178.322   105579241.60409     -1392.020    19716181.297    82117200.92308
     -1082.695  
  23138918.551   123864446.51506     -3445.628    23138923.622    96339030.76506
     -2679.937  
  21789452.884   116354467.02504      -902.688    21789456.842    90497931.19005
      -702.094  
  21728930.053   115827438.80608      2926.172    21728936.285    90088044.51707
      2275.910  
  22587221.141   120868789.32007      3197.242    22587225.395    94009078.71207
      2486.742  
  20245275.183   108222620.44908      2008.030    20245279.383    84173180.11508
      1561.796  
  20428985.207   109242965.96105     -1015.210    20428991.328    84966778.54008
      -789.612  
 20 09 30 07 12 40.0000000  0 15G15G18G20G 8G27G24G10G13R 4R 3R13R14
                                R21R 5R20
  20791318.180   109259115.57049     -2081.702    20791317.897    85136973.18848
     -1622.109  
  21033625.104   110532439.36049     -2100.824    21033625.048    86129171.24947
     -1637.012  
  20212550.245   106217676.23049      1183.344    20212549.188    82767019.95248
       922.082  
  24740229.095   130010786.58546       864.777    24740232.958   101307119.95644
       673.851  
  23993812.194   126088332.94948      -980.445    23993814.283    98250661.28745
      -763.983  
  21366376.129   112281095.73948      2332.358    21366378.466    87491777.37147
      1817.418  
  22585717.100   118688767.06848      2807.272    22585718.956    92484771.77847
      2187.484  
  23148417.085   121645752.66648     -3327.069    23148416.985    94788900.48644
     -2592.526  
  19717478.779   105586205.42809     -1393.784    19717481.749    82122617.23108
     -1084.059  
  23142136.768   123881674.32206     -3445.316    23142141.879    96352430.15506
     -2679.694  
  21790299.879   116358990.77505      -906.843    21790304.019    90501449.66805
      -705.323  
  21726186.402   115812813.81908      2923.647    21726192.661    90076669.53207
      2273.949  
  22584235.150   120852810.70907      3194.293    22584239.407    93996650.92407
      2484.449  
  20243397.722   108212584.47108      2006.397    20243401.931    84165374.35808
      1560.530  
  20429936.348   109248052.70205     -1019.531    20429942.596    84970734.89108
      -792.969  
 20 09 30 07 12 45.0000000  0 15G15G18G20G 8G27G24G10G13R 4R 3R13R14
                                R21R 5R20
  20793299.739   109269528.69949     -2083.574    20793299.472    85145087.31648
     -1623.565  
  21035625.557   110542951.84549     -2103.698    21035625.531    86137362.79747
     -1639.246  
  20211425.268   106211764.43349      1181.308    20211424.211    82762413.36048
       920.495  
  24739407.808   130006470.59447       861.832    24739412.300   101303756.84145
       671.558  
  23994746.753   126093243.74747      -983.565    23994748.757    98254487.86745
      -766.418  
  21364158.362   112269441.22848      2329.538    21364160.682    87482695.94547
      1815.227  
  22583046.348   118674732.20349      2806.558    22583048.209    92473835.51647
      2186.926  
  23151583.184   121662390.53348     -3327.679    23151583.088    94801865.05644
     -2592.996  
  19718780.949   105593178.58809     -1395.515    19718783.929    82128040.79508
     -1085.405  
  23145355.138   123898902.88407     -3445.511    23145360.295    96365830.13806
     -2679.848  
  21791150.885   116363536.03604      -911.495    21791155.170    90504984.86905
      -708.940  
  21723445.530   115798203.39908      2920.718    21723451.761    90065305.87407
      2271.672  
  22581251.904   120836846.63407      3191.395    22581256.136    93984234.41207
      2482.269  
  20241521.878   108202557.07408      2004.761    20241526.086    84157575.27608
      1559.258  
  20430891.917   109253161.80705     -1023.800    20430898.032    84974708.63808
      -796.292  
 20 09 30 07 12 50.0000000  0 15G15G18G20G 8G27G24G10G13R 4R 3R13R14
                                R21R 5R20
  20795283.499   109279953.46149     -2086.253    20795283.245    85153210.50348
     -1625.656  
  21037628.876   110553479.42149     -2106.973    21037628.868    86145566.09747
     -1641.800  
  20210302.693   106205865.26549      1178.456    20210301.629    82757816.60648
       918.276  
  24738589.654   130002170.88546       858.241    24738593.739   101300406.43844
       668.761  
  23995684.412   126098171.08648      -987.227    23995686.344    98258327.34445
      -769.270  
  21361943.480   112257801.88349      2326.460    21361945.785    87473626.34447
      1812.828  
  22580376.702   118660703.11848      2805.145    22580378.562    92462903.76147
      2185.823  
  23154750.356   121679034.01248     -3329.175    23154750.146    94814834.00345
     -2594.164  
  19720085.300   105600163.35709     -1398.234    19720088.286    82133473.39508
     -1087.520  
  23148574.144   123916134.47306     -3446.961    23148579.311    96379232.46706
     -2680.973  
  21792006.419   116368104.66804      -915.960    21792010.691    90508538.25205
      -712.413  
  21720707.715   115783609.55207      2916.870    21720714.009    90053955.10707
      2268.675  
  22578271.726   120820899.12907      3187.680    22578275.950    93971830.80407
      2479.301  
  20239648.012   108192540.31308      2002.102    20239652.230    84149784.47108
      1557.179  
  20431851.938   109258295.47405     -1029.250    20431858.042    84978701.47208
      -800.530  
 20 09 30 07 12 55.0000000  0 15G15G18G20G 8G27G24G10G13R 4R 3R13R14
                                R21R 5R20
  20797269.286   109290388.90349     -2087.625    20797269.052    85161342.01848
     -1626.723  
  21039634.892   110564021.10249     -2109.461    21039634.861    86153780.39547
     -1643.737  
  20209182.334   106199977.76749      1176.655    20209181.285    82753228.95548
       916.874  
  24737774.461   129997886.67747       855.289    24737778.055   101297068.10044
       666.460  
  23996625.033   126103113.98847      -989.516    23996626.835    98262178.97045
      -771.051  
  21359731.329   112246176.91948      2324.097    21359733.589    87464567.92847
      1810.984  
  22577707.978   118646678.88048      2804.684    22577709.839    92451975.78547
      2185.464  
  23157918.408   121695682.14348     -3329.632    23157918.270    94827806.56944
     -2594.523  
  19721391.624   105607158.63409     -1399.702    19721394.613    82138914.16908
     -1088.656  
  23151793.519   123933367.94307     -3446.335    23151798.684    96392636.28206
     -2680.488  
  21792866.091   116372695.83004      -919.874    21792870.453    90512109.15605
      -715.460  
  21717972.879   115769031.37207      2914.629    21717979.173    90042616.52907
      2266.934  
  22575294.431   120804967.24207      3184.945    22575298.676    93959439.34907
      2477.180  
  20237775.968   108182533.22708      2000.867    20237780.183    84142001.18408
      1556.229  
  20432816.413   109263452.42105     -1033.535    20432822.434    84982712.43908
      -803.863  
 20 09 30 07 13  0.0000000  0 15G15G18G20G 8G27G24G10G13R 4R 3R13R14
                                R21R 5R20
  20799256.621   109300832.41949     -2089.973    20799256.401    85169479.81948
     -1628.551  
  21041643.108   110574574.32049     -2111.968    21041643.081    86162003.66047
     -1645.694  
  20208063.700   106194099.37049      1174.491    20208062.653    82748648.37448
       915.183  
  24736961.784   129993615.27747       853.058    24736965.557   101293739.68145
       664.715  
  23997568.107   126108069.90547      -992.789    23997569.971    98266040.70445
      -773.605  
  21357521.405   112234563.69348      2321.226    21357523.677    87455518.67547
      1808.745  
  22575039.680   118632656.90848      2803.895    22575041.535    92441049.58847
      2184.851  
  23161086.859   121712332.34348     -3330.612    23161086.742    94840780.74345
     -2595.285  
  19722699.409   105614161.70009     -1401.789    19722702.378    82144360.99808
     -1090.284  
  23155012.679   123950600.89006     -3447.141    23155017.942    96406039.68006
     -2681.112  
  21793729.409   116377306.77805      -924.574    21793733.943    90515695.44705
      -719.117  
  21715240.442   115754466.25508      2911.270    21715246.791    90031288.12107
      2264.320  
  22572319.608   120789048.39208      3182.007    22572323.824    93947058.03207
      2474.894  
  20235905.237   108172533.18908      1999.058    20235909.470    84134223.37708
      1554.819  
  20433784.627   109268630.27405     -1037.343    20433790.719    84986739.66308
      -806.824  
 20 09 30 07 13  5.0000000  0 15G15G18G20G 8G27G24G10G13R 4R 3R13R14
                                R21R 5R20
  20801246.121   109311287.31149     -2092.496    20801245.900    85177626.48448
     -1630.519  
  21043654.127   110585142.32749     -2115.340    21043654.125    86170238.48547
     -1648.316  
  20206947.433   106188233.31549      1171.640    20206946.381    82744077.42748
       912.964  
  24736151.977   129989360.12046       849.214    24736156.363   101290424.00946
       661.727  
  23998514.293   126113041.99247      -996.398    23998516.092    98269915.06545
      -776.417  
  21355314.329   112222965.39748      2317.879    21355316.605    87446481.02447
      1806.136  
  22572372.421   118618640.46148      2802.374    22572374.317    92430127.68347
      2183.668  
  23164256.316   121728987.82348     -3331.702    23164256.177    94853759.05145
     -2596.137  
  19724009.301   105621176.05109     -1404.324    19724012.273    82149816.59908
     -1092.257  
  23158232.429   123967836.31106     -3447.602    23158237.647    96419445.00106
     -2681.473  
  21794597.209   116381940.93604      -929.504    21794601.741    90519299.79105
      -722.949  
  21712511.103   115739917.46808      2907.813    21712517.459    90019972.39407
      2261.629  
  22569347.846   120773145.95907      3178.753    22569352.033    93934689.45807
      2472.359  
  20234036.470   108162543.58808      1996.312    20234040.709    84126453.69108
      1552.683  
  20434757.456   109273832.26905     -1042.930    20434763.509    84990785.65008
      -811.297  
 20 09 30 07 13 10.0000000  0 14G15G18G20G 8G24G10G13R 4R 3R13R14R21
                                R 5R20
  20803238.059   109321754.95249     -2095.319    20803237.816    85185783.08048
     -1632.722  
  21045668.230   110595726.50749     -2119.038    21045668.246    86178485.87948
     -1651.202  
  20205833.792   106182381.02949      1168.750    20205832.737    82739517.20748
       910.715  
  24735345.460   129985122.31646       845.359    24735349.878   101287121.83844
       658.723  
  21353110.412   112211383.70248      2314.159    21353112.682    87437456.32948
      1803.237  
  22569706.528   118604631.10048      2800.621    22569708.399    92419211.31946
      2182.300  
  23167427.073   121745650.07848     -3333.703    23167426.912    94866742.61745
     -2597.690  
  19725321.532   105628203.01409     -1407.035    19725324.530    82155282.00908
     -1094.363  
  23161452.961   123985075.81906     -3449.042    23161458.121    96432853.49106
     -2682.644  
  21795469.475   116386599.69205      -934.495    21795474.157    90522923.28105
      -726.831  
  21709785.150   115725386.69607      2903.520    21709791.529    90008670.70607
      2258.296  
  22566379.429   120757261.32406      3174.535    22566383.640    93922334.74805
      2469.081  
  20232169.916   108152565.91208      1993.785    20232174.188    84118693.28707
      1550.722  
  20435735.018   109279059.76403     -1048.477    20435741.085    84994851.51406
      -815.477  
 20 09 30 07 13 15.0000000  0 15G15G18G20G 8G27G24G10G13R 4R 3R13R14
                                R21R 5R20
  20805232.607   109332236.40849     -2096.629    20805232.357    85193950.45248
     -1633.742  
  21047685.625   110606328.05248     -2121.077    21047685.648    86186746.83647
     -1652.788  
  20204722.983   106176543.65849      1166.839    20204721.920    82734968.60048
       909.227  
  24734542.713   129980903.28646       842.902    24734546.901   101283834.28446
       656.809  
  24000416.960   126123041.25957     -1002.683    24000418.576    98277700.88755
      -781.309  
  21350909.803   112199819.36648      2312.030    21350912.041    87428445.16547
      1801.581  
  22567042.123   118590629.55949      2800.289    22567043.968    92408301.01447
      2182.038  
  23170599.318   121762320.12048     -3333.793    23170599.075    94879732.25245
     -2597.762  
  19726636.348   105635243.79809     -1408.711    19726639.356    82160758.18108
     -1095.664  
  23164674.449   124002320.60407     -3448.440    23164679.576    96446266.10105
     -2682.120  
  21796346.681   116391284.23804      -938.319    21796351.406    90526566.81305
      -729.804  
  21707062.766   115710874.86207      2901.266    21707069.141    89997383.70207
      2256.535  
  22563414.625   120741395.68807      3172.184    22563418.803    93909994.83207
      2467.254  
  20230305.764   108142601.01509      1992.616    20230310.060    84110942.79708
      1549.808  
  20436717.626   109284314.05305     -1052.632    20436723.662    84998938.14308
      -818.722  
 20 09 30 07 13 20.0000000  0 15G15G18G20G 8G27G24G10G13R 4R 3R13R14
                                R21R 5R20
  20807228.499   109342724.86149     -2098.851    20807228.229    85202123.27848
     -1635.473  
  21049704.996   110616939.91749     -2123.788    21049705.024    86195015.81247
     -1654.906  
  20203613.686   106170714.29549      1164.668    20203612.632    82730426.25148
       907.534  
  24733742.221   129976695.92246       839.562    24733745.804   101280555.79945
       654.211  
  24001372.324   126128061.63847     -1005.757    24001373.951    98281612.92846
      -783.702  
  21348711.213   112188265.63148      2309.155    21348713.437    87419442.24948
      1799.340  
  22564377.975   118576629.33448      2799.601    22564379.824    92397391.75747
      2181.507  
  23173771.711   121778991.12648     -3334.917    23173771.462    94892722.64545
     -2598.640  
  19727952.391   105642291.27009     -1410.613    19727955.429    82166239.55008
     -1097.147  
  23167895.567   124019563.68607     -3448.766    23167900.711    96459677.37706
     -2682.379  
  21797227.419   116395987.51404      -942.555    21797232.191    90530224.90705
      -733.102  
  21704342.632   115696375.07508      2898.323    21704349.008    89986106.11307
      2254.253  
  22560451.961   120725542.12208      3168.582    22560456.185    93897664.28007
      2464.452  
  20228442.759   108132642.18509      1990.690    20228447.065    84103197.05308
      1548.316  
  20437703.867   109289587.99105     -1057.113    20437709.914    85003040.09208
      -822.202  
 20 09 30 07 13 25.0000000  0 15G15G18G20G 8G27G24G10G13R 4R 3R13R14
                                R21R 5R20
  20809226.297   109353223.32749     -2100.589    20809226.002    85210303.88748
     -1636.827  
  21051726.964   110627565.34048     -2126.300    21051726.992    86203295.37147
     -1656.858  
  20202506.512   106164896.05549      1162.496    20202505.459    82725892.56248
       905.840  
  24732944.364   129972503.31246       837.081    24732947.546   101277288.81845
       652.245  
  24002330.478   126133096.86647     -1008.645    24002332.107    98285536.44845
      -785.960  
  21346515.234   112176725.68648      2306.698    21346517.480    87410450.10747
      1797.429  
  22561714.641   118562633.42048      2798.871    22561716.491    92386485.85546
      2180.938  
  23176944.885   121795666.14248     -3335.230    23176944.602    94905716.15645
     -2598.891  
  19729270.291   105649348.62909     -1412.276    19729273.352    82171728.59108
     -1098.441  
  23171116.947   124036808.01906     -3448.934    23171122.081    96473089.62906
     -2682.508  
  21798112.401   116400712.55305      -946.823    21798117.025    90533899.93905
      -736.421  
  21701625.333   115681890.43608      2895.558    21701631.717    89974840.27307
      2252.097  
  22557492.147   120709703.62207      3166.280    22557496.373    93885345.43707
      2462.687  
  20226581.443   108122692.42008      1989.112    20226585.757    84095458.35207
      1547.090  
  20438694.441   109294884.72304     -1061.542    20438700.428    85007159.79707
      -825.644  
 20 09 30 07 13 30.0000000  0 15G15G18G20G 8G27G24G10G13R 4R 3R13R14
                                R21R 5R20
  20811225.441   109363728.83449     -2101.636    20811225.137    85218490.01248
     -1637.640  
  21053750.892   110638201.11949     -2128.211    21053750.916    86211582.97147
     -1658.354  
  20201400.882   106159085.90049      1161.508    20201399.829    82721365.16248
       905.065  
  24732148.735   129968322.47547       834.973    24732152.152   101274031.03044
       650.629  
  24003290.939   126138144.12448     -1010.366    24003292.496    98289469.39146
      -787.305  
  21344321.313   112165196.48848      2304.874    21344323.551    87401466.30347
      1796.008  
  22559051.535   118548638.73548      2798.891    22559053.378    92375580.91347
      2180.952  
  23180118.230   121812342.08748     -3334.983    23180117.892    94918710.40345
     -2598.688  
  19730589.473   105656412.88409     -1413.460    19730592.549    82177223.02808
     -1099.359  
  23174338.084   124054050.64106     -3447.957    23174343.132    96486500.55306
     -2681.750  
  21799000.804   116405456.45205      -950.367    21799005.421    90537589.64405
      -739.176  
  21698910.288   115667417.90907      2893.391    21698916.702    89963583.87307
      2250.413  
  22554534.610   120693877.30907      3164.207    22554538.857    93873036.11907
      2461.054  
  20224721.254   108112748.63908      1988.230    20224725.583    84087724.30407
      1546.398  
  20439688.665   109300201.19004     -1065.629    20439694.611    85011294.79107
      -828.831  
 20 09 30 07 13 35.0000000  0 15G15G18G20G 8G27G24G10G13R 4R 3R13R14
                                R21R 5R20
  20813226.384   109374243.83249     -2104.633    20813226.078    85226683.49748
     -1639.976  
  21055777.304   110648849.95849     -2131.729    21055777.336    86219880.76047
     -1661.094  
  20200297.282   106153286.41249      1158.292    20200296.231    82716846.08248
       902.566  
  24731355.867   129964156.14346       830.878    24731359.476   101270784.55845
       647.438  
  24004254.129   126143205.75247     -1014.102    24004255.714    98293413.48446
      -790.219  
  21342129.912   112153680.59849      2301.332    21342132.151    87392492.88947
      1793.246  
  22556389.161   118534647.89548      2797.129    22556391.018    92364678.96347
      2179.609  
  23183292.257   121829021.58948     -3336.929    23183291.855    94931707.44045
     -2600.202  
  19731910.394   105663486.41809     -1416.272    19731913.463    82182724.65408
     -1101.551  
  23177559.353   124071294.00107     -3449.359    23177564.335    96499912.08106
     -2682.835  
  21799893.158   116410221.78604      -955.281    21799897.804    90541296.00005
      -743.000  
  21696198.009   115652960.12408      2889.523    21696204.440    89952338.91507
      2247.401  
  22551579.817   120678065.61407      3160.023    22551584.055    93860738.12906
      2457.797  
  20222862.658   108102813.47508      1985.602    20222867.013    84079996.95408
      1544.352  
  20440687.105   109305539.92305     -1070.465    20440692.991    85015447.15208
      -832.586  
 20 09 30 07 13 40.0000000  0 15G15G18G20G 8G27G24G10G13R 4R 3R13R14
                                R21R 5R20
  20815230.389   109384774.82549     -2107.315    20815230.054    85234889.47748
     -1642.066  
  21057807.406   110659518.24848     -2135.257    21057807.462    86228193.72547
     -1663.836  
  20199196.963   106147504.03749      1154.969    20199195.892    82712340.34348
       899.976  
  24730566.915   129960010.66947       827.969    24730570.959   101267554.33845
       645.171  
  24005221.261   126148288.25047     -1018.101    24005222.913    98297373.87745
      -793.327  
  21339942.310   112142184.57948      2297.491    21339944.522    87383534.94347
      1790.249  
  22553728.731   118520667.33648      2795.413    22553730.630    92353785.02847
      2178.246  
  23186468.179   121845711.07748     -3338.913    23186467.757    94944712.19645
     -2601.754  
  19733234.350   105670576.01909     -1419.054    19733237.407    82188238.80308
     -1103.711  
  23180782.044   124088544.94806     -3450.741    23180786.973    96513329.42906
     -2683.917  
  21800790.703   116415015.03304      -961.429    21800795.415    90545024.07105
      -747.780  
  21693489.718   115638523.65908      2885.581    21693496.180    89941110.57807
      2244.339  
  22548628.994   120662275.31807      3156.574    22548633.215    93848456.81807
      2455.113  
  20221006.955   108092893.55208      1982.788    20221011.310    84072281.46308
      1542.167  
  20441690.826   109310907.49005     -1076.691    20441696.745    85019621.92407
      -837.430  
 20 09 30 07 13 45.0000000  0 15G15G18G20G 8G27G24G10G13R 4R 3R13R14
                                R21R 5R20
  20817236.377   109395316.23749     -2109.175    20817236.034    85243103.56848
     -1643.516  
  21059840.146   110670200.36848     -2137.413    21059840.214    86236517.43847
     -1665.519  
  20198098.817   106141733.24449      1153.156    20198097.731    82707843.62248
       898.563  
  24729781.029   129955880.47147       824.968    24729785.049   101264335.98244
       642.828  
  24006191.378   126153386.15747     -1020.628    24006192.999    98301346.27846
      -795.301  
  21337757.381   112130702.73048      2295.073    21337759.577    87374588.05348
      1788.366  
  22551069.219   118506691.53848      2795.121    22551071.124    92342894.79647
      2178.011  
  23189644.918   121862404.89448     -3338.973    23189644.564    94957720.37745
     -2601.801  
  19734560.205   105677675.81609     -1420.738    19734563.228    82193760.85908
     -1105.022  
  23184005.018   124105797.46707     -3450.531    23184009.905    96526748.06005
     -2683.749  
  21801692.438   116419830.56105      -965.101    21801697.215    90548769.50605
      -750.632  
  21690784.350   115624102.83608      2882.812    21690790.854    89929894.38107
      2242.184  
  22545681.060   120646500.64407      3153.672    22545685.330    93836187.61607
      2452.855  
  20219153.000   108082983.13208      1981.270    20219157.372    84064573.37308
      1540.987  
  20442698.993   109316298.36205     -1080.503    20442704.862    85023814.81008
      -840.394  
 20 09 30 07 13 50.0000000  0 15G15G18G20G 8G27G24G10G13R 4R 3R13R14
                                R21R 5R20
  20819244.278   109405867.79549     -2111.808    20819243.928    85251325.55748
     -1645.570  
  21061875.473   110680896.08549     -2140.952    21061875.556    86244851.73347
     -1668.277  
  20197002.817   106135973.72349      1150.269    20197001.734    82703355.66748
       896.308  
  24728997.967   129951765.29446       820.914    24729001.645   101261129.32544
       639.663  
  24007164.312   126158499.05347     -1024.573    24007165.941    98305330.34745
      -798.374  
  21335575.101   112119234.80248      2291.776    21335577.297    87365652.01547
      1785.800  
  22548410.551   118492720.20449      2793.414    22548412.473    92332008.03047
      2176.683  
  23192822.432   121879102.81048     -3340.543    23192822.014    94970731.75444
     -2603.020  
  19735887.907   105684785.63009     -1423.495    19735890.921    82199290.71708
     -1107.164  
  23187228.316   124123051.56207     -3451.171    23187233.112    96540167.93206
     -2684.245  
  21802598.361   116424668.17305      -970.714    21802603.182    90552532.09305
      -754.999  
  21688081.926   115609697.46007      2878.848    21688088.446    89918690.21407
      2239.105  
  22542736.072   120630741.35407      3150.063    22542740.350    93823930.37907
      2450.043  
  20217300.802   108073082.01109      1978.762    20217305.159    84056872.48608
      1539.047  
  20443711.386   109321712.17605     -1085.477    20443717.283    85028025.56708
      -844.257  
 20 09 30 07 13 55.0000000  0 15G15G18G20G 8G27G24G10G13R 4R 3R13R14
                                R21R 5R20
  20821254.400   109416430.99749     -2113.425    20821254.046    85259556.62048
     -1646.827  
  21063913.679   110691606.89649     -2143.164    21063913.764    86253197.82248
     -1669.999  
  20195909.263   106130226.99549      1148.387    20195908.168    82698877.69748
       894.844  
  24728217.938   129947666.55546       818.574    24728221.439   101257935.50845
       637.847  
  24008140.428   126163628.51347     -1027.418    24008142.077    98309327.33345
      -800.585  
  21333395.780   112107782.39548      2289.241    21333397.986    87356728.06847
      1783.823  
  22545753.022   118478754.82948      2792.914    22545754.961    92321125.93446
      2176.297  
  23196001.011   121895806.32548     -3340.878    23196000.554    94983747.46844
     -2603.285  
  19737217.769   105691907.07809     -1424.969    19737220.791    82204829.61308
     -1108.313  
  23190452.095   124140308.67207     -3451.227    23190456.901    96553590.10106
     -2684.293  
  21803508.623   116429529.16904      -973.992    21803513.489    90556312.86405
      -757.555  
  21685382.691   115595309.05008      2876.484    21685389.200    89907499.22007
      2237.261  
  22539794.286   120614999.10807      3147.227    22539798.539    93811686.42507
      2447.843  
  20215450.600   108063191.65208      1977.304    20215454.947    84049179.98207
      1537.897  
  20444728.330   109327150.39105     -1089.730    20444734.274    85032255.30108
      -847.565  
 20 09 30 07 14  0.0000000  0 15G15G18G20G 8G27G24G10G13R 4R 3R13R14
                                R21R 5R20
  20823266.268   109427003.37349     -2115.409    20823265.919    85267794.84148
     -1648.370  
  21065954.282   110702330.36749     -2145.745    21065954.351    86261553.77947
     -1672.016  
  20194817.678   106124490.65049      1146.230    20194816.582    82694407.83248
       893.168  
  24727440.656   129943581.88047       815.628    24727443.989   101254752.67144
       635.554  
  24009119.192   126168772.05047     -1030.226    24009120.821    98313335.28545
      -802.772  
  21331218.936   112096343.03448      2286.687    21331221.141    87347814.28348
      1781.831  
  22543096.168   118464793.02748      2792.105    22543098.089    92310246.61047
      2175.667  
  23199180.197   121912512.96248     -3341.749    23199179.699    94996765.62945
     -2603.964  
  19738549.327   105699037.57009     -1426.886    19738552.347    82210375.55508
     -1109.800  
  23193676.019   124157566.27907     -3451.526    23193680.754    96567012.69106
     -2684.523  
  21804422.957   116434411.16204      -978.522    21804427.722    90560109.97005
      -761.077  
  21682686.182   115580935.20108      2873.440    21682692.704    89896319.56707
      2234.898  
  22536855.132   120599271.19408      3144.605    22536859.391    93799453.61807
      2445.809  
  20213602.003   108053309.74708      1975.660    20213606.350    84041494.06808
      1536.616  
  20445749.315   109332610.55305     -1094.007    20445755.356    85036502.07908
      -850.898  
 20 09 30 07 14  5.0000000  0 15G15G18G20G 8G27G24G10G13R 4R 3R13R14
                                R21R 5R20
  20825280.036   109437585.79449     -2117.512    20825279.686    85276040.88348
     -1650.011  
  21067997.449   110713067.31549     -2148.925    21067997.537    86269920.22148
     -1674.492  
  20193728.245   106118765.54649      1143.723    20193727.131    82689946.71348
       891.210  
  24726666.245   129939512.16646       812.065    24726669.718   101251581.44245
       632.773  
  24010100.774   126173930.54447     -1033.043    24010102.533    98317354.88646
      -804.973  
  21329044.761   112084917.66648      2283.573    21329046.989    87338911.39847
      1779.406  
  22540440.140   118450835.63348      2790.862    22540442.094    92299370.72547
      2174.698  
  23202360.129   121929223.58948     -3342.581    23202359.648    95009786.89545
     -2604.608  
  19739882.717   105706177.97109     -1429.261    19739885.782    82215929.20508
     -1111.648  
  23196900.229   124174825.13407     -3452.113    23196904.858    96580436.23306
     -2684.979  
  21805341.263   116439315.11304      -982.844    21805346.081    90563924.14905
      -764.438  
  21679992.576   115566576.76508      2869.940    21679999.122    89885151.89907
      2232.176  
  22533918.844   120583558.71007      3140.793    22533923.168    93787232.80107
      2442.839  
  20211755.081   108043436.88809      1973.512    20211759.436    84033815.18108
      1534.952  
  20446774.579   109338093.53905     -1099.105    20446780.694    85040766.62208
      -854.781  
 20 09 30 07 14 10.0000000  0 15G15G18G20G 8G27G24G10G13R 4R 3R13R14
                                R21R 5R20
  20827295.983   109448179.66649     -2119.628    20827295.638    85284295.83848
     -1651.664  
  21070043.463   110723819.16249     -2151.598    21070043.530    86278298.28347
     -1676.574  
  20192641.199   106113053.08249      1141.425    20192640.070    82685495.44448
       889.421  
  24725894.955   129935458.76447       809.441    24725898.498   101248422.95445
       630.707  
  24011085.523   126179105.40648     -1036.550    24011087.328    98321387.23745
      -807.706  
  21326873.506   112073507.64848      2280.672    21326875.727    87330020.47847
      1777.148  
  22537785.239   118436884.06648      2790.101    22537787.207    92288499.37447
      2174.008  
  23205541.092   121945939.66448     -3343.449    23205540.571    95022812.40044
     -2605.289  
  19741218.272   105713329.77409     -1431.203    19741221.330    82221491.71408
     -1113.159  
  23200124.922   124192086.94908     -3452.438    23200129.532    96593862.08706
     -2685.233  
  21806264.009   116444242.37104      -987.401    21806268.797    90567756.45405
      -767.983  
  21677302.181   115552235.19308      2866.823    21677308.694    89873997.34307
      2229.750  
  22530985.756   120567863.13107      3137.651    22530990.082    93775025.13107
      2440.394  
  20209910.162   108033574.77008      1971.730    20209914.523    84026144.64708
      1533.565  
  20447804.395   109343600.74205     -1103.910    20447810.561    85045049.99908
      -858.601  
 20 09 30 07 14 15.0000000  0 15G15G18G20G 8G27G24G10G13R 4R 3R13R14
                                R21R 5R20
  20829314.030   109458784.54349     -2122.180    20829313.680    85292559.38248
     -1653.652  
  21072092.216   110734585.49149     -2154.890    21072092.301    86286687.62647
     -1679.141  
  20191556.484   106107352.86649      1138.722    20191555.362    82681053.71448
       887.313  
  24725126.631   129931421.16046       805.894    24725130.100   101245276.77545
       627.969  
  24012073.294   126184296.17747     -1039.987    24012075.069    98325432.00045
      -810.378  
  21324705.094   112062112.53448      2277.128    21324707.317    87321141.16748
      1774.387  
  22535131.357   118422937.94648      2788.410    22535133.335    92277632.27447
      2172.789  
  23208722.993   121962660.72548     -3344.874    23208722.509    95035841.80844
     -2606.395  
  19742555.859   105720492.46109     -1433.828    19742558.912    82227062.69508
     -1115.202  
  23203350.077   124209351.08306     -3453.137    23203354.637    96607289.73606
     -2685.776  
  21807191.031   116449192.52304      -992.684    21807195.833    90571606.58005
      -772.086  
  21674614.849   115537910.04908      2863.253    21674621.343    89862855.57007
      2226.973  
  22528055.697   120552183.92308      3134.152    22528060.043    93762830.20507
      2437.676  
  20208067.148   108023722.83609      1969.206    20208071.515    84018482.03108
      1531.604  
  20448838.700   109349131.94905     -1109.031    20448844.931    85049352.04308
      -862.569  
 20 09 30 07 14 20.0000000  0 15G15G18G20G 8G27G24G10G13R 4R 3R13R14
                                R21R 5R20
  20831333.856   109469398.83349     -2123.773    20831333.497    85300830.25748
     -1654.886  
  21074143.420   110745364.67149     -2157.156    21074143.523    86295086.97548
     -1680.906  
  20190473.788   106101663.28949      1136.934    20190472.673    82676620.28248
       885.921  
  24724360.990   129927397.94146       803.093    24724364.461   101242141.82944
       625.792  
  24013063.783   126189501.29447     -1042.344    24013065.584    98329487.92745
      -812.218  
  21322539.229   112050730.80349      2275.027    21322541.433    87312272.29847
      1772.749  
  22532478.218   118408995.63848      2788.136    22532480.217    92266768.13647
      2172.569  
  23211905.543   121979385.13848     -3345.034    23211904.986    95048873.80345
     -2606.523  
  19743895.185   105727664.52009     -1435.293    19743898.227    82232640.95808
     -1116.343  
  23206575.371   124226615.98807     -3453.066    23206579.872    96620717.98906
     -2685.723  
  21808122.015   116454164.05005      -996.651    21808126.840    90575473.32305
      -775.179  
  21671930.266   115523599.74108      2860.765    21671936.767    89851725.33607
      2225.039  
  22525128.370   120536519.54807      3131.405    22525132.779    93750646.79607
      2435.534  
  20206225.729   108013879.49309      1967.883    20206230.116    84010826.10408
      1530.574  
  20449877.174   109354685.19505     -1112.668    20449883.408    85053671.23508
      -865.414  
 20 09 30 07 14 25.0000000  0 15G15G18G20G 8G27G24G10G13R 4R 3R13R14
                                R21R 5R20
  20833355.679   109480023.55549     -2126.055    20833355.292    85309109.26548
     -1656.663  
  21076197.274   110756157.71949     -2160.172    21076197.401    86303497.13647
     -1683.254  
  20189393.317   106095985.37649      1134.319    20189392.195    82672195.93648
       883.887  
  24723598.299   129923390.15946       799.754    24723601.636   101239018.87745
       623.184  
  24014057.202   126194721.71548     -1045.683    24014058.984    98333555.76745
      -814.824  
  21320376.085   112039363.53248      2272.003    21320378.312    87303414.68048
      1770.391  
  22529825.987   118395058.19448      2786.945    22529828.020    92255907.80247
      2171.644  
  23215088.906   121996113.95248     -3346.229    23215088.420    95061909.24345
     -2607.457  
  19745236.426   105734846.80709     -1437.593    19745239.454    82238227.18608
     -1118.129  
  23209800.963   124243882.68107     -3453.609    23209805.437    96634147.64706
     -2686.141  
  21809057.058   116459157.78604     -1000.999    21809062.022    90579357.34005
      -778.554  
  21669248.714   115509305.40108      2857.237    21669255.193    89840607.51807
      2222.297  
  22522204.011   120520871.08407      3128.008    22522208.501    93738475.78706
      2432.894  
  20204386.109   108004045.73008      1965.711    20204390.507    84003177.62008
      1528.882  
  20450920.060   109360261.72905     -1117.640    20450926.246    85058008.53208
      -869.156  
 20 09 30 07 14 30.0000000  0 15G15G18G20G 8G27G24G10G13R 4R 3R13R14
                                R21R 5R20
  20835379.560   109490659.09149     -2128.145    20835379.158    85317396.68748
     -1658.296  
  21078253.849   110766965.03149     -2162.917    21078253.974    86311918.42847
     -1685.394  
  20188315.145   106090319.54549      1131.909    20188314.024    82667781.00848
       882.007  
  24722838.644   129919398.11546       796.647    24722841.799   101235908.19245
       620.765  
  24015053.613   126199957.92247     -1048.844    24015055.323    98337635.95345
      -817.280  
  21318215.730   112028010.91448      2268.996    21318217.986    87294568.50547
      1768.051  
  22527174.785   118381126.03148      2785.862    22527176.819    92245051.57747
      2170.800  
  23218273.154   122012847.56947     -3347.019    23218272.628    95074948.41844
     -2608.070  
  19746579.680   105742039.87309     -1439.694    19746582.701    82243821.79308
     -1119.719  
  23213027.068   124261151.58206     -3453.554    23213031.448    96647579.00406
     -2686.098  
  21809996.326   116464174.14005     -1005.402    21810001.426    90583258.92905
      -781.984  
  21666570.161   115495027.36308      2853.926    21666576.689    89829502.39807
      2219.718  
  22519282.673   120505238.88407      3124.715    22519287.226    93726317.42807
      2430.332  
  20202548.428   107994222.11708      1963.695    20202552.788    83995537.02808
      1527.316  
  20451967.308   109365861.96005     -1122.621    20451973.515    85062364.25808
      -873.152  
 20 09 30 07 14 35.0000000  0 15G15G18G20G 8G27G24G10G13R 4R 3R13R14
                                R21R 5R20
  20837405.344   109501304.68649     -2130.141    20837404.925    85325691.95848
     -1659.851  
  21080313.003   110777785.86349     -2165.547    21080313.084    86320350.23447
     -1687.440  
  20187239.120   106084665.02849      1129.671    20187238.013    82663374.89148
       880.262  
  24722081.855   129915421.13147       793.905    24722085.088   101232809.21145
       618.624  
  24016052.892   126205209.07847     -1051.878    24016054.578    98341727.73445
      -819.652  
  21316058.078   112016672.40848      2266.199    21316060.325    87285733.30747
      1765.870  
  22524524.436   118367198.38748      2784.910    22524526.492    92234198.87147
      2170.059  
  23221458.188   122029585.19248     -3347.992    23221457.692    95087990.72245
     -2608.823  
  19747924.792   105749242.94809     -1441.699    19747927.824    82249424.18308
     -1121.313  
  23216253.336   124278421.86308     -3454.406    23216257.688    96661011.44006
     -2686.765  
  21810939.876   116469212.49004     -1009.895    21810944.927    90587177.65405
      -785.477  
  21663894.577   115480764.96508      2850.715    21663901.113    89818409.41507
      2217.223  
  22516364.340   120489622.26607      3121.847    22516368.838    93714171.15307
      2428.102  
  20200712.426   107984407.69608      1961.773    20200716.800    83987903.59808
      1525.823  
  20453018.786   109371484.99805     -1127.191    20453025.045    85066737.73308
      -876.707  
 20 09 30 07 14 40.0000000  0 15G15G18G20G 8G27G24G10G13R 4R 3R13R14
                                R21R 5R20
  20839433.204   109511961.16449     -2132.269    20839432.775    85333995.69948
     -1661.511  
  21082374.875   110788621.04149     -2168.684    21082374.972    86328793.22747
     -1689.886  
  20186165.408   106079022.69549      1127.207    20186164.319    82658978.26248
       878.339  
  24721328.113   129911460.03246       791.031    24721331.353   101229722.63344
       616.382  
  24017055.141   126210476.05547     -1055.046    24017056.865    98345831.86945
      -822.116  
  21313903.274   112005348.89748      2263.081    21313905.523    87276909.78447
      1763.437  
  22521875.106   118353276.09548      2783.859    22521877.184    92223350.33447
      2169.237  
  23224644.138   122046327.65847     -3348.980    23224643.660    95101036.79145
     -2609.598  
  19749271.905   105756456.74009     -1444.081    19749274.941    82255034.90808
     -1123.179  
  23219480.089   124295694.39207     -3454.425    23219484.313    96674445.63406
     -2686.781  
  21811887.722   116474273.65105     -1014.289    21811892.722    90591114.12305
      -788.891  
  21661222.062   115466518.98808      2847.473    21661228.600    89807329.19407
      2214.694  
  22513449.066   120474022.13707      3118.484    22513453.543    93702037.71607
      2425.484  
  20198878.312   107974603.49208      1959.741    20198882.707    83980278.11208
      1524.242  
  20454074.781   109377131.62505     -1132.117    20454080.993    85071129.55808
      -880.534  
 20 09 30 07 14 45.0000000  0 15G15G18G20G 8G27G24G10G13R 4R 3R13R14
                                R21R 5R20
  20841463.087   109522628.30149     -2134.229    20841462.649    85342307.75548
     -1663.039  
  21084439.418   110799470.32249     -2170.968    21084439.498    86337247.20647
     -1691.667  
  20185093.984   106073392.38349      1125.238    20185092.899    82654591.00748
       876.808  
  24720577.361   129907514.64846       788.089    24720580.628   101226648.35244
       614.097  
  24018060.377   126215758.57247     -1057.734    24018062.100    98349948.10845
      -824.211  
  21311751.251   111994040.00548      2260.574    21311753.488    87268097.65347
      1761.484  
  22519226.757   118339358.95948      2783.336    22519228.856    92212505.81047
      2168.827  
  23227830.982   122063074.70148     -3349.667    23227830.509    95114086.43644
     -2610.137  
  19750620.992   105763681.16109     -1445.484    19750624.057    82260653.89708
     -1124.269  
  23222707.178   124312968.93708     -3454.948    23222711.328    96687881.36106
     -2687.191  
  21812839.589   116479357.29004     -1018.421    21812844.739    90595068.06105
      -792.108  
  21658552.553   115452289.22108      2844.710    21658559.152    89796261.61807
      2212.554  
  22510536.804   120458438.19107      3115.312    22510541.332    93689916.89507
      2423.022  
  20197046.076   107964809.23608      1958.269    20197050.490    83972660.36308
      1523.097  
  20455135.206   109382801.81805     -1135.703    20455141.348    85075539.70608
      -883.327  
 20 09 30 07 14 50.0000000  0 15G15G18G20G 8G27G24G10G13R 4R 3R13R14
                                R21R 5R20
  20843494.809   109533305.03949     -2136.094    20843494.358    85350627.29448
     -1664.488  
  21086506.465   110810332.69549     -2173.660    21086506.546    86345711.39247
     -1693.765  
  20184024.642   106067773.01949      1122.930    20184023.547    82650212.28348
       875.008  
  24719829.418   129903583.90146       784.784    24719832.661   101223585.39745
       611.511  
  24019068.367   126221055.66047     -1060.616    24019070.064    98354075.71045
      -826.457  
  21309601.831   111982744.82048      2257.852    21309604.102    87259296.21447
      1759.359  
  22516579.190   118325445.99148      2782.316    22516581.295    92201664.55247
      2168.038  
  23231018.462   122079825.33347     -3350.335    23231018.106    95127138.86345
     -2610.659  
  19751971.883   105770915.15509     -1447.652    19751974.969    82266280.33508
     -1125.957  
  23225934.466   124330244.58207     -3454.852    23225938.552    96701317.98506
     -2687.104  
  21813795.676   116484462.46204     -1022.965    21813800.803    90599038.74905
      -795.645  
  21655885.919   115438074.74908      2841.695    21655892.570    89785205.92207
      2210.207  
  22507627.397   120442869.46007      3112.401    22507631.925    93677807.87607
      2420.758  
  20195215.518   107955023.82309      1956.250    20195219.919    83965049.48608
      1521.526  
  20456199.751   109388494.32705     -1140.362    20456205.883    85079967.21408
      -886.953  
 20 09 30 07 14 55.0000000  0 15G15G18G20G 8G27G24G10G13R 4R 3R13R14
                                R21R 5R20
  20845528.297   109543991.06349     -2138.137    20845527.818    85358954.06648
     -1666.086  
  21088575.923   110821207.80049     -2176.269    21088576.008    86354185.49547
     -1695.797  
  20182957.322   106062164.24549      1120.684    20182956.225    82645841.81148
       873.261  
  24719084.135   129899667.34747       781.796    24719087.303   101220533.56144
       609.191  
  24020079.064   126226366.96847     -1063.891    24020080.788    98358214.39045
      -829.003  
  21307454.953   111971462.99048      2254.972    21307457.220    87250505.18547
      1757.120  
  22513932.367   118311536.81448      2781.504    22513934.489    92190826.23047
      2167.405  
  23234206.574   122096579.19347     -3351.160    23234206.273    95140193.81145
     -2611.297  
  19753324.485   105778158.33809     -1449.651    19753327.575    82271913.92108
     -1127.511  
  23229161.860   124347520.82707     -3455.214    23229165.875    96714755.05906
     -2687.395  
  21814755.704   116489588.89404     -1027.077    21814760.802    90603025.96605
      -798.843  
  21653222.105   115423875.15308      2838.511    21653228.777    89774161.79207
      2207.730  
  22504720.821   120427315.66007      3109.219    22504725.327    93665710.47907
      2418.276  
  20193386.555   107945246.93408      1954.539    20193390.942    83957445.23808
      1520.190  
  20457268.401   109394209.09905     -1145.539    20457274.558    85084412.03108
      -890.979  
 20 09 30 07 15  0.0000000  0 15G15G18G20G 8G27G24G10G13R 4R 3R13R14
                                R21R 5R20
  20847564.281   109554690.26349     -2140.808    20847563.799    85367291.10148
     -1668.168  
  21090648.562   110832099.56149     -2179.710    21090648.655    86362672.57547
     -1698.480  
  20181892.784   106056570.05849      1117.785    20181891.686    82641482.70248
       870.996  
  24718342.308   129895768.92846       778.730    24718345.334   101217495.82345
       606.801  
  24021093.222   126231696.34347     -1067.414    24021095.010    98362367.15045
      -831.754  
  21305311.377   111960198.45348      2251.565    21305313.658    87241727.62647
      1754.469  
  22511287.012   118297635.37748      2779.930    22511289.118    92179993.94447
      2166.176  
  23237396.064   122113340.23047     -3352.668    23237395.834    95153254.34445
     -2612.472  
  19754679.561   105785414.64809     -1452.429    19754682.654    82277557.71508
     -1129.672  
  23232390.143   124364801.73207     -3456.434    23232394.085    96728195.75706
     -2688.340  
  21815720.448   116494740.44904     -1032.090    21815725.516    90607032.73205
      -802.742  
  21650561.868   115409694.55908      2834.327    21650568.529    89763132.45407
      2204.477  
  22501817.772   120411780.64207      3105.406    22501822.262    93653627.69607
      2415.312  
  20191559.946   107935482.66609      1951.956    20191564.327    83949850.81208
      1518.188  
  20458341.943   109399949.71605     -1150.167    20458348.082    85088876.95308
      -894.577  
 20 09 30 07 15  5.0000000  0 15G15G18G20G 8G27G24G10G13R 4R 3R13R14
                                R21R 5R20
  20849602.093   109565398.93949     -2142.499    20849601.600    85375635.52548
     -1669.484  
  21092723.647   110843004.17749     -2181.948    21092723.727    86371169.68047
     -1700.219  
  20180830.268   106050986.62349      1115.671    20180829.195    82637131.97648
       869.352  
  24717603.251   129891885.06446       775.262    24717606.281   101214469.43045
       604.098  
  24022110.088   126237040.07247     -1069.933    24022111.873    98366531.09645
      -833.718  
  21303170.343   111948947.37348      2249.050    21303172.613    87232960.56047
      1752.508  
