     2.11           OBSERVATION DATA    M                   RINEX VERSION / TYPE
LEICA GEO OFFICE 8.4                    4-10-20 00:24       PGM / RUN BY / DATE
                                                            OBSERVER / AGENCY
UGL1                                                        MARKER NAME
UGL1                                                        MARKER NUMBER
470879              LEICA GX1230GG      8.50                REC # / TYPE / VERS
                    LEIAX1203+GNSS                          ANT # / TYPE
 -1194789.2426  3840599.9392  4934480.3357                  APPROX POSITION XYZ
        1.3250        0.0000        0.0000                  ANTENNA: DELTA H/E/N
L1PhaOff:   0.0585  L2PhaOff:   0.0555                      COMMENT
     1     1                                                WAVELENGTH FACT L1/2
     8    C1    L1    D1    S1    P2    L2    D2    S2      # / TYPES OF OBSERV
  2020    10     3     8    22    0.0000000     GPS         TIME OF FIRST OBS
  2020    10     3     9    55    5.0000000     GPS         TIME OF LAST OBS
    18                                                      LEAP SECONDS
    22                                                      # OF SATELLITES
          C1    L1    D1    S1    P2    L2    D2    S2      COMMENT
   G 1   494   494   494   494   494   494   494   494      PRN / # OF OBS
   G 2     0     0     0     0     0     0     0     0      PRN / # OF OBS
   G 3     0     0     0     0     0     0     0     0      PRN / # OF OBS
   G 4     0     0     0     0     0     0     0     0      PRN / # OF OBS
   G 5     0     0     0     0     0     0     0     0      PRN / # OF OBS
   G 6     0     0     0     0     0     0     0     0      PRN / # OF OBS
   G 7     0     0     0     0     0     0     0     0      PRN / # OF OBS
   G 8     0     0     0     0     0     0     0     0      PRN / # OF OBS
   G 9     0     0     0     0     0     0     0     0      PRN / # OF OBS
   G10  1118  1118  1118  1118  1118  1118  1118  1118      PRN / # OF OBS
   G11  1049  1049  1049  1049  1049  1049  1049  1049      PRN / # OF OBS
   G12  1048  1048  1048  1048  1047  1047  1047  1047      PRN / # OF OBS
   G13     0     0     0     0     0     0     0     0      PRN / # OF OBS
   G14     0     0     0     0     0     0     0     0      PRN / # OF OBS
   G15   421   421   421   421   421   421   421   421      PRN / # OF OBS
   G16     0     0     0     0     0     0     0     0      PRN / # OF OBS
   G17     0     0     0     0     0     0     0     0      PRN / # OF OBS
   G18   177   177   177   177   176   176   176   176      PRN / # OF OBS
   G19     0     0     0     0     0     0     0     0      PRN / # OF OBS
   G20  1118  1118  1118  1118  1118  1118  1118  1118      PRN / # OF OBS
   G21  1118  1118  1118  1118  1118  1118  1118  1118      PRN / # OF OBS
   G22     0     0     0     0     0     0     0     0      PRN / # OF OBS
   G23  1118  1118  1118  1118  1118  1118  1118  1118      PRN / # OF OBS
   G24  1118  1118  1118  1118  1118  1118  1118  1118      PRN / # OF OBS
   G25     0     0     0     0     0     0     0     0      PRN / # OF OBS
   G26     0     0     0     0     0     0     0     0      PRN / # OF OBS
   G27     0     0     0     0     0     0     0     0      PRN / # OF OBS
   G28     0     0     0     0     0     0     0     0      PRN / # OF OBS
   G29     0     0     0     0     0     0     0     0      PRN / # OF OBS
   G30     0     0     0     0     0     0     0     0      PRN / # OF OBS
   G31   427   427   427   427   427   427   427   427      PRN / # OF OBS
   G32  1118  1118  1118  1118  1118  1118  1118  1118      PRN / # OF OBS
   R 1  1118  1118  1118  1118  1118  1118  1118  1118      PRN / # OF OBS
   R 2   364   364   364   364   363   363   363   363      PRN / # OF OBS
   R 3     0     0     0     0     0     0     0     0      PRN / # OF OBS
   R 4     0     0     0     0     0     0     0     0      PRN / # OF OBS
   R 5     0     0     0     0     0     0     0     0      PRN / # OF OBS
   R 6     0     0     0     0     0     0     0     0      PRN / # OF OBS
   R 7   655   655   655   655   655   655   655   655      PRN / # OF OBS
   R 8  1118  1118  1118  1118  1118  1118  1118  1118      PRN / # OF OBS
   R 9     0     0     0     0     0     0     0     0      PRN / # OF OBS
   R10  1118  1118  1118  1118     0     0     0     0      PRN / # OF OBS
   R11   977   977   977   977   976   976   976   976      PRN / # OF OBS
   R12     0     0     0     0     0     0     0     0      PRN / # OF OBS
   R13     0     0     0     0     0     0     0     0      PRN / # OF OBS
   R14     0     0     0     0     0     0     0     0      PRN / # OF OBS
   R15     0     0     0     0     0     0     0     0      PRN / # OF OBS
   R16     0     0     0     0     0     0     0     0      PRN / # OF OBS
   R17  1118  1118  1118  1118  1118  1118  1118  1118      PRN / # OF OBS
   R18   130   130   130   130   130   130   130   130      PRN / # OF OBS
   R19     0     0     0     0     0     0     0     0      PRN / # OF OBS
   R20     0     0     0     0     0     0     0     0      PRN / # OF OBS
   R21     0     0     0     0     0     0     0     0      PRN / # OF OBS
   R22     0     0     0     0     0     0     0     0      PRN / # OF OBS
   R23   383   383   383   383   383   383   383   383      PRN / # OF OBS
   R24   883   883   883   883   883   883   883   883      PRN / # OF OBS
                                                            END OF HEADER
 20 10 03 08 22  0.0000000  0 16G15G20G18G23G24G11G21G32G10R 7R 8R 1
                                R17R10R24R23
  23456301.480   123263687.65508     -3361.879          44.750    23456301.240  
  96049630.62406     -2619.648          41.250  
  20304280.300   106699711.55309     -1462.012          49.500    20304278.920  
  83142626.50908     -1139.230          46.250  
  23938882.380   125799682.94007     -3810.809          43.250    23938883.560  
  98025744.78505     -2969.465          38.250  
  20362372.680   107004991.31709     -1105.547          49.500    20362372.060  
  83380511.73208      -861.469          47.250  
  20715456.940   108860469.61709     -1010.680          49.500    20715458.380  
  84826350.46909      -787.547          54.500  
  24306965.660   127733961.92105      1674.113          37.750    24306964.720  
  99532931.45301      1304.504          22.250  
  23394867.480   122940866.39308      1281.730          46.250    23394866.020  
  95798078.70406       998.750          40.250  
  22652259.720   119038453.79308      2809.059          48.000    22652261.580  
  92757251.57409      2188.875          52.500  
  20624608.440   108383060.24209      1147.328          51.750    20624609.640  
  84454343.33109       894.023          53.750  
  21592592.120   115586825.30607     -2904.156          44.500    21592595.840  
  89900875.16207     -2258.793          44.250  
  19421805.460   104002889.95108       -76.176          48.000    19421808.240  
  80891152.30608       -59.246          46.000  
  20741780.760   110876715.65308      2611.434          45.250    20741787.400  
  86237482.47606      2031.109          39.500  
  22894466.940   122512915.41705      2527.305          38.500    22894471.380  
  95287840.16205      1965.676          37.500  
  20655296.780   110104370.73008      2740.664          45.500                  
                                                
  21428966.760   114590325.37108     -1048.121          46.750    21428970.980  
  89125832.02107      -815.211          43.000  
  22102414.040   118233010.03408     -3612.348          45.250    22102421.440  
  91959039.06505     -2809.609          37.250  
 20 10 03 08 22  5.0000000  0 16G15G20G18G23G24G11G21G32G10R 7R 8R 1
                                R17R10R24R23
  23459501.580   123280504.18307     -3364.516          44.000    23459501.340  
  96062734.38606     -2621.703          39.750  
  20305673.740   106707034.13509     -1466.852          49.250    20305672.360  
  83148332.41708     -1143.004          46.250  
  23942509.640   125818744.01207     -3813.398          44.250    23942510.720  
  98040597.55806     -2971.484          39.750  
  20363426.880   107010531.13609     -1110.289          49.750    20363426.260  
  83384828.46608      -865.164          47.250  
  20716421.180   108865536.76909     -1016.066          49.750    20716422.620  
  84830298.89509      -791.742          54.500  
  24305375.320   127725603.98106      1668.957          39.000    24305374.180  
  99526418.74701      1300.473          24.000  
  23393650.080   122934468.81308      1277.074          46.750    23393648.640  
  95793093.54606       995.117          40.000  
  22649588.480   119024416.29508      2805.953          48.250    22649590.340  
  92746313.26609      2186.457          52.500  
  20623519.040   108377335.42209      1142.754          51.750    20623520.240  
  84449882.44109       890.457          53.750  
  21595306.380   115601354.90707     -2907.566          44.000    21595310.100  
  89912175.95307     -2261.445          44.000  
  19421878.740   104003282.37608       -80.613          48.250    19421881.540  
  80891457.51608       -62.703          46.000  
  20739339.980   110863668.32008      2607.621          45.250    20739346.620  
  86227334.55406      2028.145          39.750  
  22892108.360   122500294.12207      2521.598          42.250    22892112.800  
  95278023.59107      1961.242          41.750  
  20652728.660   110090681.21008      2734.973          45.500                  
                                                
  21429949.960   114595583.10408     -1054.738          46.500    21429954.180  
  89129921.39407      -820.352          43.000  
  22105792.680   118251083.38308     -3616.844          44.750    22105800.120  
  91973096.09605     -2813.105          37.500  
 20 10 03 08 22 10.0000000  0 16G15G20G18G23G24G11G21G32G10R 7R 8R 1
                                R17R10R24R23
  23462702.760   123297326.44007     -3364.426          44.500    23462702.500  
  96075842.63006     -2621.633          40.250  
  20307070.360   106714373.39709     -1468.793          49.500    20307068.980  
  83154051.31808     -1144.520          45.750  
  23946137.960   125837810.59207     -3813.184          44.500    23946139.000  
  98055454.62106     -2971.316          38.750  
  20364484.140   107016087.08509     -1112.066          49.750    20364483.520  
  83389157.77708      -866.551          47.500  
  20717389.120   108870623.35509     -1018.535          49.500    20717390.560  
  84834262.46809      -793.668          54.500  
  24303788.280   127717264.14305      1666.457          38.500    24303787.000  
  99519920.27204      1298.551          34.250  
  23392435.580   122928086.56508      1275.586          46.750    23392434.120  
  95788120.37206       993.961          39.250  
  22646918.780   119010386.95608      2805.738          48.000    22646920.640  
  92735381.31909      2186.289          52.500  
  20622432.500   108371625.66009      1141.066          51.750    20622433.700  
  84445433.27209       889.141          53.750  
  21598022.420   115615894.02307     -2908.285          44.500    21598026.140  
  89923484.13507     -2262.004          44.250  
  19421954.780   104003689.62308       -82.219          48.250    19421957.580  
  80891774.26808       -63.949          46.250  
  20736901.120   110850631.14308      2606.910          45.000    20736907.760  
  86217194.52406      2027.594          40.500  
  22889753.700   122487693.85007      2518.805          41.500    22889758.120  
  95268223.38807      1959.070          41.750  
  20650164.520   110077012.89608      2732.152          45.750                  
                                                
  21430937.880   114600865.92908     -1058.426          46.250    21430942.100  
  89134030.26007      -823.219          42.750  
  22109174.160   118269171.89008     -3618.727          44.750    22109181.600  
  91987164.94005     -2814.570          37.500  
 20 10 03 08 22 15.0000000  0 16G15G20G18G23G24G11G21G32G10R 7R 8R 1
                                R17R10R24R23
  23465903.800   123314148.10607     -3364.410          44.250    23465903.560  
  96088950.42306     -2621.621          41.250  
  20308468.960   106721723.09409     -1471.281          49.250    20308467.580  
  83159778.34908     -1146.453          46.250  
  23949766.100   125856876.46807     -3813.066          43.750    23949767.140  
  98070311.13505     -2971.223          38.250  
  20365543.280   107021652.92509     -1114.395          49.750    20365542.660  
  83393494.80308      -868.359          47.500  
  20718359.560   108875723.07509     -1021.582          49.500    20718361.000  
  84838236.28209      -796.039          54.500  
  24302203.660   127708936.23105      1664.000          38.250    24302202.300  
  99513430.87904      1296.621          34.250  
  23391222.800   122921713.44708      1273.512          46.750    23391221.340  
  95783154.32006       992.348          39.750  
  22644249.460   118996359.50308      2804.953          47.750    22644251.320  
  92724450.83109      2185.680          52.750  
  20621347.660   108365924.70909      1139.074          51.750    20621348.860  
  84440990.97209       887.590          53.750  
  21600739.040   115630436.33708     -2909.172          45.000    21600742.780  
  89934794.82207     -2262.691          43.750  
  19422032.400   104004105.32508       -84.184          48.250    19422035.200  
  80892097.59608       -65.477          46.000  
  20734462.920   110837597.67908      2605.906          44.750    20734469.560  
  86207057.39706      2026.816          40.250  
  22887401.760   122475108.25407      2515.219          41.750    22887406.200  
  95258434.61607      1956.281          42.000  
  20647603.160   110063359.34408      2728.965          45.500                  
                                                
  21431929.280   114606167.44208     -1062.535          46.500    21431933.500  
  89138153.65207      -826.422          43.000  
  22112557.220   118287268.90008     -3620.453          44.750    22112564.680  
  92001240.38805     -2815.906          37.750  
 20 10 03 08 22 20.0000000  0 16G15G20G18G23G24G11G21G32G10R 7R 8R 1
                                R17R10R24R23
  23469105.080   123330970.82707     -3364.750          44.000    23469104.820  
  96102059.01906     -2621.887          40.500  
  20309869.840   106729084.82109     -1473.738          49.500    20309868.480  
  83165514.76008     -1148.371          46.000  
  23953394.400   125875943.17907     -3813.688          43.750    23953395.440  
  98085168.31706     -2971.707          40.500  
  20366604.600   107027230.25409     -1116.883          49.750    20366604.000  
  83397840.77608      -870.297          47.250  
  20719332.820   108880837.48009     -1024.617          49.250    20719334.240  
  84842221.52909      -798.406          54.500  
  24300621.460   127700621.78205      1660.750          37.750    24300620.000  
  99506952.12403      1294.094          31.000  
  23390012.080   122915351.01008      1271.273          46.750    23390010.620  
  95778196.57106       990.598          40.500  
  22641580.780   118982335.57108      2804.348          47.750    22641582.640  
  92713523.10609      2185.207          52.500  
  20620264.780   108360234.18609      1136.840          51.750    20620265.980  
  84436556.80609       885.848          54.000  
  21603456.600   115644983.65408     -2910.254          45.250    21603460.340  
  89946109.39607     -2263.535          44.000  
  19422111.920   104004531.12208       -86.379          48.250    19422114.720  
  80892428.77408       -67.188          46.250  
  20732025.740   110824569.52308      2604.852          44.750    20732032.380  
  86196924.38706      2025.996          40.500  
  22885052.920   122462539.04307      2511.969          42.000    22885057.360  
  95248658.53407      1953.750          42.000  
  20645044.860   110049722.15808      2725.410          45.250                  
                                                
  21432924.500   114611489.29008     -1066.707          46.500    21432928.720  
  89142292.87607      -829.660          43.000  
  22115942.220   118305376.31108     -3622.703          44.750    22115949.680  
  92015323.93005     -2817.660          37.500  
 20 10 03 08 22 25.0000000  0 16G15G20G18G23G24G11G21G32G10R 7R 8R 1
                                R17R10R24R23
  23472306.960   123347796.77607     -3365.719          43.750    23472306.700  
  96115170.14106     -2622.637          40.500  
  20311273.440   106736460.73409     -1476.902          49.500    20311272.080  
  83171262.21808     -1150.836          45.750  
  23957023.300   125895012.89607     -3814.539          44.000    23957024.320  
  98100027.81006     -2972.371          39.250  
  20367668.540   107032821.25509     -1119.844          49.750    20367667.940  
  83402197.39508      -872.609          47.250  
  20720309.260   108885968.79709     -1028.320          49.500    20720310.700  
  84846219.95309      -801.293          54.500  
  24299042.260   127692322.95105      1657.984          37.750    24299040.720  
  99500485.49104      1291.930          32.750  
  23388803.800   122909001.46908      1268.488          47.000    23388802.340  
  95773248.87706       988.430          40.000  
  22638913.200   118968317.36008      2802.738          47.750    22638915.060  
  92702599.82409      2183.953          52.250  
  20619184.320   108354556.28309      1133.953          51.750    20619185.500  
  84432132.46209       883.598          53.750  
  21606175.480   115659538.05608     -2912.055          45.250    21606179.200  
  89957429.49807     -2264.930          44.250  
  19422193.760   104004969.32008       -89.238          48.250    19422196.540  
  80892769.59508       -69.410          46.500  
  20729589.980   110811548.97907      2602.832          44.000    20729596.600  
  86186797.31206      2024.426          40.250  
  22882707.520   122449988.40106      2508.070          41.250    22882711.980  
  95238896.93007      1950.719          42.000  
  20642490.040   110036103.60108      2721.438          45.000                  
                                                
  21433923.920   114616833.70508     -1071.484          46.750    21433928.140  
  89146449.64307      -833.379          43.500  
  22119329.560   118323496.23207     -3625.750          44.250    22119337.020  
  92029417.19405     -2820.031          37.750  
 20 10 03 08 22 30.0000000  0 16G15G20G18G23G24G11G21G32G10R 7R 8R 1
                                R17R10R24R23
  23475509.440   123364625.97107     -3365.852          43.250    23475509.180  
  96128283.80606     -2622.746          40.000  
  20312679.740   106743850.85809     -1479.145          49.250    20312678.360  
  83177020.76108     -1152.582          46.250  
  23960652.760   125914085.66107     -3814.594          44.000    23960653.760  
  98114889.70306     -2972.414          39.750  
  20368735.080   107038425.95209     -1122.191          49.750    20368734.480  
  83406564.68808      -874.438          47.500  
  20721288.920   108891116.96309     -1031.141          49.250    20721290.360  
  84850231.51909      -803.484          54.500  
  24297466.020   127684039.96405      1655.316          37.250    24297464.440  
  99494031.26004      1289.859          32.000  
  23387597.980   122902664.86808      1266.070          47.250    23387596.520  
  95768311.27606       986.543          40.000  
  22636246.700   118954304.84708      2802.172          48.000    22636248.540  
  92691680.99909      2183.512          52.000  
  20618106.240   108348891.01009      1131.961          51.750    20618107.440  
  84427717.96809       882.047          53.750  
  21608895.700   115674099.54708     -2912.664          44.750    21608899.420  
  89968755.09507     -2265.410          44.000  
  19422277.900   104005419.93408       -91.082          48.000    19422280.680  
  80893120.07408       -70.840          46.250  
  20727155.640   110798536.03107      2602.012          44.500    20727162.240  
  86176676.13706      2023.785          40.250  
  22880365.600   122437456.38106      2504.754          41.250    22880370.080  
  95229149.80707      1948.141          41.500  
  20639938.740   110022503.74508      2718.422          45.500                  
                                                
  21434927.580   114622200.70208     -1075.379          46.500    21434931.800  
  89150623.96607      -836.410          43.000  
  22122719.220   118341628.50108     -3627.453          45.750    22122726.700  
  92043520.04705     -2821.359          38.250  
 20 10 03 08 22 35.0000000  0 16G15G20G18G23G24G11G21G32G10R 7R 8R 1
                                R17R10R24R23
  23478712.180   123381456.45707     -3366.363          44.000    23478711.920  
  96141398.46306     -2623.145          41.000  
  20314088.360   106751253.29609     -1481.918          49.500    20314087.000  
  83182788.89208     -1154.746          46.500  
  23964282.460   125933159.67906     -3815.121          39.750    23964283.480  
  98129752.55005     -2972.828          37.750  
  20369803.840   107044042.39209     -1124.559          49.750    20369803.240  
  83410941.14108      -876.281          47.250  
  20722271.500   108896280.35909     -1034.328          49.500    20722272.920  
  84854254.94009      -805.969          54.500  
  24295892.460   127675770.82405      1651.813          36.000    24295890.840  
  99487587.76403      1287.133          27.500  
  23386394.280   122896339.31608      1263.824          47.250    23386392.820  
  95763382.27406       984.797          39.250  
  22633580.940   118940296.16808      2801.172          48.000    22633582.780  
  92680765.13709      2182.727          53.000  
  20617030.220   108343236.48209      1129.652          51.750    20617031.420  
  84423311.83809       880.246          53.750  
  21611616.880   115688666.21808     -2913.969          45.000    21611620.600  
  89980084.72707     -2266.426          43.500  
  19422363.960   104005880.83308       -93.406          48.250    19422366.760  
  80893478.55308       -72.652          46.500  
  20724722.340   110785528.72607      2600.961          44.500    20724728.960  
  86166559.35206      2022.969          40.250  
  22878026.800   122424941.01606      2500.848          40.250    22878031.300  
  95219415.63907      1945.105          42.000  
  20637390.600   110008920.69008      2714.777          45.500                  
                                                
  21435935.080   114627588.28408     -1079.789          46.250    21435939.320  
  89154814.30707      -839.840          43.000  
  22126110.840   118359771.33307     -3629.805          44.500    22126118.320  
  92057631.14105     -2823.180          36.750  
 20 10 03 08 22 40.0000000  0 16G15G20G18G23G24G11G21G32G10R 7R 8R 1
                                R17R10R24R23
  23481915.440   123398289.69407     -3367.273          43.750    23481915.180  
  96154515.25406     -2623.852          39.750  
  20315499.620   106758669.44409     -1484.840          49.500    20315498.280  
  83188567.69208     -1157.023          46.000  
  23967912.600   125952236.11505     -3816.086          36.500    23967913.640  
  98144617.31505     -2973.566          36.250  
  20370875.140   107049672.08009     -1127.559          49.750    20370874.540  
  83415327.90508      -878.621          47.000  
  20723257.160   108901460.12309     -1037.906          49.750    20723258.600  
  84858291.11909      -808.762          54.250  
  24294321.760   127667516.84805      1649.352          36.750    24294320.140  
  99481156.09004      1285.207          32.000  
  23385192.940   122890026.24508      1261.055          47.000    23385191.480  
  95758462.99606       982.637          39.000  
  22630916.180   118926292.75708      2799.859          48.000    22630918.020  
  92669853.38809      2181.703          52.750  
  20615956.520   108337594.13509      1126.953          51.750    20615957.720  
  84418915.20809       878.141          53.750  
  21614339.320   115703239.50008     -2915.609          44.750    21614343.040  
  89991419.47507     -2267.703          44.000  
  19422452.240   104006353.59508       -96.031          48.250    19422455.040  
  80893846.26108       -74.691          46.250  
  20722290.400   110772528.64207      2599.047          44.500    20722297.020  
  86156448.17606      2021.477          40.000  
  22875691.380   122412443.88306      2497.410          41.000    22875695.920  
  95209695.65306      1942.258          40.750  
  20634845.860   109995355.78108      2710.758          46.000                  
                                                
  21436946.720   114632997.93508     -1084.508          47.000    21436950.940  
  89159021.81007      -843.512          43.000  
  22129504.700   118377926.11807     -3632.648          43.500    22129512.180  
  92071751.52905     -2825.395          37.500  
 20 10 03 08 22 45.0000000  0 16G15G20G18G23G24G11G21G32G10R 7R 8R 1
                                R17R10R24R23
  23485119.580   123415127.61607     -3367.543          44.500    23485119.340  
  96167635.70907     -2624.063          41.500  
  20316913.860   106766101.28609     -1487.488          49.750    20316912.500  
  83194358.75008     -1159.082          46.000  
  23971543.600   125971317.01005     -3816.684          38.500    23971544.620  
  98159485.52804     -2974.047          34.500  
  20371949.340   107055316.91809     -1130.000          49.750    20371948.740  
  83419726.46208      -880.523          47.500  
  20724246.340   108906658.25509     -1041.121          49.750    20724247.760  
  84862341.61109      -811.266          54.250  
  24292754.320   127659280.13105      1646.715          37.500    24292752.680  
  99474737.92503      1283.156          30.250  
  23383994.360   122883727.59708      1258.996          46.750    23383992.900  
  95753554.95406       981.031          39.250  
  22628252.800   118912296.55308      2798.891          48.500    22628254.640  
  92658947.25209      2180.953          52.250  
  20614885.500   108331965.92809      1124.660          51.750    20614886.680  
  84414529.60509       876.359          53.750  
  21617063.360   115717821.45708     -2916.840          44.750    21617067.080  
  90002760.98707     -2268.656          43.750  
  19422543.140   104006840.29608       -98.355          48.500    19422545.920  
  80894224.79808       -76.516          46.000  
  20719860.180   110759537.66208      2597.813          45.000    20719866.800  
  86146344.07806      2020.516          40.000  
  22873359.740   122399966.87906      2493.965          41.250    22873364.300  
  95199991.32206      1939.750          41.000  
  20632304.900   109981811.08208      2707.285          45.750                  
                                                
  21437962.840   114638431.60108     -1088.883          47.000    21437967.080  
  89163247.98407      -846.914          43.250  
  22132901.160   118396094.82007     -3634.539          44.250    22132908.620  
  92085882.75105     -2826.867          38.000  
 20 10 03 08 22 50.0000000  0 15G15G20G23G24G11G21G32G10R 7R 8R 1R17
                                R10R24R23
  23488324.160   123431967.79007     -3368.016          44.000    23488323.920  
  96180757.92205     -2624.430          38.000  
  20318330.620   106773546.42808     -1490.211          47.500    20318329.260  
  83200160.15907     -1161.203          43.500  
  20373025.940   107060974.49708     -1132.656          48.500    20373025.340  
  83424134.97508      -882.590          45.500  
  20725238.540   108911872.34809     -1044.301          49.500    20725239.960  
  84866404.54309      -813.746          54.000  
  24291189.740   127651058.31605      1643.492          37.500    24291188.100  
  99468331.30704      1280.645          31.500  
  23382798.060   122877440.92108      1256.367          47.250    23382796.600  
  95748656.22605       978.984          38.500  
  22625590.320   118898305.15308      2797.957          47.250    22625592.180  
  92648044.85909      2180.219          52.000  
  20613816.740   108326349.43909      1122.223          51.500    20613817.920  
  84410153.11109       874.457          54.000  
  21619788.520   115732409.59907     -2917.848          43.750    21619792.240  
  90014107.34807     -2269.438          44.500  
  19422636.160   104007338.45108      -100.609          48.250    19422638.940  
  80894612.25608       -78.250          46.000  
  20717431.220   110746553.43108      2596.355          45.500    20717437.840  
  86136245.21306      2019.383          38.750  
  22871031.420   122387507.61607      2490.133          43.000    22871035.960  
  95190300.80407      1936.773          43.500  
  20629767.300   109968284.23008      2703.723          45.500                  
                                                
  21438982.980   114643886.77508     -1093.027          46.750    21438987.220  
  89167490.89907      -850.133          42.250  
  22136299.760   118414274.93607     -3637.234          43.750    22136307.260  
  92100022.81104     -2828.969          35.250  
 20 10 03 08 22 55.0000000  0 15G15G20G23G24G11G21G32G10R 7R 8R 1R17
                                R10R24R23
  23491529.160   123448810.13408     -3369.141          45.000    23491528.940  
  96193881.79404     -2625.313          34.250  
  20319749.860   106781004.65308     -1493.445          47.250    20319748.520  
  83205971.75707     -1163.727          42.750  
  20374104.940   107066644.68308     -1135.699          48.500    20374104.340  
  83428553.30007      -884.965          44.500  
  20726233.780   108917102.38609     -1048.012          49.000    20726235.200  
  84870479.90709      -816.633          53.750  
  24289627.920   127642851.05904      1639.688          35.000    24289626.300  
  99461936.07102      1277.684          27.250  
  23381603.980   122871166.15907      1253.305          44.000    23381602.520  
  95743766.84005       976.605          38.000  
  22622928.760   118884318.41608      2796.496          46.750    22622930.600  
  92637146.08709      2179.082          50.500  
  20612750.160   108320744.56209      1119.309          51.250    20612751.340  
  84405785.66709       872.184          54.000  
  21622514.880   115747003.68508     -2919.656          44.750    21622518.600  
  90025458.22807     -2270.855          43.500  
  19422731.280   104007847.92708      -103.391          47.250    19422734.060  
  80895008.53608       -80.410          45.000  
  20715003.460   110733575.78007      2594.559          43.500    20715010.060  
  86126151.52606      2017.992          39.750  
  22868706.380   122375065.89807      2486.285          42.000    22868710.920  
  95180623.91307      1933.777          42.750  
  20627233.040   109954775.09108      2699.594          45.000                  
                                                
  21440007.120   114649363.41908     -1097.840          46.750    21440011.360  
  89171750.54007      -853.879          43.500  
  22139700.480   118432466.23607     -3639.875          42.000    22139707.960  
  92114171.57004     -2831.020          32.500  
 20 10 03 08 23  0.0000000  0 15G15G20G23G24G11G21G32G10R 7R 8R 1R17
                                R10R24R23
  23494735.040   123465657.46007     -3369.500          44.250    23494734.820  
  96207009.64605     -2625.582          36.250  
  20321172.180   106788478.87908     -1496.355          47.750    20321170.820  
  83211795.82807     -1165.996          42.000  
  20375186.880   107072330.34508     -1138.316          48.250    20375186.280  
  83432983.69407      -887.000          44.500  
  20727232.580   108922351.11209     -1051.277          49.250    20727234.000  
  84874569.82609      -819.180          53.500  
  24288069.460   127634661.37804      1636.137          35.000    24288067.900  
  99455554.46003      1274.910          30.500  
  23380412.720   122864906.11907      1250.816          44.500    23380411.260  
  95738888.89304       974.664          35.250  
  22620268.580   118870339.21808      2795.488          47.000    22620270.420  
  92626253.22009      2178.301          50.000  
  20611686.340   108315154.16609      1116.840          51.000    20611687.520  
  84401429.52409       870.266          53.750  
  21625242.840   115761606.66107     -2921.211          43.500    21625246.560  
  90036816.09507     -2272.059          43.500  
  19422829.080   104008371.71108      -105.977          46.500    19422831.860  
  80895415.93408       -82.426          45.000  
  20712577.480   110720607.53207      2592.922          43.250    20712584.080  
  86116065.10405      2016.719          38.500  
  22866385.200   122362644.80306      2482.383          41.250    22866389.740  
  95170963.06807      1930.742          43.250  
  20624702.620   109941286.51808      2695.770          44.750                  
                                                
  21441035.840   114654864.35908     -1102.566          47.000    21441040.080  
  89176029.03407      -857.555          43.500  
  22143103.780   118450671.72707     -3642.277          42.250    22143111.260  
  92128331.44103     -2832.883          31.250  
 20 10 03 08 23  5.0000000  0 15G15G20G23G24G11G21G32G10R 7R 8R 1R17
                                R10R24R23
  23497941.300   123482506.47307     -3369.617          44.500    23497941.080  
  96220138.73804     -2625.668          34.000  
  20322596.900   106795965.81008     -1498.441          47.500    20322595.560  
  83217629.78507     -1167.621          42.000  
  20376271.140   107078028.19408     -1140.574          47.250    20376270.560  
  83437423.55908      -888.762          45.000  
  20728234.300   108927615.21508     -1054.113          47.750    20728235.700  
  84878671.73709      -821.391          54.000  
  24286513.680   127626486.00904      1635.000          31.500    24286512.180  
  99449184.04304      1274.031          35.250  
  23379223.660   122858657.57207      1248.633          42.500    23379222.200  
  95734019.90304       972.961          35.000  
  22617609.240   118856364.30708      2794.703          48.000    22617611.060  
  92615363.70209      2177.691          51.250  
  20610624.640   108309574.95509      1115.078          50.250    20610625.820  
  84397082.09209       868.891          54.250  
  21627971.840   115776215.25706     -2922.105          40.500    21627975.540  
  90048178.36007     -2272.750          43.000  
  19422928.880   104008906.18108      -107.594          45.500    19422931.660  
  80895831.64508       -83.684          45.250  
  20710152.600   110707645.37507      2592.047          42.000    20710159.200  
  86105983.47705      2016.047          36.500  
  22864067.160   122350240.77506      2479.262          41.250    22864071.720  
  95161315.54306      1928.320          41.250  
  20622175.460   109927815.26408      2692.602          44.750                  
                                                
  21442068.440   114660386.26808     -1105.988          44.750    21442072.640  
  89180323.90707      -860.203          43.000  
  22146509.180   118468888.09607     -3643.930          43.250    22146516.660  
  92142499.69004     -2834.176          32.750  
 20 10 03 08 23 10.0000000  0 15G15G20G18G23G24G21G32G10R 7R 8R 1R17
                                R10R24R23
  23501147.960   123499357.74007     -3370.902          42.750    23501147.740  
  96233269.62804     -2626.676          33.750  
  20324024.120   106803465.91508     -1501.570          48.000    20324022.780  
  83223474.02507     -1170.059          43.250  
  23989705.060   126066750.05105     -3818.840          37.500                  
                                                
  20377357.820   107083738.72508     -1143.516          48.000    20377357.240  
  83441873.33208      -891.051          45.000  
  20729239.040   108932895.13908     -1057.719          47.250    20729240.440  
  84882785.95909      -824.195          53.500  
  23378036.920   122852421.02507      1245.668          41.750    23378035.460  
  95729160.22705       970.645          38.500  
  22614950.820   118842394.17908      2793.246          46.000    22614952.640  
  92604477.87909      2176.555          50.250  
  20609565.180   108304007.46109      1112.109          50.250    20609566.360  
  84392743.79009       866.578          53.750  
  21630701.980   115790829.89207     -2923.844          41.500    21630705.680  
  90059545.28907     -2274.105          42.750  
  19423030.840   104009452.12908      -110.551          45.250    19423033.620  
  80896256.27008       -85.984          44.750  
  20707729.060   110694689.98807      2590.332          43.000    20707735.640  
  86095907.04605      2014.699          37.750  
  22861752.540   122337854.59207      2475.117          42.500    22861757.080  
  95151681.82407      1925.086          43.000  
  20619651.640   109914361.79807      2688.520          43.750                  
                                                
  21443105.060   114665929.70208     -1110.941          47.000    21443109.260  
  89184635.49207      -864.070          42.000  
  22149916.640   118487115.58607     -3647.125          42.000    22149924.100  
  92156676.63105     -2836.652          36.000  
 20 10 03 08 23 15.0000000  0 15G15G20G18G23G24G21G32G10R 7R 8R 1R17
                                R10R24R23
  23504355.140   123516211.54207     -3370.676          43.500    23504354.920  
  96246402.44905     -2626.504          37.000  
  20325453.920   106810979.64108     -1503.801          48.000    20325452.580  
  83229328.87807     -1171.797          42.750  
  23993338.600   126085845.27406     -3818.621          39.250    23993341.700  
  98248734.60304     -2975.559          32.500  
  20378446.980   107089462.33908     -1145.781          48.000    20378446.400  
  83446333.29308      -892.820          44.750  
  20730246.880   108938191.39508     -1060.434          46.500    20730248.280  
  84886912.91309      -826.313          54.000  
  23376852.480   122846196.87207      1243.645          42.500    23376851.000  
  95724310.26005       969.074          36.750  
  22612293.360   118828429.19308      2792.656          45.750    22612295.180  
  92593596.09009      2176.098          50.000  
  20608508.040   108298452.08209      1110.016          49.750    20608509.200  
  84388414.91909       864.941          53.500  
  21633433.300   115805450.93907     -2924.566          41.500    21633437.000  
  90070917.22307     -2274.664          42.750  
  19423134.960   104010009.72208      -112.512          45.750    19423137.740  
  80896689.95508       -87.512          44.750  
  20705306.820   110681741.66307      2589.375          42.750    20705313.420  
  86085836.10005      2013.953          38.000  
  22859441.260   122325486.61006      2472.063          40.500    22859445.800  
  95142062.31807      1922.719          43.250  
  20617131.240   109900926.52507      2685.430          44.250                  
                                                
  21444145.860   114671494.95308     -1114.684          45.750    21444150.080  
  89188963.92907      -866.988          42.750  
  22153326.280   118505354.86407     -3648.270          42.750    22153333.720  
  92170862.76705     -2837.547          36.000  
 20 10 03 08 23 20.0000000  0 16G15G20G18G23G24G11G21G32G10R 7R 8R 1
                                R17R10R24R23
  23507562.500   123533066.16207     -3371.340          42.500    23507562.280  
  96259535.86805     -2627.027          37.750  
  20326886.000   106818505.20108     -1506.570          48.000    20326884.660  
  83235192.93907     -1173.953          43.500  
  23996972.400   126104941.00307     -3819.805          41.500    23996974.180  
  98263614.31204     -2976.484          34.000  
  20379538.300   107095197.25408     -1148.238          47.750    20379537.720  
  83450802.05008      -894.734          45.000  
  20731257.460   108943502.07308     -1063.742          47.000    20731258.860  
  84891051.10409      -828.895          53.750  
  24281862.020   127602046.23204      1624.063          35.250    24281862.980  
  99430170.57103      1265.504          29.750  
  23375670.080   122839983.32607      1241.297          41.750    23375668.600  
  95719468.54804       967.242          32.250  
  22609636.540   118814467.56708      2791.617          45.500    22609638.360  
  92582716.90809      2175.285          49.250  
  20607452.840   108292907.01009      1107.723          49.750    20607454.000  
  84384094.08209       863.160          54.000  
  21636165.520   115820076.72707     -2925.703          42.750    21636169.240  
  90082292.83407     -2275.551          43.000  
  19423240.980   104010577.40908      -114.707          45.750    19423243.740  
  80897131.49108       -89.273          45.000  
  20702885.520   110668798.70507      2587.969          43.500    20702892.100  
  86075769.42505      2012.871          36.500  
  22857133.060   122313134.98206      2468.309          41.250    22857137.600  
  95132455.49807      1919.797          42.250  
  20614613.920   109887507.69407      2682.105          44.000                  
                                                
  21445190.300   114677080.27608     -1119.098          46.000    21445194.520  
  89193308.12907      -870.406          42.750  
  22156737.740   118523603.85807     -3651.383          43.000    22156745.160  
  92185056.43605     -2839.965          37.250  
 20 10 03 08 23 25.0000000  0 16G15G20G18G23G24G11G21G32G10R 7R 8R 1
                                R17R10R24R23
  23510770.940   123549926.75907     -3372.887          43.250    23510770.720  
  96272674.02705     -2628.223          36.750  
  20328321.300   106826047.75308     -1510.488          48.000    20328319.960  
  83241070.25007     -1177.004          43.750  
  24000607.280   126124042.45806     -3821.336          41.250    24000608.880  
  98278498.57502     -2977.668          27.250  
  20380632.760   107100948.67208     -1152.164          47.750    20380632.180  
  83455283.67808      -897.793          45.000  
  20732271.800   108948832.43708     -1068.242          47.000    20732273.200  
  84895204.63909      -832.398          54.000  
  24280318.100   127593932.91405      1620.824          36.250    24280319.200  
  99423848.55004      1262.984          31.500  
  23374490.680   122833785.58707      1237.742          42.000    23374489.200  
  95714639.14305       964.473          37.000  
  22606981.360   118800514.52608      2789.832          44.750    22606983.180  
  92571844.41809      2173.895          49.500  
  20606400.600   108287377.49109      1104.113          49.750    20606401.760  
  84379785.38709       860.348          53.750  
  21638899.620   115834712.51407     -2928.508          42.750    21638903.340  
  90093676.21107     -2277.730          43.000  
  19423349.820   104011160.23908      -118.508          45.750    19423352.600  
  80897584.79408       -92.176          45.000  
  20700466.240   110655866.18907      2585.480          43.250    20700472.820  
  86065710.79105      2010.930          36.250  
  22854828.920   122300804.98306      2463.777          40.500    22854833.460  
  95122865.49307      1916.266          42.750  
  20612100.680   109874110.67907      2677.121          43.750                  
                                                
  21446239.520   114682690.83608     -1125.066          45.750    21446243.720  
  89197671.89607      -875.051          42.500  
  22160152.080   118541868.05307     -3654.980          42.000    22160159.500  
  92199261.88905     -2842.770          37.000  
 20 10 03 08 23 30.0000000  0 16G15G20G18G23G24G11G21G32G10R 7R 8R 1
                                R17R10R24R23
  23513980.340   123566792.23307     -3372.879          44.250    23513980.140  
  96285815.92406     -2628.230          39.000  
  20329759.600   106833606.08109     -1512.598          49.750    20329758.260  
  83246959.87108     -1178.648          46.000  
  24004243.040   126143148.23505     -3820.668          37.500    24004244.620  
  98293386.15005     -2977.152          36.750  
  20381730.140   107106715.36709     -1154.160          49.500    20381729.540  
  83459777.19808      -899.348          47.250  
  20733289.660   108954181.26709     -1071.055          49.500    20733291.040  
  84899372.55609      -834.594          55.000  
  24278777.580   127585837.17206      1618.109          39.500    24278778.680  
  99417540.14302      1260.855          27.000  
  23373314.140   122827602.56408      1235.867          46.750    23373312.660  
  95709821.14806       963.000          39.250  
  22604327.580   118786568.87108      2789.020          48.000    22604329.400  
  92560977.68609      2173.262          52.750  
  20605351.120   108281862.35809      1102.266          51.750    20605352.280  
  84375487.86409       858.906          54.000  
  21641635.340   115849357.03707     -2929.188          44.500    21641639.060  
  90105066.38207     -2278.266          44.500  
  19423461.340   104011757.29508      -120.070          48.000    19423464.100  
  80898049.14808       -93.395          46.250  
  20698048.740   110642943.13008      2584.395          45.000    20698055.320  
  86055659.48606      2010.074          40.250  
  22852528.620   122288495.55707      2460.145          41.750    22852533.160  
  95113291.48807      1913.441          42.000  
  20609591.300   109860734.18308      2673.902          45.750                  
                                                
  21447293.300   114688325.70008     -1128.715          46.000    21447297.520  
  89202054.52407      -877.902          43.500  
  22163569.000   118560146.06007     -3656.180          42.750    22163576.420  
  92213478.08805     -2843.703          38.500  
 20 10 03 08 23 35.0000000  0 16G15G20G18G23G24G11G21G32G10R 7R 8R 1
                                R17R10R24R23
  23517189.820   123583657.96007     -3373.117          44.500    23517189.620  
  96298957.99906     -2628.410          39.250  
  20331200.060   106841175.76309     -1515.105          49.500    20331198.720  
  83252858.32008     -1180.605          45.750  
  24007878.840   126162254.18607     -3821.242          43.000    24007880.380  
  98308273.84706     -2977.602          39.250  
  20382829.560   107112492.89209     -1156.508          49.750    20382828.960  
  83464279.16808      -901.180          46.750  
  20734310.160   108959544.05209     -1073.934          49.500    20734311.560  
  84903551.33109      -836.836          54.750  
  24277239.440   127577754.32606      1614.711          39.000    24277240.380  
  99411241.90303      1258.227          27.750  
  23372139.440   122821429.58508      1233.660          46.250    23372137.960  
  95705011.04306       961.289          39.250  
  22601674.360   118772626.16608      2788.086          48.250    22601676.180  
  92550113.25309      2172.535          52.250  
  20604303.500   108276357.06209      1099.934          51.750    20604304.660  
  84371198.01209       857.086          54.000  
  21644371.840   115864005.61508     -2930.289          44.750    21644375.560  
  90116459.70207     -2279.117          44.500  
  19423574.600   104012363.71708      -122.180          48.500    19423577.360  
  80898520.79008       -95.031          46.500  
  20695632.140   110630024.84208      2583.152          45.000    20695638.720  
  86045611.90506      2009.109          40.250  
  22850231.280   122276201.91907      2456.973          41.750    22850235.840  
  95103729.74907      1910.977          42.250  
  20607084.940   109847373.73608      2670.539          46.000                  
                                                
  21448350.700   114693979.95908     -1132.852          45.500    21448354.920  
  89206452.24207      -881.113          43.000  
  22166987.660   118578433.29707     -3658.559          44.500    22166995.100  
  92227701.44005     -2845.559          38.250  
 20 10 03 08 23 40.0000000  0 16G15G20G18G23G24G11G21G32G10R 7R 8R 1
                                R17R10R24R23
  23520399.460   123600524.87407     -3373.664          44.250    23520399.280  
  96312101.06306     -2628.828          39.250  
  20332642.840   106848757.66009     -1517.578          49.750    20332641.500  
  83258766.28708     -1182.531          45.500  
  24011514.760   126181361.04007     -3821.813          43.500    24011516.280  
  98323162.29005     -2978.039          38.500  
  20383931.200   107118282.11809     -1158.996          49.750    20383930.620  
  83468790.25308      -903.117          46.750  
  20735333.520   108964921.76809     -1077.023          49.500    20735334.920  
  84907741.75809      -839.242          54.750  
  24275704.040   127569685.31106      1612.531          39.250    24275704.880  
  99404954.28303      1256.512          28.500  
  23370966.880   122815267.71708      1230.961          46.250    23370965.400  
  95700209.59105       959.191          38.000  
  22599021.880   118758687.27408      2787.262          48.250    22599023.700  
  92539251.77709      2171.891          52.500  
  20603257.920   108270862.56509      1097.762          52.000    20603259.080  
  84366916.59009       855.395          53.750  
  21647109.260   115878659.24708     -2931.566          45.250    21647112.980  
  90127856.97707     -2280.105          44.500  
  19423689.780   104012980.54408      -124.488          48.250    19423692.540  
  80899000.55508       -96.824          46.250  
  20693216.560   110617112.28908      2581.770          45.000    20693223.140  
  86035568.81906      2008.043          40.000  
  22847937.060   122263925.14906      2453.184          40.750    22847941.620  
  95094181.15907      1908.031          41.750  
  20604581.740   109834030.18608      2666.965          45.750                  
                                                
  21449411.900   114699654.60508     -1137.125          46.000    21449416.100  
  89210865.86407      -884.430          43.250  
  22170408.180   118596730.70808     -3660.582          45.250    22170415.600  
  92241932.75805     -2847.125          38.000  
 20 10 03 08 23 45.0000000  0 16G15G20G18G23G24G11G21G32G10R 7R 8R 1
                                R17R10R24R23
  23523609.580   123617394.16307     -3374.371          44.000    23523609.400  
  96325245.95406     -2629.383          41.000  
  20334088.200   106856352.95209     -1520.813          49.750    20334086.860  
  83264684.68608     -1185.051          45.500  
  24015151.060   126200469.93307     -3822.277          44.000    24015152.520  
  98338052.35105     -2978.398          36.500  
  20385035.320   107124084.25009     -1162.113          49.750    20385034.720  
  83473311.39108      -905.547          46.750  
  20736359.920   108970315.53409     -1080.777          49.500    20736361.320  
  84911944.68809      -842.168          54.750  
  24274171.440   127561631.37806      1608.727          39.250    24274172.160  
  99398678.48103      1253.547          31.250  
  23369796.620   122809118.02208      1228.344          46.250    23369795.140  
  95695417.62906       957.152          39.500  
  22596370.360   118744753.39508      2785.973          48.250    22596372.160  
  92528394.20609      2170.883          52.500  
  20602214.640   108265380.03109      1094.918          52.000    20602215.800  
  84362644.48409       853.180          53.750  
  21649847.840   115893319.14708     -2932.754          45.250    21649851.580  
  90139259.11107     -2281.035          44.500  
  19423807.120   104013608.89908      -127.164          48.000    19423809.880  
  80899489.28008       -98.906          46.250  
  20690802.300   110604206.68908      2580.008          44.750    20690808.880  
  86025531.14006      2006.672          40.000  
  22845646.220   122251666.42007      2449.844          41.750    22845650.780  
  95084646.59807      1905.434          42.000  
  20602081.940   109820704.74108      2662.988          45.250                  
                                                
  21450477.140   114705350.92008     -1141.719          45.750    21450481.360  
  89215296.32007      -888.008          43.000  
  22173830.820   118615039.50008     -3663.379          44.750    22173838.240  
  92256172.94205     -2849.293          38.000  
 20 10 03 08 23 50.0000000  0 16G15G20G18G23G24G11G21G32G10R 7R 8R 1
                                R17R10R24R23
  23526820.620   123634268.28707     -3375.660          44.250    23526820.460  
  96338394.60506     -2630.387          41.000  
  20335536.540   106863964.10109     -1524.129          49.750    20335535.200  
  83270615.45208     -1187.633          45.750  
  24018788.240   126219583.37207     -3823.234          43.750    24018789.700  
  98352945.91006     -2979.148          38.750  
  20386142.360   107129901.75209     -1165.430          49.750    20386141.760  
  83477844.51008      -908.129          47.000  
  20737389.860   108975727.89809     -1084.699          49.500    20737391.260  
  84916162.11609      -845.223          54.500  
  24272642.100   127553594.98906      1605.066          39.500    24272642.720  
  99392416.46803      1250.707          31.000  
  23368629.180   122802983.05708      1225.141          46.250    23368627.700  
  95690637.13306       954.652          39.250  
  22593720.240   118730827.01208      2784.234          48.000    22593722.060  
  92517542.49209      2169.535          52.250  
  20601174.100   108259911.95909      1091.840          51.750    20601175.260  
  84358383.64909       850.781          53.750  
  21652588.100   115907987.94708     -2934.809          45.750    21652591.840  
  90150668.17508     -2282.633          44.750  
  19423927.100   104014251.40808      -130.281          48.500    19423929.860  
  80899989.00508      -101.332          46.000  
  20688389.800   110591310.41908      2577.930          44.750    20688396.360  
  86015500.70606      2005.051          40.000  
  22843359.260   122239428.37607      2445.094          42.250    22843363.820  
  95075128.12407      1901.738          41.750  
  20599586.020   109807399.99808      2658.734          45.750                  
                                                
  21451546.900   114711071.42108     -1146.898          46.500    21451551.120  
  89219745.61107      -892.031          43.000  
  22177256.040   118633362.16007     -3666.055          43.500    22177263.440  
  92270423.91705     -2851.375          37.250  
 20 10 03 08 23 55.0000000  0 16G15G20G18G23G24G11G21G32G10R 7R 8R 1
                                R17R10R24R23
  23530032.220   123651145.31408     -3375.125          44.750    23530032.060  
  96351545.52706     -2629.973          39.250  
  20336987.560   106871589.19609     -1525.957          49.750    20336986.220  
  83276557.08308     -1189.063          45.500  
  24022425.920   126238699.42607     -3822.902          43.500    24022427.360  
  98367841.54406     -2978.891          39.250  
  20387251.940   107135732.70609     -1167.109          49.750    20387251.360  
  83482388.11208      -909.441          46.750  
  20738422.940   108981156.80409     -1087.176          49.500    20738424.340  
  84920392.43809      -847.148          54.500  
  24271115.860   127545574.22305      1602.676          36.500    24271116.380  
  99386166.47201      1248.848          22.000  
  23367464.180   122796860.95408      1223.402          46.250    23367462.680  
  95685866.66906       953.297          39.750  
  22591071.200   118716906.20808      2783.996          47.750    22591073.000  
  92506695.12409      2169.348          52.250  
  20600135.940   108254456.41509      1090.414          51.750    20600137.100  
  84354132.57809       849.672          53.750  
  21655329.620   115922663.43708     -2935.211          45.500    21655333.360  
  90162082.43807     -2282.945          44.500  
  19424049.380   104014906.22808      -131.766          48.250    19424052.140  
  80900498.31308      -102.512          45.750  
  20685978.700   110578421.76108      2577.414          44.750    20685985.260  
  86005476.19606      2004.652          40.500  
  22841075.740   122227208.88206      2442.594          40.250    22841080.300  
  95065624.08306      1899.797          39.750  
  20597093.600   109794113.98308      2655.598          45.500                  
                                                
  21452620.800   114716814.07608     -1150.449          46.000    21452625.020  
  89224212.11907      -894.793          42.500  
  22180683.520   118651696.76307     -3668.102          43.250    22180690.920  
  92284684.14005     -2852.973          37.000  
 20 10 03 08 24  0.0000000  0 16G15G20G18G23G24G11G21G32G10R 7R 8R 1
                                R17R10R24R23
  23533244.100   123668023.90208     -3375.891          45.500    23533243.940  
  96364697.66806     -2630.566          40.000  
  20338440.960   106879226.87009     -1528.938          49.750    20338439.620  
  83282508.51708     -1191.383          45.500  
  24026063.820   126257816.66107     -3823.648          43.750    24026065.220  
  98382738.08505     -2979.469          38.250  
  20388363.840   107141575.74009     -1169.965          49.750    20388363.240  
  83486941.12408      -911.664          47.250  
  20739458.900   108986600.84709     -1090.402          49.750    20739460.300  
  84924634.55009      -849.668          54.500  
  24269592.260   127537567.69005      1600.168          37.750    24269592.720  
  99379927.60901      1246.891          14.000  
  23366301.360   122790750.27008      1220.996          46.500    23366299.860  
  95681105.09506       951.426          40.000  
  22588422.960   118702989.58908      2782.852          47.750    22588424.760  
  92495851.00409      2168.457          52.500  
  20599099.900   108249012.06409      1087.754          51.750    20599101.060  
  84349890.23009       847.602          54.000  
  21658072.160   115937344.44208     -2936.781          45.500    21658075.900  
  90173500.98807     -2284.168          44.500  
  19424173.660   104015571.78508      -134.391          48.000    19424176.420  
  80901015.97308      -104.527          46.000  
  20683568.760   110565539.16207      2575.965          44.500    20683575.320  
  85995456.39106      2003.523          39.750  
  22838795.480   122215006.73207      2438.414          42.500    22838800.060  
  95056133.50307      1896.539          41.750  
  20594604.420   109780845.22408      2651.922          45.500                  
                                                
  21453698.580   114722577.44208     -1154.750          46.250    21453702.800  
  89228694.72607      -898.145          42.500  
  22184112.940   118670041.80707     -3670.039          43.750    22184120.340  
  92298952.49805     -2854.480          37.500  
 20 10 03 08 24  5.0000000  0 16G15G20G18G23G24G11G21G32G10R 7R 8R 1
                                R17R10R24R23
  23536456.600   123684905.71608     -3377.008          45.500    23536456.460  
  96377852.32205     -2631.438          38.500  
  20339897.080   106886878.81909     -1532.063          49.500    20339895.720  
  83288471.07908     -1193.816          46.000  
