     2.11           OBSERVATION DATA    M                   RINEX VERSION / TYPE
LEICA GEO OFFICE 8.4                    29-9-20 09:17       PGM / RUN BY / DATE
                                                            OBSERVER / AGENCY
UGL1                                                        MARKER NAME
UGL1                                                        MARKER NUMBER
196020              LEICA GX1230+ GNSS  7.50                REC # / TYPE / VERS
                    LEIAX1203+GNSS                          ANT # / TYPE
 -1194788.5336  3840599.8857  4934482.5893                  APPROX POSITION XYZ
        1.4110        0.0000        0.0000                  ANTENNA: DELTA H/E/N
L1PhaOff:   0.0585  L2PhaOff:   0.0555                      COMMENT
     1     1                                                WAVELENGTH FACT L1/2
     8    C1    L1    D1    S1    P2    L2    D2    S2      # / TYPES OF OBSERV
  2020     9    28     8    55   45.0000000     GPS         TIME OF FIRST OBS
  2020     9    28    10    53   55.0000000     GPS         TIME OF LAST OBS
    18                                                      LEAP SECONDS
    24                                                      # OF SATELLITES
          C1    L1    D1    S1    P2    L2    D2    S2      COMMENT
   G 1   956   955   956   956   954   954   954   954      PRN / # OF OBS
   G 2     0     0     0     0     0     0     0     0      PRN / # OF OBS
   G 3     0     0     0     0     0     0     0     0      PRN / # OF OBS
   G 4     0     0     0     0     0     0     0     0      PRN / # OF OBS
   G 5     0     0     0     0     0     0     0     0      PRN / # OF OBS
   G 6     0     0     0     0     0     0     0     0      PRN / # OF OBS
   G 7     0     0     0     0     0     0     0     0      PRN / # OF OBS
   G 8     0     0     0     0     0     0     0     0      PRN / # OF OBS
   G 9     0     0     0     0     0     0     0     0      PRN / # OF OBS
   G10  1419  1419  1419  1419  1419  1419  1419  1419      PRN / # OF OBS
   G11   892   892   892   892   891   891   891   891      PRN / # OF OBS
   G12  1419  1419  1419  1419  1419  1419  1419  1419      PRN / # OF OBS
   G13     0     0     0     0     0     0     0     0      PRN / # OF OBS
   G14     0     0     0     0     0     0     0     0      PRN / # OF OBS
   G15   256   254   256   256   256   254   256   256      PRN / # OF OBS
   G16     0     0     0     0     0     0     0     0      PRN / # OF OBS
   G17     0     0     0     0     0     0     0     0      PRN / # OF OBS
   G18    19    19    19    19    19    19    19    19      PRN / # OF OBS
   G19     0     0     0     0     0     0     0     0      PRN / # OF OBS
   G20  1282  1282  1282  1282  1282  1282  1282  1282      PRN / # OF OBS
   G21  1419  1419  1419  1419  1419  1419  1419  1419      PRN / # OF OBS
   G22   421   421   421   421   420   420   420   420      PRN / # OF OBS
   G23     0     0     0     0     0     0     0     0      PRN / # OF OBS
   G24  1368  1368  1368  1368  1368  1368  1368  1368      PRN / # OF OBS
   G25  1106  1106  1106  1106  1104  1104  1104  1104      PRN / # OF OBS
   G26     0     0     0     0     0     0     0     0      PRN / # OF OBS
   G27     0     0     0     0     0     0     0     0      PRN / # OF OBS
   G28     0     0     0     0     0     0     0     0      PRN / # OF OBS
   G29     0     0     0     0     0     0     0     0      PRN / # OF OBS
   G30     0     0     0     0     0     0     0     0      PRN / # OF OBS
   G31   889   889   889   889   888   888   888   888      PRN / # OF OBS
   G32  1419  1419  1419  1419  1419  1419  1419  1419      PRN / # OF OBS
   R 1     0     0     0     0     0     0     0     0      PRN / # OF OBS
   R 2   460   460   460   460   460   460   460   460      PRN / # OF OBS
   R 3  1419  1419  1419  1419  1419  1419  1419  1419      PRN / # OF OBS
   R 4  1419  1419  1419  1419  1419  1419  1419  1419      PRN / # OF OBS
   R 5   898   898   898   898   897   897   897   897      PRN / # OF OBS
   R 6     0     0     0     0     0     0     0     0      PRN / # OF OBS
   R 7     0     0     0     0     0     0     0     0      PRN / # OF OBS
   R 8     0     0     0     0     0     0     0     0      PRN / # OF OBS
   R 9     0     0     0     0     0     0     0     0      PRN / # OF OBS
   R10     0     0     0     0     0     0     0     0      PRN / # OF OBS
   R11     0     0     0     0     0     0     0     0      PRN / # OF OBS
   R12   816   816   816   816   816   816   816   816      PRN / # OF OBS
   R13  1419  1419  1419  1419  1419  1419  1419  1419      PRN / # OF OBS
   R14  1419  1419  1419  1419  1419  1419  1419  1419      PRN / # OF OBS
   R15   458   458   458   458   457   457   457   457      PRN / # OF OBS
   R16     0     0     0     0     0     0     0     0      PRN / # OF OBS
   R17     0     0     0     0     0     0     0     0      PRN / # OF OBS
   R18     0     0     0     0     0     0     0     0      PRN / # OF OBS
   R19   628   628   628   628   628   628   628   628      PRN / # OF OBS
   R20  1150  1150  1150  1150  1150  1150  1150  1150      PRN / # OF OBS
   R21   606   606   606   606   585   582   585   585      PRN / # OF OBS
   R22     0     0     0     0     0     0     0     0      PRN / # OF OBS
   R23     0     0     0     0     0     0     0     0      PRN / # OF OBS
   R24     0     0     0     0     0     0     0     0      PRN / # OF OBS
                                                            END OF HEADER
 20 09 28 08 55 45.0000000  0 16G15G11G18G21G20G12G24G10G32R13R14R 2
                                R 3R12R19R 4
  23993464.200   126086502.35307       654.904          41.850    23993462.000  
  98249205.13246       654.904          39.700  
  24086664.620   126576278.51106      -221.085          41.300    24086660.780  
  98630844.82743      -221.085          30.650  
  24529799.780   128904922.90007       735.481          42.000    24529798.200  
 100445370.87145       735.482          38.100  
  23108279.300   121434846.23608      -134.840          46.700    23108274.660  
  94624544.61247      -134.840          42.750  
  20557275.700   108029240.19909       360.095          49.850    20557270.980  
  84178625.71048       360.095          45.600  
  24311422.200   127757393.10207      -631.622          41.600    24311420.080  
  99551207.51146      -631.623          38.950  
  20904196.020   109852329.40509       287.988          49.100    20904194.160  
  85599219.37748       287.988          47.500  
  20480195.320   107624187.48009      -140.916          51.600    20480193.260  
  83863010.86649      -140.916          49.400  
  22253951.520   116945342.83909      -501.415          48.650    22253950.520  
  91126250.70447      -501.415          44.150  
  20346563.600   108649544.54106      -422.466          39.650    20346567.440  
  84505232.44507      -422.466          42.950  
  23382830.800   124643650.49707      -857.497          42.100    23382837.780  
  96945079.32106      -857.497          40.700  
  22014298.720   117472518.35508       587.356          45.100    22014302.920  
  91367531.25607       587.356          43.400  
  19407313.320   103888917.37109        69.105          49.750    19407314.220  
  80802508.03408        69.105          47.350  
  21101816.300   112722150.16408       374.006          47.850    21101820.240  
  87672806.10408       374.005          45.050  
  21680153.500   115974201.17505       440.450          38.400    21680155.380  
  90202158.41907       440.450          42.000  
  20996868.140   112437314.04708      -516.739          48.300    20996869.100  
  87451257.50908      -516.740          45.700  
 20 09 28 08 55 50.0000000  0 16G15G11G18G21G20G12G24G10G32R13R14R 2
                                R 3R12R19R 4
  23996739.340   126103713.12507       655.129          41.950    23996737.100  
  98262616.09846       655.131          39.800  
  24085561.000   126570478.65406      -220.378          40.450    24085557.660  
  98626325.47544      -220.379          32.550  
  24533477.940   128924251.89806       735.684          41.350    24533476.380  
 100460432.42646       735.684          38.700  
  23107606.540   121431310.88708      -134.199          46.650    23107601.920  
  94621789.80347      -134.200          41.950  
  20559077.640   108038709.34209       360.684          49.600    20559072.880  
  84186004.25948       360.685          45.750  
  24308264.900   127740801.50506      -631.367          41.050    24308262.820  
  99538279.00645      -631.367          37.800  
  20905637.640   109859905.11709       288.639          49.250    20905635.780  
  85605122.53148       288.639          47.100  
  20479492.260   107620492.94609      -140.304          51.450    20479490.220  
  83860132.00449      -140.304          49.500  
  22251445.400   116932172.99209      -501.088          48.750    22251444.400  
  91115988.50647      -501.089          44.000  
  20344453.480   108638276.74906      -421.676          39.400    20344457.380  
  84496468.62107      -421.676          42.850  
  23378543.620   124620797.67307      -857.383          42.050    23378550.680  
  96927304.92206      -857.384          40.950  
  22017236.420   117488194.18908       587.701          44.650    22017240.540  
  91379723.57107       587.701          43.350  
  19407660.220   103890774.21509        69.660          49.750    19407661.060  
  80803952.24608        69.660          47.400  
  21103688.480   112732151.06208       374.868          47.450    21103692.340  
  87680584.57808       374.868          45.000  
  21682358.220   115985994.44005       441.358          38.000    21682359.980  
  90211330.96507       441.358          41.950  
  20994285.380   112423483.31308      -516.397          47.750    20994286.320  
  87440500.27208      -516.398          45.750  
 20 09 28 08 55 55.0000000  0 16G15G11G18G21G20G12G24G10G32R13R14R 2
                                R 3R12R19R 4
  24000015.320   126120928.39507       655.231          42.250    24000013.080  
  98276030.60546       655.230          38.950  
  24084460.520   126564697.78206      -219.584          39.050    24084455.940  
  98621820.89344      -219.584          33.800  
  24537156.700   128943584.09106       735.749          41.100    24537155.160  
 100475496.46246       735.749          39.000  
  23106936.800   121427791.58008      -133.641          46.700    23106932.220  
  94619047.48447      -133.642          42.000  
  20560882.560   108048194.30209       361.251          49.400    20560877.820  
  84193395.13148       361.252          45.550  
  24305109.000   127724217.27206      -631.021          40.200    24305107.020  
  99525356.25245      -631.021          37.900  
  20907082.720   109867498.84809       289.319          49.300    20907080.860  
  85611039.73248       289.319          47.100  
  20478792.220   107616814.26109      -139.732          51.350    20478790.180  
  83857265.50249      -139.732          49.450  
  22248940.900   116919011.61409      -500.776          48.750    22248939.860  
  91105732.89947      -500.776          44.000  
  20342347.560   108627031.70206      -420.778          39.000    20342351.600  
  84487722.49207      -420.779          42.950  
  23374257.400   124597949.92207      -857.176          42.050    23374264.560  
  96909534.46106      -857.176          41.450  
  22020175.680   117503878.62507       587.980          44.300    22020179.820  
  91391922.56007       587.981          43.650  
  19408009.920   103892646.05009        70.179          49.750    19408010.720  
  80805408.12408        70.179          47.350  
  21105564.960   112742174.65108       375.670          47.650    21105568.700  
  87688380.72208       375.669          45.250  
  21684567.000   115997809.23105       442.121          38.150    21684568.640  
  90220520.23407       442.122          42.300  
  20991704.260   112409661.53808      -516.103          47.400    20991705.180  
  87429750.01108      -516.103          45.650  
 20 09 28 08 56  0.0000000  0 16G15G11G18G21G20G12G24G10G32R13R14R 2
                                R 3R12R19R 4
  24003291.300   126138143.61307       655.142          42.650    24003288.980  
  98289445.04645       655.143          38.000  
  24083362.820   126558931.25006      -219.236          39.400    24083358.900  
  98617327.48945      -219.236          36.000  
  24540835.200   128962914.96006       735.542          40.650    24540833.700  
 100490559.46745       735.542          37.700  
  23106269.220   121424283.80208      -133.344          46.750    23106264.720  
  94616314.15447      -133.344          42.050  
  20562689.660   108057690.55109       361.605          49.600    20562684.900  
  84200794.80248       361.606          46.250  
  24301953.660   127707635.77006      -631.059          40.850    24301951.720  
  99512435.60945      -631.059          37.750  
  20908530.300   109875105.89009       289.720          49.150    20908528.440  
  85616967.30048       289.720          47.350  
  20478094.340   107613146.89509      -139.396          51.400    20478092.300  
  83854407.82349      -139.397          49.550  
  22246437.120   116905854.16709      -500.736          48.750    22246436.080  
  91095480.35547      -500.737          43.200  
  20340245.060   108615804.61306      -420.212          39.000    20340249.140  
  84478990.31807      -420.212          42.800  
  23369971.280   124575102.61607      -857.242          41.800    23369978.540  
  96891764.35007      -857.243          41.550  
  22023115.620   117519566.81007       588.036          44.300    22023119.800  
  91404124.45607       588.037          43.700  
  19408361.560   103894528.21909        70.478          49.450    19408362.280  
  80806872.03508        70.478          47.350  
  21107444.820   112752216.40608       376.267          47.750    21107448.480  
  87696190.98208       376.266          45.300  
  21686778.820   116009641.07805       442.661          37.650    21686780.540  
  90229722.78007       442.662          42.600  
  20989123.960   112395844.15608      -516.012          47.150    20989124.880  
  87419003.16908      -516.013          45.750  
 20 09 28 08 56  5.0000000  0 16G15G11G18G21G20G12G24G10G32R13R14R 2
                                R 3R12R19R 4
  24006567.460   126155359.68907       655.215          42.450    24006565.000  
  98302860.16946       655.216          39.000  
  24082268.200   126553180.05506      -218.612          39.700    24082265.820  
  98612846.05544      -218.612          32.000  
  24544513.660   128982245.42406       735.642          41.100    24544512.180  
 100505622.14346       735.643          38.550  
  23105604.060   121420788.44108      -132.854          46.750    23105599.600  
  94613590.49647      -132.854          41.750  
  20564499.080   108067198.92009       362.039          49.400    20564494.300  
  84208203.91648       362.039          46.000  
  24298799.040   127691057.95106      -630.876          40.950    24298797.080  
  99499517.83746      -630.876          38.600  
  20909980.600   109882727.24209       290.271          49.100    20909978.740  
  85622906.01548       290.271          47.150  
  20477398.780   107609491.74709      -138.923          51.450    20477396.760  
  83851559.65049      -138.923          49.450  
  22243934.280   116892701.53809      -500.525          48.700    22243933.180  
  91085231.56247      -500.525          43.600  
  20338146.120   108604596.50306      -419.489          38.900    20338150.240  
  84470272.90307      -419.489          42.900  
  23365685.420   124552256.73607      -857.219          41.650    23365692.760  
  96873995.35907      -857.220          41.700  
  22026056.360   117535259.53507       588.225          44.200    22026060.660  
  91416329.89107       588.226          43.300  
  19408715.260   103896421.60009        70.893          49.450    19408715.940  
  80808344.66108        70.893          47.400  
  21109328.300   112762277.14508       376.993          47.700    21109331.840  
  87704015.99508       376.994          45.550  
  21688994.060   116021490.89705       443.296          36.900    21688995.760  
  90238939.30107       443.296          42.250  
  20986544.640   112382032.03608      -515.833          47.300    20986545.560  
  87408260.40708      -515.834          45.850  
 20 09 28 08 56 10.0000000  0 16G15G11G18G21G20G12G24G10G32R13R14R 2
                                R 3R12R19R 4
  24009844.040   126172577.94707       655.408          42.750    24009841.460  
  98316276.99745       655.408          36.300  
  24081176.680   126547445.49806      -217.838          38.750    24081173.920  
  98608377.57543      -217.838          29.200  
  24548192.300   129001576.78106       735.842          40.800    24548190.840  
 100520685.52945       735.843          37.200  
  23104941.500   121417306.84308      -132.124          46.250    23104937.080  
  94610877.57647      -132.124          42.650  
  20566311.040   108076720.76809       362.740          49.350    20566306.280  
  84215623.54048       362.740          45.950  
  24295645.380   127674485.14306      -630.599          41.350    24295643.320  
  99486603.99545      -630.601          37.950  
  20911433.800   109890364.11709       290.999          48.700    20911431.980  
  85628856.82348       290.999          47.050  
  20476705.820   107605850.17009      -138.270          51.600    20476703.780  
  83848722.05949      -138.270          49.600  
  22241432.600   116879555.10809      -500.162          48.650    22241431.440  
  91074987.59647      -500.163          43.650  
  20336051.040   108593408.79705      -418.528          38.350    20336055.160  
  84461571.34807      -418.528          42.850  
  23361400.000   124529413.65706      -856.924          40.800    23361407.500  
  96856228.56607      -856.926          41.750  
  22028998.300   117550958.56007       588.594          43.850    22029002.660  
  91428540.23307       588.595          43.250  
  19409071.340   103898327.68409        71.526          49.300    19409072.000  
  80809827.17508        71.526          47.500  
  21111215.560   112772358.27408       377.905          47.700    21111219.020  
  87711856.86308       377.905          45.650  
  21691212.800   116033359.99905       444.222          36.300    21691214.560  
  90248170.82107       444.222          42.350  
  20983966.580   112368226.60708      -515.413          47.150    20983967.500  
  87397522.85508      -515.414          45.850  
 20 09 28 08 56 15.0000000  0 16G15G11G18G21G20G12G24G10G32R13R14R 2
                                R 3R12R19R 4
  24013120.820   126189797.37407       655.393          42.700    24013118.180  
  98329694.69145       655.394          37.350  
  24080088.320   126541726.56606      -217.397          38.600    24080085.660  
  98603921.25244      -217.396          35.150  
  24551870.860   129020908.00206       735.817          40.400    24551869.440  
 100535748.80945       735.817          38.050  
  23104281.360   121413837.95208      -131.791          46.650    23104276.980  
  94608174.55247      -131.792          42.600  
  20568125.380   108086255.11609       363.080          49.400    20568120.620  
  84223052.90448       363.080          45.900  
  24292492.480   127657916.41806      -630.502          41.300    24292490.380  
  99473693.31745      -630.504          37.800  
  20912889.780   109898015.50109       291.463          48.700    20912888.000  
  85634818.94448       291.463          47.100  
  20476015.240   107602221.15809      -137.903          51.650    20476013.200  
  83845894.25649      -137.903          49.450  
  22238931.880   116866413.85109      -500.051          48.600    22238930.700  
  91064747.66247      -500.052          43.100  
  20333959.600   108582240.46106      -417.994          38.800    20333963.700  
  84452884.86607      -417.994          42.900  
  23357114.980   124506572.33106      -857.019          41.300    23357122.520  
  96838463.11707      -857.021          41.650  
  22031941.180   117566662.53807       588.666          43.300    22031945.600  
  91440754.43207       588.667          43.100  
  19409429.560   103900245.29609        71.846          49.300    19409430.260  
  80811318.65108        71.846          47.600  
  21113106.460   112782458.81308       378.516          47.900    21113109.860  
  87719712.82708       378.516          45.750  
  21693434.880   116045247.24405       444.726          36.950    21693436.760  
  90257416.45407       444.725          42.050  
  20981389.560   112354426.80908      -515.299          47.200    20981390.500  
  87386789.68908      -515.300          45.900  
 20 09 28 08 56 20.0000000  0 16G15G11G18G21G20G12G24G10G32R13R14R 2
                                R 3R12R19R 4
  24016398.320   126207020.62707       655.598          42.700    24016395.600  
  98343115.42445       655.598          37.650  
  24079003.520   126536025.93006      -216.623          39.550    24079001.180  
  98599479.23344      -216.623          32.750  
  24555549.980   129040241.67406       735.906          40.750    24555548.500  
 100550813.99646       735.906          38.600  
  23103624.180   121410384.46408      -131.145          47.350    23103619.800  
  94605483.53646      -131.146          40.900  
  20569942.580   108095804.57109       363.723          49.600    20569937.840  
  84230494.04148       363.723          45.250  
  24289340.780   127641354.36707      -630.224          41.850    24289338.620  
  99460787.84345      -630.225          37.250  
  20914349.060   109905684.17509       292.183          48.650    20914347.300  
  85640794.53648       292.183          46.950  
  20475327.560   107598607.37609      -137.241          51.700    20475325.520  
  83843078.32349      -137.241          49.150  
  22236432.620   116853280.40309      -499.699          48.750    22236431.420  
  91054513.81147      -499.699          43.250  
  20331872.300   108571094.24006      -417.074          39.200    20331876.360  
  84444215.58607      -417.074          42.650  
  23352830.740   124483735.44607      -856.774          41.750    23352838.380  
  96820701.10807      -856.775          42.150  
  22034885.580   117582374.41507       589.023          43.000    22034890.020  
  91452974.78707       589.023          42.900  
  19409790.440   103902177.26709        72.450          49.400    19409791.220  
  80812821.29508        72.450          47.600  
  21115001.480   112792581.22608       379.390          48.050    21115004.800  
  87727585.82108       379.390          45.800  
  21695660.980   116057155.49305       445.593          37.800    21695662.900  
  90266678.43307       445.593          42.000  
  20978814.060   112340635.37808      -514.937          47.050    20978815.080  
  87376063.02708      -514.938          45.950  
 20 09 28 08 56 25.0000000  0 16G15G11G18G21G20G12G24G10G32R13R14R 2
                                R 3R12R19R 4
  24019676.140   126224245.37207       655.468          42.750    24019673.280  
  98356537.27246       655.469          38.600  
  24077921.840   126530341.29506      -216.113          39.300    24077918.560  
  98595049.64144      -216.113          33.300  
  24559229.060   129059575.53106       735.709          41.150    24559227.600  
 100565879.32045       735.709          36.550  
  23102969.520   121406944.07608      -130.761          47.750    23102965.120  
  94602802.72346      -130.761          40.900  
  20571762.220   108105366.81509       364.090          49.600    20571757.500  
  84237945.12948       364.090          45.400  
  24286189.920   127624796.76207      -630.190          41.850    24286187.700  
  99447885.81145      -630.191          37.400  
  20915811.140   109913367.69909       292.645          48.700    20915809.420  
  85646781.68748       292.646          46.850  
  20474642.340   107595006.48109      -136.874          51.600    20474640.300  
  83840272.43949      -136.875          49.300  
  22233934.400   116840152.46809      -499.618          48.750    22233933.200  
  91044284.25347      -499.617          42.900  
  20329788.660   108559967.71606      -416.431          39.550    20329792.720  
  84435561.62507      -416.431          42.600  
  23348546.940   124460900.69107      -856.789          41.900    23348554.680  
  96802940.77207      -856.791          41.850  
  22037830.900   117598091.51907       589.112          43.200    22037835.440  
  91465199.17407       589.113          43.450  
  19410153.580   103904121.15709        72.760          49.450    19410154.360  
  80814333.20308        72.760          47.350  
  21116900.160   112802723.34808       379.995          47.850    21116903.440  
  87735474.13208       379.995          45.650  
  21697890.540   116069082.26705       446.202          37.200    21697892.500  
  90275954.81507       446.202          41.950  
  20976239.660   112326849.91208      -514.831          47.400    20976240.780  
  87365341.01008      -514.831          45.750  
 20 09 28 08 56 30.0000000  0 16G15G11G18G21G20G12G24G10G32R13R14R 2
                                R 3R12R19R 4
  24022953.920   126241470.44007       655.561          42.700    24022951.100  
  98369959.40146       655.561          39.350  
  24076842.880   126524671.45906      -215.443          39.600    24076839.780  
  98590631.56444      -215.441          33.400  
  24562907.960   129078908.37506       735.792          39.850    24562906.520  
 100580943.87445       735.793          36.200  
  23102317.160   121403515.58308      -130.195          47.750    23102312.680  
  94600131.16246      -130.195          41.450  
  20573584.040   108114940.66009       364.631          49.550    20573579.360  
  84245405.26248       364.631          45.750  
  24283039.660   127608242.41207      -629.938          41.550    24283037.460  
  99434986.34446      -629.938          38.550  
  20917275.820   109921064.80409       293.240          48.950    20917274.120  
  85652779.43048       293.240          47.100  
  20473959.340   107591417.31309      -136.327          51.650    20473957.300  
  83837475.67949      -136.327          49.350  
  22231437.000   116827028.85509      -499.364          48.600    22231435.820  
  91034058.07347      -499.365          43.800  
  20327708.460   108548859.70606      -415.630          39.350    20327712.540  
  84426922.06107      -415.630          42.750  
  23344263.360   124438066.96206      -856.684          40.650    23344271.140  
  96785181.23407      -856.685          42.050  
  22040777.080   117613812.95607       589.381          43.950    22040781.700  
  91477426.95807       589.381          42.950  
  19410518.720   103906075.76909        73.277          49.650    19410519.500  
  80815853.46108        73.277          47.300  
  21118802.240   112812883.88308       380.814          48.000    21118805.520  
  87743376.77908       380.814          45.450  
  21700123.380   116081026.27605       446.994          37.300    21700125.320  
  90285244.58507       446.995          41.900  
  20973666.140   112313069.18508      -514.566          47.550    20973667.360  
  87354622.66308      -514.566          45.800  
 20 09 28 08 56 35.0000000  0 16G15G11G18G21G20G12G24G10G32R13R14R 2
                                R 3R12R19R 4
  24026232.460   126258699.05007       655.782          42.400    24026229.560  
  98383384.28846       655.782          38.600  
  24075767.420   126519019.61306      -214.742          39.650    24075764.800  
  98586227.54944      -214.742          33.900  
  24566587.240   129098243.41906       735.971          40.600    24566585.880  
 100596010.12046       735.972          39.250  
  23101667.660   121400102.21708      -129.603          47.600    23101663.120  
  94597471.40246      -129.603          40.900  
  20575408.720   108124529.34209       365.229          49.750    20575404.080  
  84252876.95448       365.229          45.400  
  24279890.680   127591694.53206      -629.679          41.100    24279888.480  
  99422091.90646      -629.679          39.900  
  20918743.720   109928778.76009       293.906          49.150    20918742.020  
  85658790.31348       293.906          46.550  
  20473279.180   107587843.10009      -135.739          51.650    20473277.140  
  83834690.58049      -135.739          49.250  
  22228941.060   116813912.80208      -499.040          47.900    22228939.880  
  91023837.79447      -499.040          43.900  
  20325632.420   108537773.55706      -414.797          39.300    20325636.460  
  84418299.50907      -414.798          42.450  
  23339980.520   124415237.42206      -856.499          40.400    23339988.400  
  96767424.96507      -856.501          42.100  
  22043724.700   117629541.79407       589.664          43.900    22043729.280  
  91489660.49707       589.664          42.300  
  19410886.460   103908044.37509        73.823          49.650    19410887.260  
  80817384.60908        73.822          47.250  
  21120708.400   112823066.08008       381.646          48.100    21120711.660  
  87751296.26908       381.646          45.600  
  21702360.060   116092990.92505       447.707          37.750    21702362.020  
  90294550.41807       447.707          41.800  
  20971094.180   112299296.58008      -514.216          47.200    20971095.440  
  87343910.63608      -514.216          45.650  
 20 09 28 08 56 40.0000000  0 16G15G11G18G21G20G12G24G10G32R13R14R 2
                                R 3R12R19R 4
  24029511.180   126275928.75307       655.911          43.100    24029508.280  
  98396810.00745       655.912          37.200  
  24074694.960   126513383.42206      -214.094          39.650    24074692.300  
  98581835.67744      -214.093          32.150  
  24570266.560   129117578.20306       735.836          39.850    24570265.180  
 100611076.16445       735.837          37.350  
  23101020.600   121396701.61308      -129.094          47.550    23101015.960  
  94594821.56047      -129.093          41.550  
  20577235.760   108134130.44609       365.750          49.750    20577231.120  
  84260358.33048       365.750          45.600  
  24276742.400   127575150.75507      -629.506          41.650    24276740.340  
  99409200.68445      -629.507          38.500  
  20920214.420   109936507.29309       294.500          49.250    20920212.680  
  85664812.55748       294.500          46.050  
  20472601.420   107584281.47909      -135.225          51.600    20472599.380  
  83831915.28749      -135.225          49.250  
  22226446.100   116800801.91408      -498.787          48.150    22226444.940  
  91013621.52847      -498.787          44.100  
  20323559.960   108526706.77106      -414.001          39.400    20323564.040  
  84409692.03207      -414.002          42.900  
  23335697.960   124392409.68406      -856.357          41.150    23335706.000  
  96749670.08707      -856.359          41.950  
  22046673.280   117645275.71307       589.891          43.950    22046677.760  
  91501897.98907       589.891          42.400  
  19411256.360   103910024.58009        74.293          49.600    19411257.180  
  80818924.76708        74.293          47.150  
  21122618.140   112833267.60008       382.397          47.600    21122621.400  
  87759230.76908       382.398          45.550  
  21704600.140   116104973.69305       448.436          38.150    21704602.120  
  90303870.34207       448.437          41.850  
  20968523.300   112285529.72008      -513.989          47.200    20968524.600  
  87333203.08508      -513.989          45.600  
 20 09 28 08 56 45.0000000  0 16G15G11G18G21G20G12G24G10G32R13R14R 2
                                R 3R12R19R 4
  24032790.520   126293161.45707       655.856          43.150    24032787.520  
  98410238.07545       655.857          38.200  
  24073625.820   126507764.75606      -213.594          39.700    24073623.580  
  98577457.51344      -213.595          32.750  
  24573946.160   129136914.66506       735.826          39.700    24573944.840  
 100626143.53245       735.826          38.250  
  23100376.280   121393315.61208      -128.672          47.650    23100371.580  
  94592183.11646      -128.672          41.300  
  20579065.520   108143745.82909       366.141          49.750    20579060.880  
  84267850.83448       366.141          45.750  
  24273595.280   127558612.99807      -629.398          42.000    24273593.320  
  99396314.15146      -629.399          39.850  
  20921688.180   109944251.99909       294.963          49.050    20921686.420  
  85670847.38248       294.963          47.050  
  20471926.400   107580734.28509      -134.813          51.450    20471924.380  
  83829151.23849      -134.813          49.350  
  22223952.500   116787698.08608      -498.664          48.450    22223951.340  
  91003410.75847      -498.664          43.550  
  20321491.460   108515661.27506      -413.403          39.400    20321495.580  
  84401101.08907      -413.403          42.700  
  23331416.160   124369585.70507      -856.437          41.500    23331424.260  
  96731918.12507      -856.438          41.950  
  22049623.200   117661016.56007       590.001          44.200    22049627.520  
  91514140.86407       590.001          42.600  
  19411628.820   103912018.29709        74.638          49.750    19411629.600  
  80820475.42708        74.638          47.200  
  21124531.820   112843490.12208       383.061          47.550    21124535.080  
  87767181.61708       383.061          45.600  
  21706843.920   116116976.44105       449.035          37.550    21706845.960  
  90313205.80807       449.036          41.900  
  20965953.820   112271770.32408      -513.859          47.550    20965955.140  
  87322501.33708      -513.859          45.600  
 20 09 28 08 56 50.0000000  0 16G15G11G18G21G20G12G24G10G32R13R14R 2
                                R 3R12R19R 4
  24036069.880   126310394.72907       656.059          43.100    24036066.900  
  98423666.58445       656.060          37.850  
  24072559.540   126502161.18306      -212.772          38.850    24072557.540  
  98573091.11245      -212.772          35.700  
  24577625.580   129156250.35306       736.063          40.400    24577624.320  
 100641210.28945       736.065          37.300  
  23099734.320   121389941.82708      -127.979          47.550    23099729.540  
  94589554.20047      -127.979          41.750  
  20580897.540   108153373.08609       366.801          49.750    20580892.900  
  84275352.58448       366.801          45.800  
  24270448.860   127542078.79907      -629.033          42.950    24270447.020  
  99383430.37645      -629.034          37.750  
  20923164.600   109952010.67809       295.726          49.000    20923162.820  
  85676893.10648       295.726          46.900  
  20471253.660   107577199.13409      -134.143          51.600    20471251.680  
  83826396.57849      -134.143          49.400  
  22221459.760   116774598.88609      -498.270          48.550    22221458.620  
  90993203.59047      -498.270          43.750  
  20319426.620   108504634.69406      -412.512          39.400    20319430.660  
  84392524.85607      -412.512          42.850  
  23327134.640   124346763.06307      -856.087          41.600    23327142.780  
  96714167.19807      -856.088          42.050  
  22052573.940   117676761.83108       590.358          44.550    22052578.120  
  91526387.17807       590.359          42.700  
  19412003.320   103914023.00009        75.269          49.700    19412004.080  
  80822034.63908        75.269          47.150  
  21126448.980   112853731.38008       383.964          47.800    21126452.280  
  87775147.04208       383.964          45.650  
  21709091.000   116128996.69105       449.858          37.800    21709093.040  
  90322554.88307       449.858          41.700  
  20963385.300   112258016.03808      -513.433          47.850    20963386.640  
  87311803.55908      -513.433          45.450  
 20 09 28 08 56 55.0000000  0 16G15G11G18G21G20G12G24G10G32R13R14R 2
                                R 3R12R19R 4
  24039350.060   126327631.90207       656.078          43.150    24039347.000  
  98437098.12945       656.079          38.200  
  24071496.840   126496576.05806      -212.252          38.950    24071494.560  
  98568739.06945      -212.252          36.300  
  24581305.540   129175588.55506       735.979          39.800    24581304.240  
 100656279.00445       735.979          38.350  
  23099095.280   121386583.56508      -127.531          47.550    23099090.440  
  94586937.37547      -127.531          41.500  
  20582732.440   108163015.51609       367.254          49.750    20582727.820  
  84282866.15848       367.254          45.850  
  24267303.840   127525551.56307      -628.894          43.750    24267302.020  
  99370552.04346      -628.895          38.600  
  20924644.320   109959786.64609       296.226          48.700    20924642.500  
  85682952.30848       296.225          47.250  
  20470583.860   107573679.39209      -133.688          51.500    20470581.900  
  83823653.92749      -133.688          49.300  
  22218968.560   116761507.65208      -498.127          48.050    22218967.440  
  90983002.63748      -498.127          44.600  
  20317365.920   108493630.44606      -411.768          39.300    20317369.900  
  84383965.98107      -411.768          42.650  
  23322854.020   124323945.19006      -856.021          41.400    23322862.200  
  96696419.98407      -856.022          42.400  
  22055526.100   117692514.93007       590.557          43.800    22055530.200  
  91538639.57207       590.558          42.750  
  19412380.520   103916042.17109        75.685          49.400    19412381.260  
  80823605.11308        75.685          47.000  
  21128370.260   112863994.67608       384.656          47.400    21128373.600  
  87783129.60508       384.656          45.550  
  21711341.900   116141037.84705       450.510          37.200    21711344.020  
  90331920.24306       450.509          41.400  
  20960818.420   112244270.36208      -513.259          47.600    20960819.720  
  87301112.47508      -513.259          45.400  
 20 09 28 08 57  0.0000000  0 16G15G11G18G21G20G12G24G10G32R13R14R 2
                                R 3R12R19R 4
  24042630.060   126344868.32607       655.904          43.550    24042626.960  
  98450529.08945       655.905          38.250  
  24070436.680   126491004.74306      -211.771          39.750    24070433.760  
  98564397.77444      -211.772          32.500  
  24584985.080   129194924.67606       735.830          39.250    24584983.840  
 100671346.10145       735.831          37.550  
  23098458.300   121383236.19908      -127.207          46.850    23098453.460  
  94584329.03046      -127.207          41.200  
  20584569.360   108172668.51209       367.563          49.750    20584564.760  
  84290387.97148       367.564          45.700  
  24264159.260   127509026.64407      -628.898          43.800    24264157.500  
  99357675.48146      -628.898          38.950  
  20926126.420   109967575.14709       296.634          48.750    20926124.560  
  85689021.27848       296.634          46.600  
  20469916.100   107570170.38409      -133.384          51.450    20469914.160  
  83820919.63749      -133.385          49.400  
  22216477.980   116748419.76008      -498.073          48.350    22216476.880  
  90972804.28647      -498.074          43.850  
  20315308.420   108482643.75206      -411.181          38.900    20315312.440  
  84375420.75707      -411.180          42.700  
  23318573.420   124301127.34506      -856.113          41.150    23318581.640  
  96678672.79307      -856.114          42.250  
  22058478.800   117708271.23707       590.576          43.250    22058482.900  
  91550894.46007       590.577          43.000  
  19412759.520   103918071.00409        75.965          49.250    19412760.220  
  80825183.09408        75.964          47.000  
  21130294.780   112874275.28508       385.209          47.350    21130298.140  
  87791125.62608       385.209          45.400  
  21713595.960   116153095.28305       451.064          37.150    21713598.040  
  90341298.24307       451.064          41.550  
  20958252.260   112230528.47508      -513.193          47.600    20958253.480  
  87290424.34308      -513.193          45.300  
 20 09 28 08 57  5.0000000  0 16G15G11G18G21G20G12G24G10G32R13R14R 2
                                R 3R12R19R 4
  24045910.460   126362106.65807       656.149          43.650    24045907.300  
  98463961.55145       656.150          37.750  
  24069379.720   126485449.85006      -211.002          40.650    24069376.520  
  98560069.33344      -211.003          34.000  
  24588664.680   129214261.30206       736.033          39.400    24588663.560  
 100686413.59545       736.033          35.600  
  23097823.880   121379902.38608      -126.554          47.200    23097819.060  
  94581731.26047      -126.553          42.250  
  20586408.780   108182334.68709       368.192          49.750    20586404.200  
  84297920.05548       368.192          45.800  
  24261015.660   127492506.67807      -628.578          44.200    24261013.880  
  99344802.81346      -628.579          38.850  
  20927611.420   109975378.90609       297.332          48.950    20927609.540  
  85695102.13048       297.332          47.100  
  20469250.900   107566674.75809      -132.721          51.450    20469248.980  
  83818195.77349      -132.721          49.250  
  22213988.560   116735337.83209      -497.713          48.900    22213987.460  
  90962610.58047      -497.713          43.250  
  20313254.820   108471677.28406      -410.306          38.550    20313258.760  
  84366891.27607      -410.306          42.650  
  23314293.360   124278312.16606      -855.873          40.850    23314301.560  
  96660927.67807      -855.874          42.150  
  22061432.580   117724033.44507       590.942          43.100    22061436.740  
  91563153.94107       590.943          43.000  
  19413140.840   103920112.22909        76.563          49.450    19413141.540  
  80826770.72008        76.563          46.900  
  21132223.100   112884575.94408       386.094          47.150    21132226.440  
  87799137.25208       386.094          45.450  
  21715853.440   116165171.41805       451.928          37.250    21715855.540  
  90350690.77407       451.929          41.700  
  20955687.340   112216793.07008      -512.830          47.750    20955688.460  
  87279741.26308      -512.831          45.000  
 20 09 28 08 57 10.0000000  0 16G15G11G18G21G20G12G24G10G32R13R14R 2
                                R 3R12R19R 4
  24049191.340   126379347.56007       656.111          43.550    24049188.140  
  98477395.99345       656.112          38.150  
  24068325.960   126479912.08306      -210.485          40.900    24068322.780  
  98555754.16844      -210.486          34.900  
  24592344.460   129233599.05406       735.905          40.000    24592343.420  
 100701481.93145       735.907          38.050  
  23097192.180   121376582.83308      -126.131          46.950    23097187.380  
  94579144.59347      -126.131          41.900  
  20588250.860   108192014.73009       368.592          49.600    20588246.240  
  84305462.93848       368.593          45.400  
  24257873.200   127475992.41907      -628.469          44.200    24257871.360  
  99331934.56946      -628.470          39.600  
  20929099.440   109983198.61709       297.838          49.050    20929097.580  
  85701195.40948       297.838          46.700  
  20468588.360   107563193.22409      -132.304          51.450    20468586.460  
  83815482.88749      -132.304          49.350  
  22211500.360   116722262.57608      -497.605          48.450    22211499.320  
  90952422.07347      -497.605          43.850  
  20311205.080   108460731.91306      -409.640          39.300    20311209.020  
  84358378.21107      -409.639          42.600  
  23310013.920   124255500.44406      -855.935          40.800    23310022.140  
  96643185.24407      -855.936          42.350  
  22064387.580   117739802.00607       591.042          43.300    22064391.740  
  91575418.35707       591.043          43.100  
  19413524.620   103922166.62209        76.916          49.450    19413525.300  
  80828368.58608        76.916          47.100  
  21134155.240   112894897.13708       386.737          47.050    21134158.560  
  87807164.85508       386.736          45.300  
  21718114.640   116177267.07505       452.479          37.900    21718116.680  
  90360098.50706       452.479          40.950  
  20953123.740   112203064.90708      -512.662          47.700    20953124.800  
  87269063.80508      -512.663          44.900  
 20 09 28 08 57 15.0000000  0 16G15G11G18G21G20G12G24G10G32R13R14R 2
                                R 3R12R19R 4
  24052472.420   126396589.68107       656.146          43.200    24052469.180  
  98490831.41046       656.146          38.700  
  24067275.240   126474390.17305      -209.793          37.150    24067271.900  
  98551451.37942      -209.793          27.300  
  24596024.220   129252936.69906       735.950          39.250    24596023.320  
 100716550.22246       735.951          39.100  
  23096562.900   121373276.13908      -125.704          46.350    23096558.180  
  94576567.95646      -125.704          41.350  
  20590095.300   108201707.33109       369.051          49.600    20590090.680  
  84313015.60848       369.052          45.300  
  24254731.540   127459482.51607      -628.334          44.500    24254729.640  
  99319069.71446      -628.334          39.350  
  20930590.220   109991032.86609       298.371          49.000    20930588.400  
  85707300.01248       298.371          47.250  
  20467928.260   107559724.42509      -131.843          51.350    20467926.380  
  83812779.93049      -131.843          49.300  
  22209013.200   116709192.65408      -497.402          48.150    22209012.180  
  90942237.73547      -497.402          44.100  
  20309159.040   108449806.24006      -408.936          39.550    20309163.020  
  84349880.46007      -408.935          42.750  
  23305734.880   124232690.78006      -855.812          40.350    23305743.080  
  96625444.42707      -855.813          42.650  
  22067343.560   117755575.77507       591.202          43.600    22067347.760  
  91587686.82307       591.202          43.400  
  19413910.560   103924232.68809        77.333          49.350    19413911.280  
  80829975.52408        77.334          47.300  
  21136090.980   112905237.67308       387.441          47.100    21136094.300  
  87815207.50208       387.441          45.300  
  21720379.140   116189380.89905       453.180          38.250    21720381.260  
  90369520.37606       453.180          41.250  
  20950561.200   112189342.53108      -512.485          47.350    20950562.260  
  87258390.85208      -512.485          45.000  
 20 09 28 08 57 20.0000000  0 15G15G11G21G20G12G24G10G32R13R14R 2R 3
                                R12R19R 4
  24055754.020   126413834.59207       656.451          43.400    24055750.800  
  98504269.00545       656.451          36.900  
  24066227.960   126468885.71305      -209.044          36.400    24066224.060  
  98547162.26941      -209.045          22.850  
  23095936.380   121369983.99006      -124.938          40.900    23095931.720  
  94574002.69945      -124.940          36.600  
  20591942.420   108211414.01409       369.797          49.000    20591937.780  
  84320579.24747       369.797          43.250  
  24251591.000   127442978.49107      -627.912          44.100    24251589.000  
  99306209.46445      -627.914          36.100  
  20932084.060   109998883.26408       299.192          47.350    20932082.340  
  85713417.21148       299.192          45.900  
  20467270.880   107556269.97509      -131.107          50.900    20467269.000  
  83810088.13548      -131.106          47.050  
  22206527.320   116696129.56108      -496.928          46.950    22206526.320  
  90932058.70946      -496.928          40.250  
  20307117.000   108438901.74006      -407.929          38.750    20307120.980  
  84341399.18407      -407.929          41.650  
  23301456.540   124209884.86807      -855.500          42.650    23301464.720  
  96607706.50407      -855.501          43.600  
  22070300.840   117771356.22807       591.671          41.950    22070305.080  
  91599960.52907       591.670          43.950  
  19414299.000   103926312.12409        78.032          48.700    19414299.800  
  80831592.86908        78.032          46.800  
  21138030.580   112915599.07908       388.425          45.900    21138034.000  
  87823266.36908       388.425          45.300  
  21722647.380   116201514.43404       454.086          35.350    21722649.500  
  90378957.54106       454.087          38.600  
  20948000.000   112175627.69207      -511.987          42.950    20948001.120  
  87247723.80107      -511.989          43.000  
 20 09 28 08 57 25.0000000  0 15G15G11G21G20G12G24G10G32R13R14R 2R 3
                                R12R19R 4
  24059036.040   126431081.63107       656.492          43.950    24059032.820  
  98517708.21245       656.493          37.850  
  24065183.720   126463397.83704      -208.478          34.000                  
                                                
  23095312.460   121366705.66307      -124.460          41.500    23095307.920  
  94571448.16245      -124.459          38.200  
  20593792.080   108221134.17509       370.234          49.000    20593787.420  
  84328153.39047       370.234          42.900  
  24248451.480   127426479.81907      -627.784          43.300    24248449.400  
  99293353.38445      -627.785          37.600  
  20933580.860   110006749.06708       299.722          47.800    20933579.200  
  85719546.40248       299.722          46.400  
  20466616.120   107552829.21409      -130.646          51.100    20466614.220  
  83807407.02948      -130.646          46.950  
  22204042.700   116683072.83108      -496.767          47.550    22204041.640  
  90921884.64046      -496.767          40.550  
  20305078.800   108428017.74306      -407.189          39.050    20305082.780  
  84332933.86806      -407.190          41.400  
  23297178.800   124187081.96807      -855.447          43.100    23297186.920  
  96589970.93007      -855.448          42.850  
  22073259.160   117787142.86007       591.826          42.050    22073263.580  
  91612238.98507       591.827          44.200  
  19414689.800   103928404.15809        78.445          49.100    19414690.660  
  80833219.99808        78.445          46.800  
  21139973.940   112925980.70408       389.115          46.250    21139977.460  
  87831340.95408       389.116          44.950  
  21724919.100   116213667.04905       454.787          36.200    21724921.300  
  90388409.57006       454.788          38.900  
  20945440.120   112161919.61307      -511.813          43.650    20945441.200  
  87237061.95307      -511.813          42.850  
 20 09 28 08 57 30.0000000  0 15G15G11G21G20G12G24G10G32R13R14R 2R 3
                                R12R19R 4
  24062318.200   126448329.42007       656.479          44.150    24062314.980  
  98531148.04345       656.480          36.800  
  24064142.320   126457925.31405      -208.090          36.050    24064138.420  
  98538622.64842      -208.083          27.450  
  23094690.960   121363439.75507      -124.035          41.500    23094686.460  
  94568903.28545      -124.035          37.600  
  20595644.060   108230866.38509       370.636          48.950    20595639.380  
  84335736.94047       370.635          42.700  
  24245312.700   127409985.05607      -627.644          42.800    24245310.520  
  99280500.34045      -627.644          36.950  
  20935080.340   110014628.84308       300.193          47.850    20935078.720  
  85725686.47348       300.193          46.450  
  20465963.700   107549400.73709      -130.242          50.950    20465961.780  
  83804735.50448      -130.243          47.150  
  22201559.020   116670020.96608      -496.632          47.400    22201557.940  
  90911714.36346      -496.632          40.200  
  20303044.180   108417152.97806      -406.509          39.400    20303048.140  
  84324483.50506      -406.509          41.050  
  23292901.400   124164280.77407      -855.412          42.800    23292909.420  
  96572236.71607      -855.414          41.800  
  22076218.360   117802934.21907       591.998          42.550    22076222.960  
  91624521.14007       591.999          44.500  
  19415082.720   103930507.61509        78.825          48.750    19415083.640  
  80834856.03108        78.825          46.500  
  21141920.860   112936381.07708       389.773          46.050    21141924.460  
  87839430.11208       389.773          44.850  
  21727194.340   116225837.32405       455.394          35.950    21727196.440  
  90397875.36105       455.393          38.500  
  20942881.200   112148216.87307      -511.614          43.150    20942882.300  
  87226404.30007      -511.615          42.300  
 20 09 28 08 57 35.0000000  0 15G15G11G21G20G12G24G10G32R13R14R 2R 3
                                R12R19R 4
  24065600.800   126465579.49407       656.420          43.850    24065597.580  
  98544589.66745       656.420          36.700  
  24063104.160   126452469.76004      -207.424          35.000    24063100.100  
  98534371.55344      -207.421          34.500  
  23094072.200   121360187.85507      -123.659          43.200    23094067.740  
  94566369.34144      -123.659          34.200  
  20597498.620   108240612.16109       371.045          49.200    20597493.920  
  84343331.04547       371.045          43.150  
  24242174.940   127393495.76407      -627.600          43.000    24242172.680  
  99267651.54344      -627.600          34.850  
  20936582.800   110022524.30508       300.653          47.650    20936581.240  
  85731838.79148       300.653          46.200  
  20465313.940   107545986.13309      -129.826          50.750    20465312.000  
  83802074.76848      -129.826          47.150  
  22199076.560   116656975.52408      -496.484          47.200    22199075.460  
  90901549.09047      -496.484          41.550  
  20301013.540   108406309.12606      -405.888          39.050    20301017.420  
  84316049.38806      -405.888          41.250  
  23288624.600   124141482.79407      -855.443          43.600    23288632.500  
  96554504.96407      -855.444          43.000  
  22079178.700   117818731.47307       592.068          42.550    22079183.460  
  91636807.88007       592.069          44.200  
  19415478.060   103932623.85009        79.174          48.700    19415478.980  
  80836501.99108        79.174          46.800  
  21143871.560   112946801.71808       390.412          45.450    21143875.240  
  87847535.06408       390.412          45.000  
  21729473.020   116238026.66604       455.930          35.250    21729475.140  
  90407355.95406       455.930          38.950  
  20940323.580   112134521.10807      -511.520          43.550    20940324.720  
  87215752.07207      -511.521          41.800  
 20 09 28 08 57 40.0000000  0 15G15G11G21G20G12G24G10G32R13R14R 2R 3
                                R12R19R 4
  24068883.960   126482832.38207       656.639          43.550    24068880.740  
  98558033.46445       656.639          37.650  
  24062069.300   126447031.52805      -206.729          38.500    24062065.160  
  98530134.02344      -206.730          33.700  
  23093456.180   121356950.43608      -122.983          47.600    23093451.720  
  94563846.68047      -122.983          42.250  
  20599355.880   108250372.08309       371.664          49.600    20599351.160  
  84350936.16948       371.664          45.300  
  24239038.300   127377012.56207      -627.293          43.750    24239035.980  
  99254807.48446      -627.292          39.700  
  20938088.320   110030435.79509       301.343          48.650    20938086.760  
  85738003.58948       301.343          47.250  
  20464666.920   107542585.92609      -129.200          51.100    20464664.960  
  83799425.25549      -129.200          49.050  
  22196595.420   116643937.09309      -496.162          48.700    22196594.320  
  90891389.27647      -496.163          43.300  
  20298986.880   108395486.78106      -404.967          39.300    20298990.760  
  84307632.02107      -404.968          42.600  
  23284348.660   124118688.79606      -855.211          41.300    23284356.360  
  96536776.32607      -855.212          42.450  
  22082140.380   117834535.82407       592.443          43.250    22082145.280  
  91649100.15307       592.443          44.350  
  19415875.820   103934753.42209        79.787          49.150    19415876.820  
  80838158.32608        79.787          47.400  
  21145826.220   112957243.25208       391.274          47.150    21145829.920  
  87855656.25508       391.274          45.350  
  21731755.360   116250235.76405       456.701          37.250    21731757.500  
  90416851.89207       456.702          41.650  
  20937767.320   112120832.95308      -511.142          48.200    20937768.560  
  87205105.70008      -511.140          45.200  
 20 09 28 08 57 45.0000000  0 15G15G11G21G20G12G24G10G32R13R14R 2R 3
                                R12R19R 4
  24072167.180   126500085.59707       656.608          44.250    24072163.960  
  98571477.52745       656.608          36.450  
  24061037.360   126441608.32706      -206.059          40.200    24061033.180  
  98525908.04744      -206.057          32.300  
  23092842.400   121353725.16808      -122.557          47.200    23092837.960  
  94561333.45247      -122.556          42.100  
  20601215.360   108260143.63809       372.093          49.700    20601210.620  
  84358550.36248       372.094          45.600  
  24235902.340   127360532.95507      -627.083          44.100    24235900.000  
  99241966.22945      -627.083          38.200  
  20939596.440   110038360.99309       301.895          48.750    20939594.920  
  85744179.06848       301.896          47.400  
  20464022.160   107539197.67309      -128.714          51.450    20464020.180  
  83796785.06149      -128.713          49.300  
  22194115.180   116630903.14609      -496.017          49.000    22194114.100  
  90881232.97747      -496.018          43.600  
  20296963.740   108384683.23106      -404.319          39.650    20296967.580  
  84299229.27807      -404.319          42.750  
  23280072.840   124095896.09907      -855.138          41.650    23280080.440  
  96519048.70507      -855.140          42.450  
  22085102.840   117850344.25407       592.563          43.100    22085107.880  
  91661395.58807       592.563          44.350  
  19416275.700   103936893.95509        80.151          49.250    19416276.700  
  80839823.17608        80.151          47.400  
  21147784.300   112967703.10308       391.939          47.150    21147788.080  
  87863791.69808       391.939          46.050  
  21734041.020   116262461.95005       457.437          37.500    21734043.040  
  90426361.12307       457.438          41.750  
  20935212.060   112107149.81508      -510.974          47.400    20935213.320  
  87194463.21108      -510.973          45.500  
 20 09 28 08 57 50.0000000  0 15G15G11G21G20G12G24G10G32R13R14R 2R 3
                                R12R19R 4
  24075450.820   126517340.90208       656.894          45.150    24075447.620  
  98584923.21044       656.894          34.400  
  24060008.580   126436201.95706      -205.317          39.650    24060004.280  
  98521695.30143      -205.316          31.400  
