     2.11           OBSERVATION DATA    M                   RINEX VERSION / TYPE
LEICA GEO OFFICE 8.4                    4-10-20 00:24       PGM / RUN BY / DATE
                                                            OBSERVER / AGENCY
UGLR                                                        MARKER NAME
UGLR                                                        MARKER NUMBER
470879              LEICA GX1230GG      8.50                REC # / TYPE / VERS
                    LEIAX1203+GNSS                          ANT # / TYPE
 -1194789.1276  3840598.0587  4934478.6766                  APPROX POSITION XYZ
        1.4190        0.0000        0.0000                  ANTENNA: DELTA H/E/N
L1PhaOff:   0.0585  L2PhaOff:   0.0555                      COMMENT
     1     1                                                WAVELENGTH FACT L1/2
     8    C1    L1    D1    S1    P2    L2    D2    S2      # / TYPES OF OBSERV
  2020    10     3     6    43   55.0000000     GPS         TIME OF FIRST OBS
  2020    10     3     8    16   20.0000000     GPS         TIME OF LAST OBS
    18                                                      LEAP SECONDS
    21                                                      # OF SATELLITES
          C1    L1    D1    S1    P2    L2    D2    S2      COMMENT
   G 1     0     0     0     0     0     0     0     0      PRN / # OF OBS
   G 2     0     0     0     0     0     0     0     0      PRN / # OF OBS
   G 3     0     0     0     0     0     0     0     0      PRN / # OF OBS
   G 4     0     0     0     0     0     0     0     0      PRN / # OF OBS
   G 5     0     0     0     0     0     0     0     0      PRN / # OF OBS
   G 6     0     0     0     0     0     0     0     0      PRN / # OF OBS
   G 7     0     0     0     0     0     0     0     0      PRN / # OF OBS
   G 8   548   548   548   548   547   547   547   547      PRN / # OF OBS
   G 9     0     0     0     0     0     0     0     0      PRN / # OF OBS
   G10  1110  1110  1110  1110  1110  1110  1110  1110      PRN / # OF OBS
   G11     0     0     0     0     0     0     0     0      PRN / # OF OBS
   G12     0     0     0     0     0     0     0     0      PRN / # OF OBS
   G13   648   648   648   648   647   647   647   647      PRN / # OF OBS
   G14     0     0     0     0     0     0     0     0      PRN / # OF OBS
   G15  1110  1110  1110  1110  1110  1110  1110  1110      PRN / # OF OBS
   G16     0     0     0     0     0     0     0     0      PRN / # OF OBS
   G17     0     0     0     0     0     0     0     0      PRN / # OF OBS
   G18  1110  1110  1110  1110  1110  1110  1110  1110      PRN / # OF OBS
   G19     0     0     0     0     0     0     0     0      PRN / # OF OBS
   G20  1110  1110  1110  1110  1110  1110  1110  1110      PRN / # OF OBS
   G21   807   807   807   807   807   807   807   807      PRN / # OF OBS
   G22     0     0     0     0     0     0     0     0      PRN / # OF OBS
   G23  1110  1110  1110  1110  1110  1110  1110  1110      PRN / # OF OBS
   G24  1110  1110  1110  1110  1110  1110  1110  1110      PRN / # OF OBS
   G25     0     0     0     0     0     0     0     0      PRN / # OF OBS
   G26     0     0     0     0     0     0     0     0      PRN / # OF OBS
   G27   768   768   768   768   768   768   768   768      PRN / # OF OBS
   G28     0     0     0     0     0     0     0     0      PRN / # OF OBS
   G29     0     0     0     0     0     0     0     0      PRN / # OF OBS
   G30     0     0     0     0     0     0     0     0      PRN / # OF OBS
   G31     0     0     0     0     0     0     0     0      PRN / # OF OBS
   G32   620   620   620   620   619   619   619   619      PRN / # OF OBS
   R 1   903   903   903   903   883   883   883   883      PRN / # OF OBS
   R 2     0     0     0     0     0     0     0     0      PRN / # OF OBS
   R 3     0     0     0     0     0     0     0     0      PRN / # OF OBS
   R 4     0     0     0     0     0     0     0     0      PRN / # OF OBS
   R 5     0     0     0     0     0     0     0     0      PRN / # OF OBS
   R 6   345   345   345   345     0     0     0     0      PRN / # OF OBS
   R 7  1110  1110  1110  1110  1110  1110  1110  1110      PRN / # OF OBS
   R 8  1110  1110  1110  1110  1110  1110  1110  1110      PRN / # OF OBS
   R 9     0     0     0     0     0     0     0     0      PRN / # OF OBS
   R10   755   755   755   755     0     0     0     0      PRN / # OF OBS
   R11     0     0     0     0     0     0     0     0      PRN / # OF OBS
   R12     0     0     0     0     0     0     0     0      PRN / # OF OBS
   R13     0     0     0     0     0     0     0     0      PRN / # OF OBS
   R14     0     0     0     0     0     0     0     0      PRN / # OF OBS
   R15     0     0     0     0     0     0     0     0      PRN / # OF OBS
   R16   894   894   894   894   894   894   894   894      PRN / # OF OBS
   R17   141   141   141   141   105   105   105   105      PRN / # OF OBS
   R18     0     0     0     0     0     0     0     0      PRN / # OF OBS
   R19     0     0     0     0     0     0     0     0      PRN / # OF OBS
   R20     0     0     0     0     0     0     0     0      PRN / # OF OBS
   R21     0     0     0     0     0     0     0     0      PRN / # OF OBS
   R22   563   563   563   563   515   515   515   515      PRN / # OF OBS
   R23  1110  1110  1110  1110  1110  1110  1110  1110      PRN / # OF OBS
   R24  1110  1110  1110  1110  1110  1110  1110  1110      PRN / # OF OBS
                                                            END OF HEADER
 20 10 03 06 43 55.0000000  0 15G15G20G18G23G24G27G10G13R 7R 8R 6R22
                                R16R24R23
  20446074.380   107444845.57109     -1636.359          50.500    20446073.060  
  83723251.25309     -1275.090          53.500  
  20471336.500   107577598.32509      1608.445          49.750    20471335.160  
  83826694.35707      1253.332          44.500  
  20676456.000   108655509.63409     -1498.777          49.500    20676455.520  
  84666626.84208     -1167.883          45.250  
  20797374.980   109290942.64009      1711.668          48.750    20797374.580  
  85161772.25107      1333.766          43.750  
  21842779.220   114784578.71608      2831.359          47.500    21842781.360  
  89442536.76209      2206.254          52.750  
  23868473.840   125429677.84004      -323.074          34.000    23868474.640  
  97737409.93007      -251.754          44.500  
  23120276.220   121497873.16406      2960.559          40.500    23120278.860  
  94673675.30707      2306.938          43.750  
  22562647.140   118567511.09108     -3114.477          47.000    22562645.840  
  92390262.95105     -2426.867          38.500  
  19477157.240   104262745.75309      -753.230          49.750    19477160.420  
  81093260.08008      -585.879          46.750  
  20763353.020   111186806.70408      2388.852          44.750    20763356.280  
  86478641.34707      1857.996          43.750  
  22128651.740   118082727.77905     -3279.355          38.000                  
                                                
  21427207.560   114379882.89806     -3806.383          41.000    21427212.320  
  88962156.85104     -2960.520          31.500  
  21642585.220   115610819.35906        83.816          40.000    21642589.480  
  89919534.21406        65.191          39.500  
  23096799.260   123508964.04505      3643.008          35.750    23096804.100  
  96062548.81003      2833.449          31.250  
  20568067.040   110025293.47208      1270.227          45.000    20568073.240  
  85575251.36405       987.953          37.500  
 20 10 03 06 44  0.0000000  0 15G15G20G18G23G24G27G10G13R 7R 8R 6R22
                                R16R24R23
  20447632.200   107453031.86509     -1641.262          50.250    20447630.880  
  83729630.17309     -1278.910          54.000  
  20469806.720   107569559.25009      1604.000          49.750    20469805.380  
  83820430.14108      1249.871          46.250  
  20677883.140   108663009.32409     -1504.250          49.750    20677882.640  
  84672470.75008     -1172.145          45.750  
  20795746.960   109282387.41609      1707.410          49.750    20795746.580  
  85155105.84708      1330.449          45.750  
  21840086.040   114770425.95208      2826.602          47.500    21840088.200  
  89431508.65709      2202.551          53.000  
  23868782.540   125431299.66404      -329.723          34.000    23868783.320  
  97738673.64008      -256.930          45.750  
  23117459.420   121483070.84508      2957.641          47.250    23117462.120  
  94662141.01909      2304.652          51.750  
  22565610.640   118583084.34408     -3118.039          46.250    22565609.400  
  92402397.92605     -2429.645          38.000  
  19477861.520   104266515.88609      -757.918          49.250    19477864.700  
  81096192.41208      -589.492          46.750  
  20761122.980   111174864.97008      2384.754          45.000    20761126.260  
  86469353.33008      1854.809          45.750  
  22131724.740   118099126.18105     -3283.020          38.000                  
                                                
  21430773.380   114398917.34806     -3810.992          41.000    21430778.120  
  88976961.43404     -2964.105          32.500  
  21642508.200   115610408.08206        77.348          39.250    21642512.500  
  89919214.32306        60.160          39.500  
  23093394.300   123490756.28505      3637.570          36.000    23093399.100  
  96048387.24804      2829.227          33.250  
  20566881.380   110018951.10608      1263.305          47.250    20566887.640  
  85570318.42705       982.574          38.250  
 20 10 03 06 44  5.0000000  0 15G15G20G18G23G24G27G10G13R 7R 8R 6R22
                                R16R24R23
  20449193.140   107461234.97309     -1641.828          50.000    20449191.860  
  83736022.26409     -1279.344          54.000  
  20468279.700   107561534.91609      1603.918          49.750    20468278.360  
  83814177.46408      1249.809          46.250  
  20679314.040   108670528.98009     -1505.473          49.750    20679313.540  
  84678330.27108     -1173.090          45.500  
  20794121.540   109273845.91509      1707.410          49.750    20794121.180  
  85148450.17908      1330.453          45.750  
  21837395.940   114756289.54608      2826.039          47.750    21837398.120  
  89420493.32509      2202.113          53.250  
  23869095.180   125432942.59607      -330.504          43.250    23869095.980  
  97739953.89209      -257.535          51.000  
  23114644.100   121468276.56708      2958.664          47.000    23114646.820  
  94650613.08609      2305.461          51.250  
  22568576.180   118598668.63708     -3117.434          46.250    22568574.980  
  92414541.58105     -2429.168          38.250  
  19478568.780   104270302.15809      -758.324          49.500    19478571.980  
  81099137.34308      -589.855          46.500  
  20758895.380   111162936.49808      2384.781          45.500    20758898.660  
  86460075.70108      1854.836          45.000  
  22134799.360   118115532.99305     -3281.617          38.250                  
                                                
  21434342.380   114417969.04607     -3811.473          41.500    21434347.160  
  88991779.44604     -2964.480          32.750  
  21642436.300   115610024.42206        74.836          39.500    21642440.640  
  89918916.00006        58.215          39.500  
  23089992.380   123472564.82907      3636.723          42.000    23089997.100  
  96034238.39006      2828.566          39.750  
  20565700.840   110012636.26408      1260.848          47.000    20565707.160  
  85565406.95206       980.668          40.250  
 20 10 03 06 44 10.0000000  0 15G15G20G18G23G24G27G10G13R 7R 8R 6R22
                                R16R24R23
  20450756.540   107469450.70609     -1644.711          50.000    20450755.260  
  83742424.13809     -1281.594          54.000  
  20466754.740   107553521.17609      1601.488          49.750    20466753.400  
  83807933.00008      1247.914          46.000  
  20680748.000   108678064.37509     -1508.836          49.750    20680747.480  
  84684202.00008     -1175.715          45.500  
  20792497.980   109265313.98409      1705.121          49.750    20792497.600  
  85141801.93308      1328.664          45.250  
  21834708.220   114742165.41908      2823.313          47.750    21834710.420  
  89409487.51009      2199.984          53.000  
  23869411.040   125434602.51507      -333.934          43.500    23869411.920  
  97741247.35309      -260.207          51.500  
  23111829.560   121453486.15408      2957.469          47.000    23111832.300  
  94639088.09709      2304.523          51.250  
  22571543.040   118614259.73908     -3119.164          46.250    22571541.880  
  92426690.51006     -2430.516          39.000  
  19479278.340   104274100.40309      -761.176          49.500    19479281.560  
  81102091.53508      -592.027          46.750  
  20756669.520   111151017.26908      2382.777          45.500    20756672.820  
  86450805.20608      1853.273          45.000  
  22137874.680   118131943.61805     -3282.500          37.750                  
                                                
  21437913.840   114437033.57406     -3814.145          41.250    21437918.640  
  89006607.39504     -2966.563          32.500  
  21642368.820   115609664.07606        69.422          38.750    21642373.240  
  89918635.73706        53.996          39.750  
  23086592.820   123454385.85607      3634.117          42.000    23086597.460  
  96020099.19706      2826.535          39.750  
  20564524.660   110006344.62308      1255.711          47.000    20564531.040  
  85560513.46806       976.664          39.500  
 20 10 03 06 44 15.0000000  0 15G15G20G18G23G24G27G10G13R 7R 8R 6R22
                                R16R24R23
  20452322.280   107477678.66509     -1646.328          50.000    20452321.020  
  83748835.52909     -1282.855          54.000  
  20465231.720   107545517.64709      1600.148          49.500    20465230.400  
  83801696.47508      1246.863          46.250  
  20682184.840   108685615.12209     -1511.188          49.500    20682184.360  
  84690085.69508     -1177.551          45.750  
  20790876.160   109256791.22309      1704.137          49.500    20790875.800  
  85135160.81308      1327.895          45.750  
  21832022.780   114728053.21308      2821.727          47.500    21832024.980  
  89398490.98209      2198.789          53.250  
  23869730.060   125436278.95507      -336.598          43.000    23869731.040  
  97742553.65609      -262.289          52.000  
  23109015.700   121438699.23108      2957.473          47.000    23109018.440  
  94627565.81509      2304.523          51.750  
  22574511.140   118629857.21008     -3119.371          46.250    22574510.000  
  92438844.37505     -2430.680          38.000  
  19479990.020   104277910.03309      -762.492          49.500    19479993.260  
  81105054.57508      -593.055          46.750  
  20754445.260   111139106.50908      2381.785          45.750    20754448.580  
  86441541.27708      1852.500          45.000  
  22140950.680   118148357.82605     -3282.734          37.750                  
                                                
  21441487.600   114456110.59306     -3815.969          41.250    21441492.440  
  89021445.06204     -2967.980          33.000  
  21642305.640   115609326.63606        65.621          39.000    21642310.120  
  89918373.27706        51.039          39.750  
  23083195.460   123436218.69607      3632.723          41.500    23083200.040  
  96005969.21106      2825.449          39.750  
  20563352.760   110000075.70508      1252.168          47.250    20563359.200  
  85555637.62406       973.906          39.750  
 20 10 03 06 44 20.0000000  0 15G15G20G18G23G24G27G10G13R 7R 8R 6R22
                                R16R24R23
  20453889.340   107485913.58409     -1647.926          50.000    20453888.080  
  83755252.34709     -1284.102          54.250  
  20463709.640   107537519.04109      1599.066          49.750    20463708.320  
  83795463.79308      1246.027          46.250  
  20683623.620   108693175.91809     -1513.254          49.500    20683623.140  
  84695977.21808     -1179.164          46.000  
  20789255.060   109248272.32209      1703.164          49.250    20789254.720  
  85128522.70808      1327.137          45.750  
  21829338.560   114713947.54008      2820.324          47.000    21829340.760  
  89387499.55209      2197.656          53.250  
  23870051.220   125437966.62807      -339.230          43.250    23870052.300  
  97743868.71409      -264.340          51.500  
  23106201.480   121423910.51308      2957.844          47.000    23106204.240  
  94616042.13609      2304.809          51.250  
  22577479.460   118645455.82908     -3119.906          45.750    22577478.340  
  92450999.12405     -2431.102          38.000  
  19480702.860   104281725.90309      -764.102          49.500    19480706.120  
  81108022.47808      -594.301          46.500  
  20752221.620   111127199.08208      2380.930          45.750    20752224.940  
  86432279.94508      1851.836          44.750  
  22144026.300   118164770.17705     -3282.496          38.000                  
                                                
  21445062.700   114475194.70607     -3818.125          41.500    21445067.580  
  89036288.25104     -2969.656          32.750  
  21642245.700   115609006.51406        62.082          39.750    21642250.220  
  89918124.29806        48.285          39.250  
  23079799.340   123418058.16507      3631.293          41.500    23079803.880  
  95991844.35106      2824.340          39.750  
  20562184.080   109993824.21608      1248.438          47.500    20562190.580  
  85550775.36706       971.008          39.750  
 20 10 03 06 44 25.0000000  0 15G15G20G18G23G24G27G10G13R 7R 8R 6R22
                                R16R24R23
  20455458.820   107494161.33609     -1650.965          50.000    20455457.580  
  83761679.17009     -1286.465          54.250  
  20462189.620   107529531.31909      1596.203          49.750    20462188.320  
  83789239.59808      1243.789          46.000  
  20685065.420   108700752.71209     -1517.082          49.500    20685064.940  
  84701881.21708     -1182.145          46.250  
  20787635.860   109239763.28209      1700.660          49.250    20787635.500  
  85121892.28708      1325.188          45.750  
  21826656.760   114699854.46208      2817.148          47.500    21826658.940  
  89376517.93309      2195.180          53.250  
  23870375.620   125439671.43007      -342.664          43.250    23870376.780  
  97745197.14109      -267.016          51.500  
  23103388.060   121409125.94108      2956.535          47.500    23103390.820  
  94604521.69109      2303.793          51.500  
  22580449.100   118661061.55808     -3122.270          46.000    22580448.000  
  92463159.44106     -2432.938          39.250  
  19481417.960   104285553.87909      -766.969          49.500    19481421.240  
  81110999.78808      -596.531          46.500  
  20749999.700   111115300.93008      2378.727          45.250    20750003.040  
  86423025.82408      1850.117          45.000  
  22147102.760   118181186.84005     -3283.809          38.250                  
                                                
  21448640.280   114494291.90307     -3820.934          41.750    21448645.140  
  89051141.61004     -2971.840          31.500  
  21642190.140   115608709.97906        56.977          39.750    21642194.720  
  89917893.67405        44.316          38.250  
  23076405.580   123399910.21306      3627.801          41.250    23076410.080  
  95977729.28206      2821.621          40.250  
  20561019.800   109987596.16208      1243.160          48.000    20561026.340  
  85545931.32706       966.902          39.250  
 20 10 03 06 44 30.0000000  0 15G15G20G18G23G24G27G10G13R 7R 8R 6R22
                                R16R24R23
  20457030.540   107502420.75709     -1653.188          50.000    20457029.320  
  83768115.07909     -1288.203          54.000  
  20460671.440   107521553.27909      1594.504          49.750    20460670.160  
  83783022.94608      1242.469          45.750  
  20686510.060   108708344.31009     -1519.910          49.500    20686509.580  
  84707796.74008     -1184.348          45.750  
  20786018.280   109231262.87309      1699.109          49.500    20786017.940  
  85115268.59208      1323.977          45.750  
  21823977.100   114685772.75608      2815.121          47.500    21823979.280  
  89365545.17309      2193.598          53.500  
  23870703.040   125441392.17507      -345.602          43.750    23870704.300  
  97746537.98209      -269.301          51.000  
  23100575.220   121394344.37508      2955.859          46.750    23100577.980  
  94593003.58909      2303.262          51.000  
  22583419.900   118676673.12308     -3123.074          45.750    22583418.800  
  92475324.28006     -2433.566          38.750  
  19482135.120   104289392.86509      -769.066          49.500    19482138.400  
  81113985.67508      -598.164          46.500  
  20747779.320   111103410.92508      2377.012          46.000    20747782.660  
  86413778.04908      1848.785          45.250  
  22150179.760   118197606.47305     -3283.918          37.000                  
                                                
  21452220.040   114513400.92606     -3823.152          41.250    21452224.900  
  89066004.18304     -2973.566          32.500  
  21642138.820   115608435.87906        52.578          39.250    21642143.420  
  89917680.48106        40.891          39.000  
  23073013.940   123381773.71506      3626.258          41.250    23073018.440  
  95963623.11106      2820.418          40.250  
  20559859.700   109981390.40908      1238.922          48.000    20559866.280  
  85541104.63306       963.605          39.500  
 20 10 03 06 44 35.0000000  0 15G15G20G18G23G24G27G10G13R 7R 8R 6R22
                                R16R24R23
  20458604.860   107510693.82709     -1655.684          49.750    20458603.640  
  83774561.62309     -1290.148          54.000  
  20459155.480   107513586.93509      1592.285          49.500    20459154.220  
  83776815.40708      1240.738          46.250  
  20687957.880   108715952.69409     -1523.105          49.500    20687957.420  
  84713725.34908     -1186.840          46.250  
  20784402.720   109222773.11609      1697.141          49.500    20784402.380  
  85108653.19908      1322.445          45.750  
  21821300.000   114671704.39608      2812.707          47.500    21821302.160  
  89354582.80809      2191.715          53.500  
  23871033.880   125443130.91207      -349.238          44.000    23871035.220  
  97747892.84709      -272.133          51.250  
  23097763.300   121379567.76708      2955.207          46.250    23097766.060  
  94581489.34909      2302.758          51.250  
  22586392.160   118692292.53608     -3124.336          46.250    22586391.100  
  92487495.23905     -2434.551          38.000  
  19482854.700   104293244.81209      -771.617          49.500    19482857.980  
  81116981.63508      -600.148          46.750  
  20745560.820   111091531.10808      2374.871          45.750    20745564.160  
  86404538.19808      1847.121          45.000  
  22153257.720   118214031.11605     -3285.152          38.250                  
                                                
  21455802.420   114532523.85007     -3825.648          41.500    21455807.260  
  89080877.58304     -2975.504          33.250  
  21642092.060   115608186.14106        47.750          39.500    21642096.660  
  89917486.23406        37.137          39.000  
  23069624.820   123363650.64207      3623.703          42.000    23069629.300  
  95949527.39606      2818.438          40.500  
  20558704.140   109975208.93208      1234.105          47.750    20558710.720  
  85536296.81906       959.859          39.250  
 20 10 03 06 44 40.0000000  0 15G15G20G18G23G24G27G10G13R 7R 8R 6R22
                                R16R24R23
  20460181.120   107518977.20009     -1657.969          49.750    20460179.920  
  83781016.19909     -1291.926          54.250  
  20457641.120   107505628.91609      1590.605          49.750    20457639.860  
  83770614.35408      1239.434          46.000  
  20689408.260   108723574.52209     -1525.910          49.750    20689407.820  
  84719664.43308     -1189.023          45.750  
  20782788.580   109214290.68809      1695.484          49.250    20782788.220  
  85102043.52008      1321.156          46.000  
  21818624.820   114657646.15908      2810.285          47.500    21818626.960  
  89343628.34009      2189.828          53.500  
  23871367.520   125444884.25907      -352.551          43.250    23871368.920  
  97749259.09209      -274.719          49.500  
  23094951.700   121364792.79608      2954.566          47.000    23094954.460  
  94569976.40109      2302.258          51.000  
  22589365.300   118707916.45808     -3125.344          46.750    22589364.220  
  92499669.71805     -2435.336          38.000  
  19483576.060   104297106.26609      -773.559          49.500    19483579.340  
  81119984.98008      -601.660          46.750  
  20743343.600   111079658.02208      2373.539          46.250    20743346.920  
  86395303.58007      1846.086          44.500  
  22156336.000   118230457.42305     -3285.801          37.000                  
                                                
  21459386.760   114551657.22506     -3828.055          41.250    21459391.580  
  89095759.08904     -2977.379          32.750  
  21642049.200   115607957.20706        43.398          39.250    21642053.800  
  89917308.17806        33.754          38.750  
  23066237.620   123345537.81807      3621.316          42.750    23066242.080  
  95935439.63106      2816.574          40.500  
  20557552.500   109969048.38108      1229.699          48.000    20557559.100  
  85531505.26706       956.430          39.250  
 20 10 03 06 44 45.0000000  0 15G15G20G18G23G24G27G10G13R 7R 8R 6R22
                                R16R24R23
  20461759.780   107527273.14409     -1660.496          49.750    20461758.600  
  83787480.56709     -1293.898          54.000  
  20456128.760   107497681.53409      1588.441          49.750    20456127.520  
  83764421.58808      1237.746          45.750  
  20690861.640   108731212.06709     -1529.090          49.500    20690861.200  
  84725615.76908     -1191.504          45.750  
  20781176.240   109205817.85209      1693.730          49.500    20781175.900  
  85095441.30908      1319.789          45.750  
  21815951.980   114643600.16108      2807.945          47.500    21815954.080  
  89332683.41309      2188.008          53.250  
  23871704.360   125446654.47107      -355.547          44.000    23871705.820  
  97750638.47109      -277.055          51.250  
  23092140.840   121350021.72408      2953.953          46.750    23092143.600  
  94558466.47509      2301.781          51.000  
  22592339.700   118723547.13508     -3126.785          46.750    22592338.640  
  92511849.47305     -2436.461          38.500  
  19484299.640   104300979.64609      -775.914          49.250    19484302.940  
  81122997.60708      -603.492          46.750  
  20741128.080   111067794.13108      2371.863          45.750    20741131.400  
  86386076.10508      1844.777          45.250  
  22159414.980   118246887.52005     -3286.637          36.750                  
                                                
  21462973.500   114570803.34606     -3830.383          40.750    21462978.300  
  89110650.51404     -2979.191          32.750  
  21642010.720   115607751.64806        38.230          39.000    21642015.320  
  89917148.29506        29.730          39.000  
  23062852.720   123327437.31706      3618.898          41.250    23062857.160  
  95921361.48206      2814.699          40.750  
  20556405.180   109962910.95708      1225.066          47.750    20556411.780  
  85526731.71106       952.824          39.000  
 20 10 03 06 44 50.0000000  0 15G15G20G18G23G24G27G10G13R 7R 8R 6R22
                                R16R24R23
  20463340.660   107535580.77709     -1662.539          50.000    20463339.500  
  83793954.04709     -1295.488          54.000  
  20454618.280   107489743.92409      1586.676          49.750    20454617.040  
  83758236.44608      1236.371          46.000  
  20692317.840   108738864.46509     -1531.832          50.000    20692317.400  
  84731578.67108     -1193.641          45.500  
  20779565.580   109197353.76609      1692.070          49.750    20779565.240  
  85088845.91708      1318.492          45.250  
  21813281.300   114629565.64608      2805.836          47.750    21813283.400  
  89321747.43309      2186.367          53.000  
  23872044.260   125448440.70707      -358.797          44.250    23872045.760  
  97752030.34009      -279.586          51.500  
  23089330.560   121335253.77108      2953.262          47.500    23089333.320  
  94546958.99009      2301.242          50.500  
  22595315.260   118739183.70608     -3127.949          46.500    22595314.200  
  92524033.80505     -2437.367          37.500  
  19485025.280   104304864.08109      -777.934          49.000    19485028.580  
  81126018.83408      -605.063          46.750  
  20738914.080   111055938.33908      2370.543          45.750    20738917.400  
  86376854.93508      1843.750          45.250  
  22162494.500   118263320.55405     -3286.176          36.750                  
                                                
  21466562.440   114589961.32706     -3832.523          39.750    21466567.220  
  89125551.16204     -2980.855          33.000  
  21641976.380   115607568.34106        34.465          38.750    21641980.980  
  89917005.74206        26.805          39.250  
  23059469.980   123309348.40106      3616.707          41.250    23059474.420  
  95907292.34406      2812.996          40.500  
  20555262.040   109956795.92108      1221.004          47.500    20555268.640  
  85521975.57406       949.668          39.000  
 20 10 03 06 44 55.0000000  0 15G15G20G18G23G24G27G10G13R 7R 8R 6R22
                                R16R24R23
  20464923.960   107543901.09509     -1665.363          50.000    20464922.800  
  83800437.40809     -1297.691          54.000  
  20453109.840   107481817.11109      1584.238          49.750    20453108.620  
  83752059.70808      1234.473          45.750  
  20693777.060   108746532.70209     -1535.297          49.750    20693776.640  
  84737553.91408     -1196.340          45.750  
  20777956.760   109188899.42309      1689.918          49.500    20777956.420  
  85082258.11908      1316.820          45.750  
  21810613.020   114615543.67908      2803.195          48.000    21810615.100  
  89310821.22509      2184.309          52.750  
  23872387.380   125450243.95207      -362.574          43.500    23872388.940  
  97753435.46709      -282.527          51.500  
  23086521.080   121320489.87508      2952.230          47.250    23086523.820  
  94535454.65309      2300.438          50.500  
  22598292.100   118754827.19008     -3129.348          46.750    22598291.060  
  92536223.53105     -2438.457          38.500  
  19485753.180   104308760.55409      -780.535          49.000    19485756.480  
  81129049.42008      -607.086          46.750  
  20736701.780   111044091.65608      2368.309          45.500    20736705.100  
  86367640.85908      1842.020          45.250  
  22165574.820   118279757.82305     -3287.410          36.500                  
                                                
  21470153.780   114609132.09006     -3835.758          40.250    21470158.580  
  89140461.73704     -2983.371          32.750  
  21641946.480   115607408.60406        30.055          39.250    21641951.080  
  89916881.49806        23.371          39.000  
  23056089.620   123291272.16106      3613.637          41.250    23056094.080  
  95893233.04006      2810.605          40.750  
  20554123.280   109950704.33108      1215.949          47.250    20554129.880  
  85517237.67106       945.734          39.000  
 20 10 03 06 45  0.0000000  0 15G15G20G18G23G24G27G10G13R 7R 8R 6R22
                                R16R24R23
  20466509.800   107552234.73609     -1667.418          50.000    20466508.660  
  83806931.15009     -1299.289          53.750  
  20451603.600   107473901.72909      1582.496          49.750    20451602.380  
  83745891.87408      1233.109          46.250  
  20695239.400   108754217.39509     -1537.898          49.750    20695238.980  
  84743541.98708     -1198.367          45.500  
  20776349.940   109180455.45309      1688.301          49.500    20776349.580  
  85075678.40908      1315.559          45.500  
  21807947.240   114601534.85608      2801.031          48.000    21807949.300  
  89299905.26509      2182.645          53.000  
  23872733.880   125452064.83507      -365.449          43.250    23872735.460  
  97754854.33509      -284.770          52.000  
  23083712.480   121305730.67208      2952.145          47.250    23083715.220  
  94523953.98709      2300.371          51.500  
  22601270.400   118770478.20708     -3130.469          46.750    22601269.360  
  92548419.12905     -2439.328          37.750  
  19486483.420   104312669.63209      -782.512          49.000    19486486.740  
  81132089.81808      -608.625          47.000  
  20734491.360   111032254.95808      2367.020          45.750    20734494.660  
  86358434.54208      1841.016          45.250  
  22168656.020   118296199.83205     -3288.453          37.000                  
                                                
  21473747.660   114628316.34906     -3837.531          40.500    21473752.460  
  89155382.81004     -2984.750          33.250  
  21641921.080   115607272.94906        25.133          39.500    21641925.680  
  89916775.99006        19.547          39.250  
  23052711.760   123273209.18806      3611.828          40.250    23052716.200  
  95879184.06706      2809.199          40.500  
  20552989.040   109944636.85008      1211.723          47.750    20552995.620  
  85512518.51706       942.449          39.500  
 20 10 03 06 45  5.0000000  0 15G15G20G18G23G24G27G10G13R 7R 8R 6R22
                                R16R24R23
  20468097.800   107560579.83409     -1670.582          49.750    20468096.680  
  83813433.82209     -1301.758          54.000  
  20450099.160   107465995.96209      1579.852          49.750    20450097.960  
  83739731.53608      1231.051          46.000  
  20696704.540   108761916.72909     -1541.727          49.750    20696704.140  
  84749541.46408     -1201.348          45.750  
  20774744.720   109172020.05509      1685.855          49.750    20774744.380  
  85069105.36708      1313.648          45.750  
  21805283.620   114587537.36408      2798.039          48.250    21805285.640  
  89288998.13309      2180.289          52.750  
  23873083.360   125453901.50607      -369.383          43.250    23873085.000  
  97756285.49809      -287.836          52.000  
  23080904.420   121290974.36408      2950.660          47.250    23080907.160  
  94512455.57809      2299.215          51.250  
  22604249.760   118786134.87808     -3132.484          47.250    22604248.720  
  92560619.13405     -2440.898          38.000  
  19487215.720   104316589.65909      -785.297          49.250    19487219.040  
  81135138.72008      -610.855          46.750  
  20732282.420   111020426.28308      2364.582          46.000    20732285.720  
  86349234.46208      1839.117          45.250  
  22171737.720   118312644.54505     -3289.742          37.250                  
                                                
  21477343.700   114647512.20406     -3840.824          41.250    21477348.500  
  89170312.91104     -2987.313          33.750  
  21641899.840   115607159.45706        19.945          40.000    21641904.440  
  89916687.70606        15.508          39.000  
  23049336.020   123255157.66906      3609.008          40.750    23049340.460  
  95865144.00506      2807.008          40.750  
  20551858.900   109938591.40408      1206.539          47.500    20551865.480  
  85507816.51106       938.418          39.500  
 20 10 03 06 45 10.0000000  0 15G15G20G18G23G24G27G10G13R 7R 8R 6R22
                                R16R24R23
  20469688.380   107568938.37009     -1672.785          50.000    20469687.260  
  83819946.96509     -1303.473          54.000  
  20448596.960   107458101.76909      1577.949          49.750    20448595.740  
  83733580.21708      1229.570          46.000  
  20698172.840   108769632.64809     -1544.445          49.750    20698172.420  
  84755553.86608     -1203.469          45.750  
  20773141.520   109163595.19009      1684.309          49.500    20773141.180  
  85062540.53708      1312.445          45.500  
  21802622.540   114573553.19208      2795.918          48.000    21802624.540  
  89278101.37309      2178.621          52.750  
  23873436.240   125455755.96907      -372.434          43.500    23873437.920  
  97757730.52509      -290.211          51.750  
  23078097.300   121276222.90408      2950.207          47.000    23078100.020  
  94500960.93809      2298.863          51.000  
  22607230.600   118801799.20908     -3133.281          47.250    22607229.540  
  92572825.10205     -2441.523          38.250  
  19487950.380   104320522.38309      -787.531          49.250    19487953.700  
  81138197.51208      -612.492          46.750  
  20730075.340   111008607.53208      2363.125          45.500    20730078.640  
  86340042.10008      1837.984          45.250  
  22174820.360   118329094.20105     -3290.137          37.000                  
                                                
  21480942.260   114666721.63606     -3842.777          41.000    21480947.060  
  89185253.58904     -2988.828          32.750  
  21641883.140   115607070.16806        15.926          40.250    21641887.740  
  89916618.25506        12.383          38.750  
  23045962.800   123237119.65306      3606.469          40.750    23045967.260  
  95851114.43906      2805.031          40.500  
  20550733.300   109932570.16508      1202.105          47.500    20550739.860  
  85503133.32806       934.969          39.250  
 20 10 03 06 45 15.0000000  0 15G15G20G18G23G24G27G10G13R 7R 8R 6R22
                                R16R24R23
  20471281.200   107577308.79609     -1675.199          50.000    20471280.100  
  83826469.37409     -1305.355          54.000  
  20447096.640   107450217.66009      1575.957          49.750    20447095.440  
  83727436.75708      1228.020          46.250  
  20699644.000   108777363.65609     -1547.543          49.500    20699643.600  
  84761578.02608     -1205.883          46.000  
  20771540.040   109155179.35509      1682.367          49.500    20771539.700  
  85055982.74808      1310.934          45.750  
  21799963.700   114559580.83308      2793.379          48.000    21799965.660  
  89267213.82909      2176.660          53.000  
  23873792.200   125457626.65107      -375.547          43.750    23873793.920  
  97759188.21009      -292.633          52.500  
  23075290.820   121261474.79908      2949.402          47.250    23075293.540  
  94489468.90609      2298.230          51.000  
  22610212.600   118817469.66208     -3134.527          47.000    22610211.540  
  92585035.83205     -2442.492          38.250  
  19488687.140   104324466.34709      -789.828          49.250    19488690.460  
  81141265.04108      -614.316          47.000  
  20727869.860   110996797.34008      2361.320          45.500    20727873.140  
  86330856.40708      1836.582          45.500  
  22177903.560   118345546.89905     -3290.793          37.750                  
                                                
  21484543.100   114685943.09806     -3845.242          41.000    21484547.880  
  89200203.60704     -2990.746          32.750  
  21641870.660   115607003.58006        11.117          39.750    21641875.260  
  89916566.46406         8.645          38.750  
  23042591.800   123219093.47806      3604.164          41.000    23042596.240  
  95837094.10206      2803.238          41.000  
  20549611.940   109926571.60808      1197.516          47.250    20549618.500  
  85498467.76906       931.398          39.000  
 20 10 03 06 45 20.0000000  0 15G15G20G18G23G24G27G10G13R 7R 8R 6R22
                                R16R24R23
  20472875.580   107585687.33809     -1676.813          50.250    20472874.480  
  83832998.10809     -1306.609          53.750  
  20445597.540   107442339.83109      1574.684          49.750    20445596.320  
  83721298.19808      1227.027          46.000  
  20701117.300   108785105.95009     -1549.898          49.750    20701116.920  
  84767610.97608     -1207.719          45.750  
  20769939.560   109146768.76609      1681.336          49.750    20769939.220  
  85049429.04408      1310.129          45.750  
  21797306.400   114545616.55408      2791.910          48.000    21797308.340  
  89256332.57009      2175.516          53.000  
  23874150.540   125459509.82507      -378.000          44.000    23874152.300  
  97760655.61409      -294.551          51.500  
  23072484.280   121246726.26908      2949.445          47.750    23072486.980  
  94477976.53509      2298.266          50.750  
  22613195.020   118833142.42608     -3135.051          47.000    22613193.960  
  92597248.38205     -2442.898          38.250  
  19489425.300   104328417.77209      -791.523          49.250    19489428.620  
  81144338.36808      -615.633          47.000  
  20725665.240   110984991.86308      2360.293          45.500    20725668.520  
  86321674.37808      1835.785          45.250  
  22180986.700   118361999.25305     -3290.328          38.000                  
                                                
  21488145.480   114705172.79306     -3847.199          41.000    21488150.260  
  89215160.03004     -2992.270          32.750  
  21641861.720   115606955.79206         7.281          39.250    21641866.300  
  89916529.29806         5.664          39.000  
  23039222.320   123201075.47506      3602.395          40.000    23039226.800  
  95823080.09106      2801.859          41.000  
  20548494.080   109920591.89408      1193.883          47.000    20548500.640  
  85493816.89006       928.574          39.000  
 20 10 03 06 45 25.0000000  0 15G15G20G18G23G24G27G10G13R 7R 8R 6R22
                                R16R24R23
  20474472.340   107594078.36009     -1679.469          50.000    20474471.240  
  83839536.56709     -1308.680          54.000  
  20444100.460   107434472.65709      1572.313          49.500    20444099.260  
  83715167.92808      1225.180          46.250  
  20702593.580   108792863.87209     -1553.129          49.750    20702593.200  
  84773656.11408     -1210.230          45.750  
  20768340.900   109138367.79009      1679.203          49.500    20768340.580  
  85042882.82708      1308.465          46.000  
  21794651.460   114531664.65808      2789.105          47.750    21794653.360  
  89245460.96509      2173.320          53.250  
  23874512.080   125461409.80407      -381.742          43.750    23874513.860  
  97762136.12109      -297.461          50.000  
  23069678.480   121231981.68508      2948.516          47.000    23069681.140  
  94466487.25709      2297.543          51.250  
  22616178.740   118848821.84408     -3136.754          47.000    22616177.660  
  92609466.11705     -2444.227          38.250  
  19490165.660   104332380.96409      -793.805          49.250    19490169.000  
  81147420.84608      -617.406          47.000  
  20723462.320   110973195.35408      2358.277          45.500    20723465.600  
  86312499.31708      1834.215          45.500  
  22184070.560   118378455.29405     -3291.535          37.750                  
                                                
  21491750.200   114724414.97806     -3849.520          40.500    21491754.960  
  89230126.16904     -2994.074          32.250  
  21641857.100   115606931.17406         2.621          39.750    21641861.680  
  89916510.15906         2.039          39.750  
  23035855.180   123183069.96606      3599.754          40.250    23035859.680  
  95809075.81406      2799.809          41.250  
  20547380.580   109914635.45108      1189.070          47.000    20547387.140  
  85489184.10206       924.832          39.000  
 20 10 03 06 45 30.0000000  0 15G15G20G18G23G24G27G10G13R 7R 8R 6R22
                                R16R24R23
  20476071.540   107602482.21509     -1682.113          50.000    20476070.460  
  83846085.02809     -1310.738          54.000  
  20442605.480   107426616.56509      1570.016          49.750    20442604.280  
  83709046.30408      1223.391          46.500  
  20704072.920   108800637.85909     -1556.582          49.500    20704072.540  
  84779713.76208     -1212.926          45.750  
  20766744.160   109129976.84609      1677.078          49.250    20766743.840  
  85036344.42808      1306.809          45.750  
  21791998.960   114517725.57708      2786.234          47.500    21792000.820  
  89234599.34309      2171.090          53.000  
  23874876.900   125463327.01907      -385.359          44.250    23874878.720  
  97763630.05709      -300.281          50.750  
  23066873.500   121217241.43908      2947.594          47.000    23066876.140  
  94455001.35509      2296.828          51.750  
  22619163.800   118864508.41208     -3138.012          47.000    22619162.720  
  92621689.41006     -2445.207          39.000  
  19490908.320   104336356.42209      -796.398          49.000    19490911.660  
  81150512.86108      -619.426          46.750  
  20721261.200   110961408.45108      2356.457          45.750    20721264.460  
  86303331.72608      1832.801          45.000  
  22187155.220   118394915.56205     -3292.727          37.500                  
                                                
  21495357.360   114743670.20306     -3852.598          40.250    21495362.120  
  89245102.44504     -2996.469          32.750  
  21641856.940   115606930.34106        -2.684          40.000    21641861.520  
  89916509.51306        -2.086          40.000  
  23032490.480   123165077.48306      3596.648          40.250    23032495.000  
  95795081.66106      2797.395          41.000  
  20546271.520   109908702.68608      1183.984          47.000    20546278.060  
  85484569.73106       920.871          39.250  
 20 10 03 06 45 35.0000000  0 15G15G20G18G23G24G27G10G13R 7R 8R 6R22
                                R16R24R23
  20477673.120   107610898.63609     -1684.418          50.000    20477672.040  
  83852643.27909     -1312.535          54.000  
  20441112.560   107418771.22809      1568.164          49.500    20441111.380  
  83702933.04808      1221.941          46.250  
  20705555.260   108808427.54509     -1559.328          49.750    20705554.880  
  84785783.64608     -1215.066          45.750  
  20765149.260   109121595.61109      1675.410          49.500    20765148.920  
  85029813.60108      1305.516          46.000  
  21789348.820   114503799.00008      2784.383          47.500    21789350.660  
  89223747.46909      2169.648          53.250  
  23875244.960   125465261.16907      -388.559          43.750    23875246.800  
  97765137.17709      -302.777          51.000  
  23064069.260   121202505.21908      2946.980          47.000    23064071.880  
  94443518.61509      2296.348          51.500  
  22622150.140   118880201.66808     -3139.105          46.750    22622149.060  
  92633917.90906     -2446.059          39.250  
  19491653.180   104340343.79709      -798.516          49.250    19491656.520  
  81153614.16008      -621.066          46.750  
  20719061.760   110949630.65908      2354.789          45.500    20719065.020  
  86294171.22808      1831.504          45.250  
  22190240.600   118411379.77805     -3293.113          37.250                  
                                                
  21498966.880   114762937.94506     -3854.316          41.250    21498971.620  
  89260088.45904     -2997.805          32.250  
  21641861.140   115606952.77906        -6.738          40.000    21641865.720  
  89916526.97506        -5.242          39.750  
  23029128.140   123147097.63606      3594.773          41.000    23029132.660  
  95781097.34806      2795.844          40.500  
  20545166.820   109902793.30908      1179.523          47.000    20545173.340  
  85479973.55106       917.406          39.750  
 20 10 03 06 45 40.0000000  0 15G15G20G18G23G24G27G10G13R 7R 8R 6R22
                                R16R24R23
  20479277.360   107619328.97909     -1687.578          50.250    20479276.300  
  83859212.36809     -1315.000          54.000  
  20439621.940   107410938.04609      1565.223          49.750    20439620.760  
  83696829.27408      1219.652          46.250  
  20707040.840   108816234.33909     -1563.285          49.750    20707040.460  
  84791866.85608     -1218.148          46.000  
  20763556.480   109113225.49609      1672.754          49.500    20763556.160  
  85023291.42908      1303.441          45.750  
  21786701.360   114489886.38008      2780.988          47.250    21786703.160  
  89212906.46509      2167.098          53.250  
  23875616.460   125467213.55207      -392.422          43.750    23875618.300  
  97766658.53009      -305.785          51.250  
  23061266.100   121187774.45908      2945.590          47.500    23061268.700  
  94432040.09209      2295.262          51.500  
  22625138.020   118895903.00508     -3141.133          46.500    22625136.940  
  92646152.70705     -2447.641          38.000  
  19492400.540   104344344.44609      -801.543          49.250    19492403.880  
  81156725.77908      -623.477          46.750  
  20716864.300   110937863.38508      2352.305          45.500    20716867.540  
  86285018.91108      1829.570          45.250  
  22193327.040   118427849.55505     -3294.434          36.750                  
                                                
  21502578.980   114782219.63406     -3858.051          41.000    21502583.720  
  89275085.33204     -3000.711          32.750  
  21641870.000   115607000.05706       -12.012          39.750    21641874.560  
  89916563.74906        -9.344          39.750  
  23025768.440   123129131.97406      3591.336          40.250    23025772.980  
  95767124.07206      2793.211          41.000  
  20544066.760   109896908.78408      1174.313          47.000    20544073.280  
  85475396.70806       913.355          39.750  
 20 10 03 06 45 45.0000000  0 15G15G20G18G23G24G27G10G13R 7R 8R 6R22
                                R16R24R23
  20480884.140   107627772.64409     -1689.883          50.250    20480883.080  
  83865791.85109     -1316.797          53.750  
  20438133.520   107403116.39609      1563.367          49.750    20438132.340  
  83690734.48208      1218.207          46.000  
  20708529.560   108824057.61809     -1566.238          49.750    20708529.200  
  84797962.91108     -1220.449          45.750  
  20761965.700   109104865.88809      1671.020          49.500    20761965.360  
  85016777.45108      1302.094          45.750  
  21784056.420   114475987.12608      2778.465          47.500    21784058.200  
  89202075.88609      2165.039          53.250  
  23875991.340   125469183.63807      -395.563          42.500    23875993.200  
  97768193.67909      -308.227          50.750  
  23058463.860   121173048.52508      2944.750          47.500    23058466.420  
  94420565.33709      2294.609          50.750  
  22628127.320   118911611.83308     -3142.387          46.750    22628126.240  
  92658393.35806     -2448.617          40.000  
  19493150.240   104348357.72109      -803.824          49.250    19493153.600  
  81159847.21708      -625.195          46.750  
  20714668.700   110926106.09708      2350.438          46.000    20714671.940  
  86275874.35008      1828.113          45.000  
  22196414.320   118444323.91505     -3295.016          37.000                  
                                                
  21506193.620   114801514.74507     -3860.379          41.500    21506198.340  
  89290092.62804     -3002.520          32.750  
  21641883.380   115607071.57306       -16.613          39.750    21641887.960  
  89916619.36906       -12.926          39.750  
  23022411.300   123111179.86706      3589.305          41.000    23022415.860  
  95753161.32006      2791.676          40.500  
  20542971.220   109891048.46608      1169.957          47.000    20542977.740  
  85470838.68806       909.965          39.500  
 20 10 03 06 45 50.0000000  0 15G15G20G18G23G24G27G10G13R 7R 8R 6R22
                                R16R24R23
  20482493.020   107636227.40709     -1692.285          50.250    20482491.960  
  83872379.97209     -1318.668          53.750  
  20436646.900   107395304.12609      1561.250          49.750    20436645.720  
  83684646.99908      1216.559          46.000  
  20710021.000   108831895.18609     -1569.219          49.750    20710020.640  
  84804070.10508     -1222.773          45.500  
  20760376.500   109096514.59409      1669.059          49.500    20760376.160  
  85010269.95308      1300.566          45.000  
  21781413.600   114462099.09808      2776.207          47.500    21781415.400  
  89191254.04909      2163.289          53.250  
  23876369.180   125471169.24807      -399.055          42.750    23876371.060  
  97769740.88709      -310.957          51.000  
  23055662.120   121158325.23708      2944.102          47.750    23055664.660  
  94409092.64109      2294.102          50.500  
  22631117.620   118927325.94908     -3143.609          46.750    22631116.540  
  92670638.12805     -2449.570          38.250  
  19493901.920   104352381.54209      -806.094          49.500    19493905.280  
  81162976.85508      -626.961          46.750  
  20712474.540   110914356.51308      2348.918          46.250    20712477.780  
  86266735.78108      1826.934          45.000  
  22199502.040   118460800.58905     -3295.492          36.250                  
                                                
  21509810.320   114820821.00207     -3862.707          41.750    21509815.040  
  89305108.59904     -3004.332          33.500  
  21641900.840   115607164.78806       -20.926          39.250    21641905.420  
  89916691.86106       -16.281          39.250  
  23019056.240   123093239.02406      3586.621          41.250    23019060.820  
  95739207.34206      2789.594          40.750  
  20541879.780   109885210.02508      1165.285          48.000    20541886.280  
  85466297.68006       906.332          39.250  
 20 10 03 06 45 55.0000000  0 15G15G20G18G23G24G27G10G13R 7R 8R 6R22
                                R16R24R23
  20484103.880   107644692.53109     -1694.109          50.000    20484102.820  
  83878976.17909     -1320.086          53.750  
  20435161.900   107387500.49309      1559.879          50.000    20435160.740  
  83678566.25208      1215.488          46.000  
  20711515.020   108839746.30109     -1571.516          49.750    20711514.660  
  84810187.85808     -1224.559          46.000  
  20758788.740   109088170.88509      1667.992          49.250    20758788.400  
  85003768.36208      1299.730          45.500  
  21778772.800   114448221.47408      2774.426          47.750    21778774.560  
  89180440.31709      2161.891          53.250  
  23876749.820   125473169.54607      -401.840          44.250    23876751.700  
  97771299.56309      -313.121          50.500  
  23052860.720   121143603.85408      2944.145          48.000    23052863.240  
  94397621.45209      2294.137          51.250  
  22634108.800   118943044.58308     -3144.199          46.750    22634107.700  
  92682886.40606     -2450.027          39.500  
  19494655.420   104356415.01409      -807.676          49.250    19494658.760  
  81166114.00208      -628.191          47.000  
  20710281.680   110902613.97808      2348.035          46.000    20710284.920  
  86257602.71308      1826.250          45.000  
  22202590.120   118477279.11105     -3295.953          37.250                  
                                                
  21513428.980   114840137.52106     -3864.043          41.000    21513433.700  
  89320132.54004     -3005.371          33.750  
  21641922.280   115607279.26006       -25.336          39.500    21641926.860  
  89916780.90106       -19.711          39.500  
  23015703.160   123075308.73007      3584.898          42.000    23015707.740  
  95725261.59006      2788.258          40.500  
  20540792.320   109879392.80508      1161.262          48.000    20540798.820  
  85461773.15906       903.199          39.500  
 20 10 03 06 46  0.0000000  0 15G15G20G18G23G24G27G10G13R 7R 8R 6R22
                                R16R24R23
  20485717.060   107653169.83909     -1696.902          50.000    20485716.000  
  83885581.87109     -1322.266          53.750  
  20433678.920   107379707.36509      1557.273          50.000    20433677.740  
  83672493.68508      1213.461          45.750  
  20713011.960   108847612.79209     -1575.094          49.750    20713011.600  
  84816317.59008     -1227.352          45.750  
  20757202.780   109079836.60109      1665.594          49.500    20757202.440  
  84997274.11408      1297.863          45.750  
  21776134.300   114434356.13408      2771.555          47.750    21776136.060  
  89169636.15909      2159.652          53.750  
  23877133.620   125475186.40207      -405.367          44.250    23877135.500  
  97772871.13709      -315.871          51.000  
  23050060.060   121128886.21908      2942.820          47.750    23050062.540  
  94386153.16409      2293.102          51.250  
  22637101.180   118958769.58808     -3146.043          46.500    22637100.080  
  92695139.65505     -2451.461          38.250  
  19495411.080   104360460.15409      -810.316          49.500    19495414.440  
  81169260.21308      -630.250          47.000  
  20708090.480   110890880.26908      2345.660          46.000    20708093.700  
  86248476.50308      1824.402          45.250  
  22205678.860   118493761.18805     -3296.578          38.000                  
                                                
  21517049.920   114859466.31006     -3867.031          41.000    21517054.620  
  89335166.03904     -3007.695          33.750  
  21641948.020   115607416.78006       -29.852          39.000    21641952.600  
  89916887.86706       -23.219          39.000  
  23012352.420   123057390.90007      3582.047          42.250    23012357.020  
  95711325.48806      2786.035          40.500  
  20539709.160   109873598.66908      1156.160          47.750    20539715.660  
  85457266.60906       899.230          39.500  
 20 10 03 06 46  5.0000000  0 15G15G20G18G23G24G27G10G13R 7R 8R 6R22
                                R16R24R23
  20487332.920   107661661.26409     -1699.430          50.000    20487331.880  
  83892198.56009     -1324.234          54.000  
  20432198.300   107371926.70409      1555.133          49.750    20432197.120  
  83666430.83608      1211.793          46.750  
  20714512.200   108855496.62209     -1578.219          49.500    20714511.860  
  84822460.82608     -1229.785          46.000  
  20755618.980   109071513.72309      1663.664          49.500    20755618.640  
  84990788.75108      1296.359          45.750  
  21773498.540   114420505.03508      2769.063          47.500    21773500.280  
  89158843.09309      2157.711          53.750  
