     2.11           OBSERVATION DATA    M                   RINEX VERSION / TYPE
LEICA GEO OFFICE 8.4                    29-9-20 09:30       PGM / RUN BY / DATE
                                                            OBSERVER / AGENCY
vas1                                                        MARKER NAME
vas1                                                        MARKER NUMBER
468317              LEICA GX1220GG      5.62                REC # / TYPE / VERS
                    LEIAX1202GG                             ANT # / TYPE
 -1187771.4505  3858860.3348  4921921.1812                  APPROX POSITION XYZ
        1.4710        0.0000        0.0000                  ANTENNA: DELTA H/E/N
L1PhaOff:   0.0644  L2PhaOff:   0.0640                      COMMENT
     1     1                                                WAVELENGTH FACT L1/2
     6    C1    L1    D1    P2    L2    D2                  # / TYPES OF OBSERV
  2020     9    28     7    44   20.0000000     GPS         TIME OF FIRST OBS
  2020     9    28     9    15   50.0000000     GPS         TIME OF LAST OBS
    18                                                      LEAP SECONDS
    22                                                      # OF SATELLITES
          C1    L1    D1    P2    L2    D2                  COMMENT
   G 1     0     0     0     0     0     0                  PRN / # OF OBS
   G 2     0     0     0     0     0     0                  PRN / # OF OBS
   G 3     0     0     0     0     0     0                  PRN / # OF OBS
   G 4     0     0     0     0     0     0                  PRN / # OF OBS
   G 5     0     0     0     0     0     0                  PRN / # OF OBS
   G 6     0     0     0     0     0     0                  PRN / # OF OBS
   G 7     0     0     0     0     0     0                  PRN / # OF OBS
   G 8   171   171   171   111   111   111                  PRN / # OF OBS
   G 9     0     0     0     0     0     0                  PRN / # OF OBS
   G10  1099  1099  1099  1099  1099  1099                  PRN / # OF OBS
   G11   254   254   254   188   188   188                  PRN / # OF OBS
   G12   331   331   331   331   331   331                  PRN / # OF OBS
   G13    28    28    28    23    23    23                  PRN / # OF OBS
   G14     0     0     0     0     0     0                  PRN / # OF OBS
   G15  1098  1098  1098  1098  1098  1098                  PRN / # OF OBS
   G16     0     0     0     0     0     0                  PRN / # OF OBS
   G17     0     0     0     0     0     0                  PRN / # OF OBS
   G18   881   881   881   881   881   881                  PRN / # OF OBS
   G19     0     0     0     0     0     0                  PRN / # OF OBS
   G20  1099  1099  1099  1099  1099  1099                  PRN / # OF OBS
   G21  1099  1099  1099  1099  1099  1099                  PRN / # OF OBS
   G22     0     0     0     0     0     0                  PRN / # OF OBS
   G23     0     0     0     0     0     0                  PRN / # OF OBS
   G24  1099  1099  1099  1099  1099  1099                  PRN / # OF OBS
   G25     0     0     0     0     0     0                  PRN / # OF OBS
   G26     0     0     0     0     0     0                  PRN / # OF OBS
   G27    91    91    91    71    71    71                  PRN / # OF OBS
   G28     0     0     0     0     0     0                  PRN / # OF OBS
   G29     0     0     0     0     0     0                  PRN / # OF OBS
   G30     0     0     0     0     0     0                  PRN / # OF OBS
   G31     0     0     0     0     0     0                  PRN / # OF OBS
   G32  1087  1087  1087  1087  1087  1087                  PRN / # OF OBS
   R 1     0     0     0     0     0     0                  PRN / # OF OBS
   R 2  1099  1099  1099  1099  1099  1099                  PRN / # OF OBS
   R 3  1099  1099  1099  1099  1099  1099                  PRN / # OF OBS
   R 4  1050  1050  1050  1025  1025  1025                  PRN / # OF OBS
   R 5     0     0     0     0     0     0                  PRN / # OF OBS
   R 6     0     0     0     0     0     0                  PRN / # OF OBS
   R 7     0     0     0     0     0     0                  PRN / # OF OBS
   R 8     0     0     0     0     0     0                  PRN / # OF OBS
   R 9     0     0     0     0     0     0                  PRN / # OF OBS
   R10     0     0     0     0     0     0                  PRN / # OF OBS
   R11   447   447   447   434   434   434                  PRN / # OF OBS
   R12  1099  1099  1099  1099  1099  1099                  PRN / # OF OBS
   R13   833   833   833   731   731   731                  PRN / # OF OBS
   R14   296   296   296   295   295   295                  PRN / # OF OBS
   R15     0     0     0     0     0     0                  PRN / # OF OBS
   R16     0     0     0     0     0     0                  PRN / # OF OBS
   R17    67    67    67    67    67    67                  PRN / # OF OBS
   R18   843   843   843   843   843   843                  PRN / # OF OBS
   R19  1085  1085  1085  1085  1085  1085                  PRN / # OF OBS
   R20     0     0     0     0     0     0                  PRN / # OF OBS
   R21     0     0     0     0     0     0                  PRN / # OF OBS
   R22     0     0     0     0     0     0                  PRN / # OF OBS
   R23     0     0     0     0     0     0                  PRN / # OF OBS
   R24     0     0     0     0     0     0                  PRN / # OF OBS
                                                            END OF HEADER
 20 09 28 07 44 20.0000000  0 15G20G24G15G18G21G10G13R 3R 4R 2R18R12
                                R11R19R17
  19983320.884   105013060.30549       486.015    19983320.519    81828355.68648
       378.710  
  20852375.594   109579973.88249      1422.886    20852378.117    85387003.77048
      1108.742  
  21460426.992   112775303.07749     -2632.687    21460427.265    87876865.19947
     -2051.444  
  21663843.502   113844265.23948     -2803.766    21663844.875    88709822.58747
     -2184.757  
  24528197.388   128896539.59745      2588.038    24528196.709   100438861.14943
      2016.647  
  21866642.381   114909983.60249      2470.910    21866645.050    89540254.62147
      1925.379  
  24118721.621   126744735.70145     -3520.258    24118722.216    98762137.77043
     -2743.062  
  19913712.907   106599666.81009      1555.620    19913716.809    82910864.81908
      1209.922  
  23520895.001   125953321.69104      3434.479    23520900.268    97963714.13405
      2671.262  
  19990108.868   106671052.25408     -1842.758    19990113.827    82966389.08507
     -1433.261  
  20818818.314   111132260.11208     -2347.297    20818823.546    86436229.41407
     -1825.680  
  21037373.176   112377872.16608      1818.980    21037378.645    87405033.50307
      1414.757  
  22167881.772   118458443.40705     -1876.503    22167887.274    92134359.15705
     -1459.507  
  21318511.011   114039670.10105      1554.836    21318514.032    88697522.07806
      1209.315  
  23208505.828   124193407.04906     -4567.996    23208512.255    96594895.23606
     -3552.890  
 20 09 28 07 44 25.0000000  0 14G20G24G15G18G21G10G13R 3R 2R18R12R11
                                R19R17
  19982860.576   105010641.34249       479.828    19982860.208    81826470.78948
       373.890  
  20851024.171   109572872.35849      1416.108    20851026.764    85381470.11448
      1103.461  
  21462933.573   112788475.15349     -2637.722    21462933.850    87887129.15347
     -2055.371  
  21666513.256   113858294.89048     -2809.711    21666514.554    88720754.76047
     -2189.391  
  24525736.542   128883606.95046      2583.104    24525735.756   100428783.73944
      2012.804  
  21864292.831   114897636.47649      2466.292    21864295.525    89530633.49247
      1921.784  
  24122071.864   126762340.71846     -3523.473    24122071.725    98775855.98043
     -2745.559  
  19912261.750   106591898.74409      1550.020    19912265.610    82904822.99608
      1205.566  
  19991837.405   106680275.92909     -1848.180    19991842.314    82973563.03807
     -1437.476  
  20821019.643   111144010.82908     -2354.660    20821024.907    86445368.84107
     -1831.405  
  21035673.377   112368792.70408      1811.402    21035678.920    87397971.69807
      1408.863  
  22169640.055   118467838.63907     -1883.625    22169645.587    92141666.54206
     -1465.047  
  21317060.698   114031911.68705      1546.980    21317063.722    88691487.78106
      1203.207  
  23212775.048   124216253.32406     -4572.038    23212781.821    96612664.55306
     -3556.035  
 20 09 28 07 44 30.0000000  0 14G20G24G15G18G21G10G13R 3R 2R18R12R11
                                R19R17
  19982405.115   105008247.87649       478.198    19982404.739    81824605.75248
       372.621  
  20849678.320   109565800.04849      1413.723    20849680.988    85375959.23048
      1101.601  
  21465444.009   112801667.61649     -2638.573    21465444.301    87897408.99747
     -2056.030  
  21669187.570   113872348.41048     -2811.133    21669188.818    88731705.54747
     -2190.440  
  24523279.465   128870694.11246      2582.762    24523278.945   100418721.78844
      2012.550  
  21861946.903   114885308.51149      2465.812    21861949.646    89521027.29148
      1921.410  
  24125424.786   126779960.16246     -3523.059    24125425.012    98789585.37743
     -2745.245  
  19910814.846   106584153.35509      1549.070    19910818.658    82898798.79008
      1204.827  
  19993569.981   106689521.10309     -1849.063    19993574.832    82980753.72607
     -1438.163  
  20823227.047   111155793.88407     -2357.687    20823232.311    86454533.42107
     -1833.762  
  21033979.831   112359746.58708      1807.847    21033985.468    87390935.82907
      1406.101  
  22171404.502   118477266.62107     -1886.593    22171410.001    92148999.40806
     -1467.355  
  21315616.800   114024188.08805      1543.253    21315619.896    88685480.52606
      1200.305  
  23217047.271   124239115.19306     -4572.206    23217054.267    96630445.97905
     -3556.168  
 20 09 28 07 44 35.0000000  0 14G20G24G15G18G21G10G13R 3R 2R18R12R11
                                R19R17
  19981950.640   105005859.46749       476.757    19981950.231    81822744.64948
       371.495  
  20848334.170   109558736.68049      1411.320    20848336.936    85370455.31048
      1099.726  
  21467954.454   112814860.06049     -2639.016    21467954.770    87907688.82347
     -2056.374  
  21671862.532   113886405.33648     -2812.214    21671863.738    88742658.99347
     -2191.340  
  24520822.324   128857780.68946      2582.229    24520822.286   100408659.36943
      2012.121  
  21859600.756   114872979.27149      2465.418    21859603.479    89511420.09848
      1921.104  
  24128776.613   126797573.56946     -3522.777    24128776.573    98803310.11843
     -2745.020  
  19909368.313   106576409.79309      1547.922    19909372.119    82892776.02508
      1203.933  
  19995302.763   106698767.49708     -1849.874    19995307.551    82987945.37007
     -1438.796  
  20825436.626   111167588.55008     -2360.477    20825441.902    86463707.05207
     -1835.929  
  21032288.613   112350712.90208      1805.175    21032294.328    87383909.63007
      1404.022  
  22173171.167   118486706.61207     -1889.645    22173176.665    92156341.62306
     -1469.727  
  21314175.451   114016478.49805      1539.742    21314178.687    88679484.18606
      1197.574  
  23221318.541   124261971.81006     -4571.512    23221325.704    96648223.33506
     -3555.624  
 20 09 28 07 44 40.0000000  0 14G20G24G15G18G21G10G13R 3R 2R18R12R11
                                R19R17
  19981498.484   105003483.27849       473.766    19981498.027    81820893.07248
       369.163  
  20846993.079   109551689.35349      1407.770    20846995.897    85364963.88748
      1096.961  
  21470466.234   112828059.58649     -2640.730    21470466.593    87917974.16347
     -2057.715  
  21674539.496   113900472.81848     -2814.805    21674540.676    88753620.66947
     -2193.355  
  24518366.150   128844873.75246      2580.410    24518366.542   100398602.03944
      2010.710  
  21857255.712   114860655.88549      2463.890    21857258.410    89501817.46448
      1919.909  
  24132128.633   126815188.14946     -3523.559    24132129.083    98817035.80544
     -2745.628  
  19907923.466   106568675.41509      1545.729    19907927.273    82886760.40008
      1202.229  
  19997037.075   106708022.11908     -1851.968    19997041.794    82995143.40607
     -1440.413  
  20827649.750   111179402.10308     -2364.847    20827655.029    86472895.35907
     -1839.327  
  21030601.119   112341698.95808      1800.715    21030606.922    87376898.78507
      1400.551  
  22174941.335   118496165.72507     -1894.050    22174946.892    92163698.71407
     -1473.156  
  21312738.249   114008790.37205      1535.085    21312741.505    88673504.54106
      1193.957  
  23225590.104   124284830.31006     -4572.026    23225597.428    96666002.16506
     -3556.023  
 20 09 28 07 44 45.0000000  0 14G20G24G15G18G21G10G13R 3R 2R18R12R11
                                R19R17
  19981048.845   105001120.25449       471.441    19981048.334    81819051.74748
       367.352  
  20845655.215   109544658.89549      1404.363    20845658.090    85359485.60448
      1094.305  
  21472979.565   112841267.22849     -2642.188    21472979.970    87928265.83547
     -2058.848  
  21677218.669   113914551.80848     -2816.969    21677219.809    88764591.30047
     -2195.043  
  24515911.450   128831974.36946      2579.323    24515912.003   100388550.58243
      2009.867  
  21854911.959   114848339.34949      2462.601    21854914.645    89492220.16748
      1918.910  
  24135481.046   126832804.91846     -3524.050    24135481.404    98830763.15443
     -2746.015  
  19906480.538   106560951.18509      1543.878    19906484.339    82880752.67108
      1200.792  
  19998773.128   106717286.31208     -1853.605    19998777.853    83002348.88307
     -1441.695  
  20829866.589   111191235.36808     -2368.578    20829871.820    86482099.00607
     -1842.230  
  21028917.516   112332705.73208      1796.788    21028923.432    87369904.05807
      1397.504  
  22176715.342   118505644.98106     -1897.769    22176720.908    92171071.45607
     -1476.047  
  21311305.176   114001124.64805      1530.656    21311308.486    88667542.30906
      1190.512  
  23229862.327   124307691.86706     -4572.198    23229869.659    96683783.35605
     -3556.160  
 20 09 28 07 44 50.0000000  0 14G20G24G15G18G21G10G13R 3R 2R18R12R11
                                R19R17
  19980601.509   104998769.36349       468.933    19980600.944    81817219.88748
       365.398  
  20844320.390   109537644.37449      1401.144    20844323.303    85354019.74848
      1091.801  
  21475494.230   112854481.91749     -2643.620    21475494.656    87938562.99047
     -2059.968  
  21679899.840   113928641.24148     -2819.007    21679900.920    88775570.06547
     -2196.633  
  24513458.095   128819081.46546      2578.046    24513458.668   100378504.17644
      2008.862  
  21852569.308   114836028.60849      2461.718    21852571.967    89482627.38847
      1918.222  
  24138833.660   126850422.77045     -3523.812    24138833.861    98844491.28143
     -2745.832  
  19905039.294   106553236.00109      1541.987    19905043.069    82874751.97108
      1199.319  
  20000510.705   106726558.57508     -1855.300    20000515.449    83009560.64407
     -1443.015  
  20832086.907   111203087.29308     -2372.487    20832092.067    86491317.15707
     -1845.272  
  21027237.640   112323732.26108      1792.633    21027243.658    87362924.70307
      1394.269  
  22178492.931   118515143.28507     -1901.530    22178498.486    92178459.00507
     -1478.977  
  21309876.046   113993480.20505      1526.410    21309879.415    88661596.63006
      1187.207  
  23234134.946   124330555.26306     -4572.973    23234142.252    96701565.99206
     -3556.761  
 20 09 28 07 44 55.0000000  0 15G20G24G15G18G21G10G13R 3R 4R 2R18R12
                                R11R19R17
  19980156.431   104996430.40249       466.499    19980155.817    81815397.32148
       363.504  
  20842988.557   109530645.54249      1398.117    20842991.504    85348566.12748
      1089.440  
  21478010.193   112867703.36049     -2644.944    21478010.619    87948865.40747
     -2061.000  
  21682582.961   113942740.91648     -2821.054    21682584.012    88786556.81447
     -2198.227  
  24511005.951   128806194.89046      2576.762    24511005.984   100368462.69144
      2007.863  
  21850227.695   114823723.25249      2460.379    21850230.315    89473038.80648
      1917.179  
  24142186.431   126868041.48345     -3524.570    24142186.191    98858220.10443
     -2746.429  
  19903599.737   106545529.74909      1540.265    19903603.447    82868758.22208
      1197.983  
  23498467.310   125833225.11514      3431.199    23498469.950    97870298.86813
      2668.706  
  20002249.746   106735838.83508     -1856.796    20002254.549    83016778.61807
     -1444.180  
  20834310.657   111214957.79208     -2375.934    20834315.810    86500549.76207
     -1847.952  
  21025561.451   112314778.33108      1788.890    21025567.531    87355960.53707
      1391.358  
  22180273.976   118524660.36707     -1905.300    22180279.565    92185861.16607
     -1481.906  
  21308450.798   113985856.90205      1522.441    21308454.296    88655667.39506
      1184.117  
  23238407.854   124353420.24206     -4573.348    23238415.116    96719349.85006
     -3557.054  
 20 09 28 07 45  0.0000000  0 15G20G24G15G18G21G10G13R 3R 4R 2R18R12
                                R11R19R17
  19979713.573   104994103.04049       464.167    19979712.896    81813583.79048
       361.684  
  20841659.661   109523662.11649      1394.983    20841662.609    85343124.49548
      1086.995  
  21480527.374   112880931.29549     -2646.434    21480527.833    87959172.88447
     -2062.160  
  21685267.975   113956850.48048     -2822.902    21685268.988    88797551.28047
     -2199.668  
  24508555.003   128793314.32646      2575.320    24508555.130   100358425.91643
      2006.746  
  21847887.134   114811423.42549      2459.499    21847889.729    89463454.52947
      1916.492  
  24145539.213   126885660.69145     -3523.394    24145538.932    98871949.36044
     -2745.511  
  19902161.756   106537832.03109      1538.538    19902165.435    82862771.11308
      1196.640  
  23495264.189   125816072.16905      3429.984    23495266.638    97856957.68704
      2667.766  
  20003990.241   106745126.76408     -1858.397    20003995.109    83024002.55807
     -1445.426  
  20836537.819   111226846.34708     -2379.808    20836542.918    86509796.40107
     -1850.964  
  21023888.878   112305843.58808      1784.890    21023894.972    87349011.28607
      1388.249  
  22182058.554   118534196.02007     -1908.976    22182064.138    92193277.78606
     -1484.762  
  21307029.709   113978254.46905      1518.815    21307033.070    88649754.38406
      1181.297  
  23242680.970   124376286.54706     -4572.894    23242688.176    96737134.73805
     -3556.699  
 20 09 28 07 45  5.0000000  0 15G20G24G15G18G21G10G13R 3R 4R 2R18R12
                                R11R19R17
  19979273.494   104991790.31449       460.875    19979272.752    81811781.66248
       359.121  
  20840334.262   109516697.13349      1390.992    20840337.219    85337697.24448
      1083.891  
  21483046.358   112894168.71049     -2648.508    21483046.827    87969487.74447
     -2063.777  
  21687955.454   113970972.99648     -2825.913    21687956.448    88808555.82347
     -2202.015  
  24506105.796   128780442.77746      2573.116    24506105.808   100348396.16344
      2005.027  
  21845548.148   114799131.94049      2457.394    21845550.698    89453876.74448
      1914.848  
  24148892.765   126903283.41145     -3525.233    24148893.202    98885681.44145
     -2746.933  
  19900725.988   106530146.00009      1535.906    19900729.619    82856793.08508
      1194.589  
  23492061.652   125798922.82505      3429.464    23492064.048    97843619.35604
      2667.371  
  20005732.767   106754425.46608     -1860.938    20005737.677    83031234.89107
     -1447.394  
  20838768.942   111238756.22808     -2384.125    20838774.037    86519059.62707
     -1854.324  
  21022220.504   112296931.12408      1780.081    21022226.551    87342079.38107
      1384.508  
  22183847.176   118543753.21707     -1914.042    22183852.643    92200711.15406
     -1488.702  
  21305612.842   113970675.81405      1513.147    21305616.299    88643859.87806
      1176.891  
  23246954.919   124399157.27906     -4574.937    23246962.108    96754923.07406
     -3558.288  
 20 09 28 07 45 10.0000000  0 15G20G24G15G18G21G10G13R 3R 4R 2R18R12
                                R11R19R17
  19978835.994   104989491.20949       459.023    19978835.215    81809990.14848
       357.675  
  20839012.159   109509749.49449      1388.328    20839015.119    85332283.49648
      1081.813  
  21485566.953   112907414.52849     -2649.535    21485567.407    87979809.15847
     -2064.578  
  21690645.203   113985107.40948     -2827.378    21690646.205    88819569.64847
     -2203.156  
  24503658.052   128767579.20446      2572.500    24503657.988   100338372.59344
      2004.543  
  21843210.533   114786847.78649      2456.659    21843213.086    89444304.67648
      1914.277  
  24152246.578   126920908.63045     -3524.706    24152246.465    98899414.30851
     -2746.522  
  19899292.200   106522470.57309      1534.616    19899295.777    82850823.30708
      1193.585  
  23488859.674   125781776.22204      3429.464    23488862.161    97830283.14003
      2667.371  
  20007477.104   106763733.70608     -1861.983    20007482.030    83038474.63607
     -1448.210  
  20841003.791   111250686.22508     -2387.534    20841008.904    86528338.51207
     -1856.976  
  21020556.101   112288039.93208      1776.823    21020562.078    87335164.00707
      1381.973  
  22185639.580   118553330.90707     -1916.968    22185644.957    92208160.47806
     -1490.976  
  21304200.378   113963120.01705      1509.112    21304203.814    88637983.14706
      1173.754  
  23251229.477   124422031.20706     -4574.324    23251236.543    96772713.90405
     -3557.812  
 20 09 28 07 45 15.0000000  0 13G20G24G15G18G21G10R 3R 2R18R12R11R19
                                R17
  19978400.921   104987204.81849       455.851    19978400.122    81808208.54648
       355.211  
  20837693.196   109502818.39349      1384.363    20837696.152    85326882.64048
      1078.726  
  21488088.959   112920667.88449     -2651.582    21488089.399    87990136.44947
     -2066.171  
  21693337.047   113999252.76848     -2830.512    21693338.058    88830591.99347
     -2205.597  
  24501211.690   128754722.70246      2570.663    24501211.375   100328354.49844
      2003.046  
  21840874.137   114774570.03749      2454.676    21840876.692    89434737.59848
      1912.729  
  19897860.222   106514804.80009      1531.913    19897863.731    82844861.03708
      1191.483  
  20009223.200   106773051.11408     -1864.543    20009228.107    83045721.50507
     -1450.203  
  20843242.236   111262635.38408     -2392.070    20843247.352    86537632.29407
     -1860.503  
  21018895.537   112279169.08908      1772.152    21018901.401    87328264.47007
      1378.340  
  22187435.693   118562928.19607     -1921.425    22187440.885    92215625.04106
     -1494.440  
  21302792.001   113955586.27705      1504.305    21302795.492    88632123.57206
      1170.012  
  23255504.529   124444907.46806     -4575.379    23255511.435    96790506.51605
     -3558.633  
 20 09 28 07 45 20.0000000  0 14G20G24G15G18G21G32G10R 3R 2R18R12R11
                                R19R17
  19977968.507   104984932.40749       453.371    19977967.680    81806437.83048
       353.272  
  20836377.608   109495905.08349      1380.948    20836380.569    85321495.64148
      1076.058  
  21490612.665   112933930.01249     -2652.960    21490613.035    88000470.56847
     -2067.246  
  21696031.216   114013410.31948     -2832.383    21696032.242    88841623.85047
     -2207.054  
  24498766.841   128741874.56146      2569.120    24498766.170   100318342.97941
      2001.913  
  24680491.768   129696854.99657      3346.386    24680496.971   101062498.29454
      2607.574  
  21838539.194   114762299.92449      2453.531    21838541.753    89425176.47347
      1911.844  
  19896430.294   106507150.03409      1530.082    19896433.741    82838907.33008
      1190.063  
  20010971.175   106782378.42608     -1866.113    20010976.087    83052976.08107
     -1451.421  
  20845484.538   111274605.03708     -2395.847    20845489.624    86546942.01607
     -1863.440  
  21017239.010   112270319.87808      1768.156    21017244.775    87321381.76107
      1375.233  
  22189235.591   118572546.30406     -1925.616    22189240.708    92223105.79606
     -1497.702  
  21301388.124   113948075.73205      1500.063    21301391.520    88626282.04106
      1166.714  
  23259780.247   124467787.38606     -4575.898    23259786.970    96808301.98905
     -3559.039  
 20 09 28 07 45 25.0000000  0 14G20G24G15G18G21G32G10R 3R 2R18R12R11
                                R19R17
  19977538.080   104982670.53149       451.069    19977537.260    81804675.33048
       351.480  
  20835064.743   109489006.05749      1378.151    20835067.713    85316119.78148
      1073.887  
  21493137.349   112947197.44349     -2654.254    21493137.653    88010808.83047
     -2068.253  
  21698727.024   114027576.60448     -2834.270    21698728.071    88852662.50747
     -2208.526  
  24496322.853   128729031.28546      2567.934    24496321.791   100308335.25143
      2000.987  
  24677307.501   129680122.50247      3346.468    24677311.046   101049459.99345
      2607.569  
  21836205.039   114750034.03949      2452.602    21836207.602    89415618.64048
      1911.112  
  19895001.765   106499502.72609      1528.468    19895005.131    82832959.42908
      1188.809  
  20012720.353   106791712.12408     -1867.648    20012725.293    83060235.62208
     -1452.620  
  20847730.014   111286591.63808     -2399.383    20847735.089    86556264.92907
     -1866.190  
  21015585.834   112261488.78008      1764.241    21015591.548    87314513.14007
      1372.187  
  22191038.760   118582181.70306     -1928.941    22191043.699    92230599.99606
     -1500.293  
  21299987.730   113940584.88005      1495.973    21299991.210    88620455.83306
      1163.535  
  23264055.977   124490667.33806     -4576.417    23264062.526    96826097.48506
     -3559.441  
 20 09 28 07 45 30.0000000  0 15G20G24G15G18G21G32G10R 3R 4R 2R18R12
                                R11R19R17
  19977109.574   104980418.74749       449.469    19977108.737    81802920.69548
       350.229  
  20833754.522   109482120.86249      1375.645    20833757.490    85310754.70048
      1071.930  
  21495662.964   112960469.76749     -2654.917    21495663.195    88021150.91147
     -2068.765  
  21701424.445   114041751.21048     -2835.844    21701425.506    88863707.64747
     -2209.753  
  24493879.713   128716192.50146      2567.305    24493878.295   100298331.01243
      2000.495  
  24674123.250   129663389.58547      3346.585    24674127.568   101036421.40144
      2607.734  
  21833871.620   114737771.96949      2452.019    21833874.192    89406063.78248
      1910.663  
  19893574.503   106491862.38909      1527.398    19893577.800    82827016.94608
      1187.977  
  23476054.338   125713204.76215      3428.867    23476057.785    97776951.05514
      2666.901  
  20014470.669   106801052.11608     -1868.496    20014475.670    83067500.05908
     -1453.358  
  20849978.524   111298594.70808     -2401.973    20849983.652    86565600.64307
     -1868.203  
  21013935.940   112252675.37408      1761.008    21013941.654    87307658.27507
      1369.672  
  22192845.082   118591833.92506     -1932.163    22192849.762    92238107.27705
     -1502.797  
  21298591.060   113933113.26205      1492.089    21298594.469    88614644.57406
      1160.515  
  23268331.661   124513546.85806     -4576.262    23268338.073    96843892.66406
     -3559.320  
 20 09 28 07 45 35.0000000  0 15G20G24G15G18G21G32G10R 3R 4R 2R18R12
                                R11R19R17
  19976683.720   104978180.99249       445.874    19976682.907    81801176.99148
       347.434  
  20832447.704   109475253.54849      1371.640    20832450.685    85305403.55148
      1068.812  
  21498190.230   112973750.88649     -2657.417    21498190.452    88031499.82647
     -2070.719  
  21704124.144   114055937.97448     -2838.581    21704125.248    88874762.26247
     -2211.887  
  24491438.140   128703362.19846      2565.195    24491436.606   100288333.39144
      1998.851  
  24670939.751   129646659.99547      3345.515    24670943.955   101023385.31944
      2606.891  
  21831539.673   114725517.59449      2450.147    21831542.262    89396514.91547
      1909.203  
  19892149.315   106484232.96409      1524.581    19892152.528    82821082.94708
      1185.785  
  23472853.428   125696064.43605      3427.550    23472857.084    97763619.68404
      2665.867  
  20016222.846   106810401.97108     -1871.101    20016227.889    83074772.16908
     -1455.305  
  20852230.911   111310618.20008     -2406.879    20852236.062    86574952.23907
     -1872.020  
  21012290.082   112243883.65408      1755.996    21012295.832    87300820.26607
      1365.772  
  22194655.264   118601507.01706     -1936.854    22194659.715    92245630.78705
     -1506.444  
  21297198.599   113925664.88105      1486.698    21297202.050    88608851.38506
      1156.315  
  23272608.047   124536429.97406     -4577.112    23272614.320    96861690.63306
     -3559.980  
 20 09 28 07 45 40.0000000  0 15G20G24G15G18G21G32G10R 3R 4R 2R18R12
                                R11R19R17
  19976261.113   104975960.36849       442.621    19976260.359    81799446.63648
       344.898  
  20831144.869   109468407.20149      1367.504    20831147.870    85300068.74148
      1065.585  
  21500719.794   112987043.86849     -2659.563    21500719.999    88041857.98947
     -2072.391  
  21706826.755   114070140.06848     -2841.699    21706827.900    88885828.82647
     -2214.315  
  24488998.778   128690543.51146      2562.413    24488997.337   100278344.80344
      1996.688  
  24667757.408   129629937.01547      3344.421    24667761.766   101010354.44344
      2606.038  
  21829209.781   114713274.08549      2447.852    21829212.384    89386974.52048
      1907.417  
  19890726.796   106476617.79509      1521.944    19890729.929    82815160.04308
      1183.690  
  23469653.753   125678930.35705      3426.573    23469657.505    97750293.17804
      2665.109  
  20017977.536   106819765.23908     -1873.815    20017982.599    83082054.70808
     -1457.417  
  20854487.652   111322665.21208     -2411.723    20854492.921    86584322.11607
     -1875.792  
  21010648.946   112235116.84208      1750.999    21010654.680    87294001.62907
      1361.886  
  22196469.912   118611204.07306     -1941.781    22196474.185    92253172.94805
     -1510.273  
  21295811.115   113918243.12105      1481.851    21295814.637    88603078.90506
      1152.547  
  23276885.679   124559319.72806     -4578.171    23276891.791    96879493.76006
     -3560.804  
 20 09 28 07 45 45.0000000  0 15G20G24G15G18G21G32G10R 3R 4R 2R18R12
                                R11R19R17
  19975841.204   104973753.98049       439.921    19975840.505    81797727.37448
       342.797  
  20829845.477   109461578.88249      1363.781    20829848.509    85294747.97948
      1062.687  
  21503251.084   113000345.79549     -2661.241    21503251.286    88052223.12547
     -2073.698  
  21709531.746   114084354.52148     -2844.051    21709532.917    88896905.01447
     -2216.147  
  24486561.057   128677733.35646      2561.210    24486559.828   100268362.83142
      1995.737  
  24664575.802   129613217.65646      3343.612    24664579.773   100997326.40142
      2605.417  
  21826881.430   114701038.49049      2446.367    21826884.014    89377440.29648
      1906.262  
  19889306.382   106469013.77009      1519.664    19889309.435    82809245.80608
      1181.961  
  23466454.681   125661799.62505      3425.437    23466458.523    97736969.28204
      2664.226  
  20019734.121   106829138.62208     -1875.698    20019739.180    83089345.10808
     -1458.883  
  20856748.292   111334732.90908     -2415.491    20856753.673    86593708.09207
     -1878.719  
  21009011.857   112226371.93308      1746.823    21009017.647    87287200.04307
      1358.641  
  22198288.561   118620922.09906     -1945.843    22198292.592    92260731.40705
     -1513.438  
  21294428.164   113910844.79605      1477.487    21294431.614    88597324.65306
      1149.151  
  23281163.996   124582213.24306     -4578.723    23281170.017    96897299.80706
     -3561.237  
 20 09 28 07 45 50.0000000  0 15G20G24G15G18G21G32G10R 3R 4R 2R18R12
                                R11R19R17
  19975423.943   104971561.44449       437.504    19975423.296    81796018.90748
       340.909  
  20828549.435   109454768.16349      1360.844    20828552.473    85289440.92948
      1060.397  
  21505784.034   113013656.31449     -2662.449    21505784.239    88062594.95647
     -2074.636  
  21712238.999   114098580.98148     -2846.050    21712240.197    88907990.56047
     -2217.707  
  24484124.888   128664931.54545      2560.594    24484123.744   100258387.47444
      1995.272  
  24661395.015   129596501.60347      3343.336    24661399.024   100984300.88944
      2605.195  
  21824554.539   114688810.47249      2445.406    21824557.070    89367911.97248
      1905.512  
  19887887.944   106461420.63509      1518.050    19887890.982    82803340.03708
      1180.706  
  23463256.091   125644671.66805      3425.504    23463260.070    97723647.55404
      2664.280  
  20021492.552   106838521.88209     -1877.277    20021497.621    83096643.19808
     -1460.109  
  20859012.665   111346820.85008     -2419.195    20859018.218    86603109.81807
     -1881.602  
  21007378.860   112217648.66008      1743.039    21007384.676    87280415.27107
      1355.694  
  22200111.076   118630660.84606     -1949.734    22200114.930    92268305.98605
     -1516.464  
  21293049.548   113903469.56805      1473.434    21293052.924    88591588.36906
      1146.004  
  23285442.951   124605110.16706     -4579.180    23285448.918    96915108.51006
     -3561.589  
 20 09 28 07 45 55.0000000  0 16G20G24G15G18G21G32G 8G10R 3R 4R 2R18
                                R12R11R19R17
  19975010.549   104969389.26449       433.030    19975009.951    81794326.29848
       337.422  
  20827257.970   109447981.53449      1355.417    20827261.036    85284152.64948
      1056.167  
  21508319.865   113026981.88649     -2666.219    21508320.066    88072978.52447
     -2077.577  
  21714949.786   114112825.91648     -2850.453    21714950.976    88919090.49747
     -2221.121  
  24481691.590   128652144.41546      2556.270    24481690.367   100248423.48443
      1991.898  
  24658215.839   129579795.35747      3340.687    24658220.356   100971283.02744
      2603.132  
  24640025.941   129484214.20114       -51.215           0.000           0.0000 
         0.000  
  21822230.341   114676596.54149      2441.683    21822232.822    89358394.63148
      1902.608  
  19886472.721   106453844.83309      1513.784    19886475.729    82797447.74908
      1177.383  
  23460059.352   125627553.20905      3422.956    23460063.419    97710333.21004
      2662.301  
  20023254.118   106847921.97209     -1881.223    20023259.231    83103954.37608
     -1463.176  
  20861282.144   111358935.66908     -2425.430    20861287.772    86612532.46707
     -1886.445  
  21005751.169   112208953.51708      1736.558    21005756.973    87273652.38507
      1350.651  
  22201938.550   118640426.75007     -1955.461    22201942.311    92275901.71205
     -1520.914  
  21291676.311   113896124.33305      1466.352    21291679.855    88585875.40906
      1140.495  
  23289723.771   124628016.92306     -4582.062    23289729.769    96932924.85706
     -3563.831  
 20 09 28 07 46  0.0000000  0 15G20G24G15G18G21G32G10R 3R 4R 2R18R12
                                R11R19R17
  19974598.861   104967226.01649       432.266    19974598.314    81792640.65248
       336.831  
  20825968.924   109441207.61349      1354.051    20825971.987    85278874.26948
      1055.105  
  21510856.384   113040311.07149     -2665.715    21510856.538    88083364.89247
     -2077.183  
  21717661.877   114127077.86348     -2850.633    21717663.090    88930195.90247
     -2221.277  
  24479258.857   128639360.63247      2557.124    24479257.746   100238462.08743
      1992.563  
  24655036.423   129563087.34947      3342.214    24655041.446   100958263.79544
      2604.320  
  21819906.639   114664385.21449      2442.387    21819909.023    89348879.31047
      1903.145  
  19885058.593   106446274.83509      1513.819    19885061.553    82791559.97708
      1177.414  
  23456862.134   125610432.63105      3424.512    23456866.256    97697017.20404
      2663.503  
  20025016.543   106857326.35509     -1880.854    20025021.630    83111268.89408
     -1462.890  
  20863554.417   111371065.47008     -2427.301    20863560.107    86621966.75407
     -1887.905  
  21004126.535   112200274.88908      1734.586    21004132.360    87266902.33507
      1349.120  
  22203768.872   118650208.15806     -1957.387    22203772.669    92283509.43705
     -1522.414  
  21290306.427   113888797.00005      1464.344    21290310.118    88580176.37306
      1138.933  
  23294004.190   124650921.99706     -4580.233    23294010.292    96950739.90206
     -3562.409  
 20 09 28 07 46  5.0000000  0 16G20G24G15G18G21G32G10G13R 3R 4R 2R18
                                R12R11R19R17
  19974188.718   104965070.82749       429.854    19974188.212    81790961.28848
       334.952  
  20824682.132   109434445.59849      1350.828    20824685.202    85273605.16248
      1052.590  
  21513393.424   113053643.05749     -2666.828    21513393.493    88093753.45347
     -2078.051  
  21720375.130   114141335.98048     -2852.375    21720376.370    88941306.11247
     -2222.632  
  24476826.650   128626579.39147      2555.910    24476825.478   100228502.70144
      1991.617  
  24651856.454   129546376.87746      3342.488    24651861.142   100945242.64244
      2604.531  
  21817583.299   114652175.69949      2441.440    21817585.553    89339365.40047
      1902.418  
  24189164.160   127114914.67815     -3528.573           0.000           0.0000 
         0.000  
  19883645.409   106438709.82409      1512.172    19883648.324    82785676.08408
      1176.133  
  23453664.540   125593309.06205      3424.792    23453668.393    97683698.87304
      2663.726  
  20026779.800   106866735.08809     -1882.188    20026784.798    83118586.79107
     -1463.926  
  20865829.386   111383209.78008     -2430.659    20865835.136    86631412.32007
     -1890.515  
  21002504.858   112191611.96208      1730.503    21002510.682    87260164.51607
      1345.948  
  22205602.016   118660004.30006     -1960.847    22205605.838    92291128.65805
     -1525.109  
  21288939.799   113881487.02305      1460.062    21288943.596    88574490.84206
      1135.605  
  23298284.141   124673824.37606     -4580.379    23298290.308    96968552.83906
     -3562.520  
 20 09 28 07 46 10.0000000  0 16G20G24G15G18G21G32G10G13R 3R 4R 2R18
                                R12R11R19R17
  19973780.669   104962926.60649       427.219    19973780.189    81789290.47248
       332.897  
  20823398.144   109427698.41649      1347.390    20823401.240    85268347.61748
      1049.909  
  21515931.518   113066980.67449     -2668.543    21515931.489    88104146.40447
     -2079.382  
  21723090.126   114155603.16348     -2854.785    21723091.369    88952423.38847
     -2224.511  
  24474395.457   128613803.54346      2554.105    24474394.295   100218547.50544
      1990.211  
  24648676.467   129529666.80746      3341.229    24648681.208   100932221.81145
      2603.551  
  21815260.851   114639970.90249      2439.984    21815262.995    89329855.16548
      1901.280  
  24192521.949   127132560.38445     -3529.617    24192527.079    99064353.72151
     -2750.351  
  19882233.654   106431152.68209      1510.124    19882236.565    82779798.31008
      1174.542  
  23450466.889   125576185.35105      3424.457    23450470.547    97670380.42503
      2663.460  
  20028544.279   106876150.46809     -1884.254    20028549.170    83125909.87107
     -1465.530  
  20868107.600   111395371.10408     -2434.515    20868113.316    86640871.12507
     -1893.516  
  21000886.674   112182967.69408      1726.425    21000892.474    87253441.20407
      1342.777  
  22207438.453   118669818.03506     -1965.426    22207442.404    92298761.55905
     -1528.667  
  21287576.937   113874197.25505      1455.625    21287580.836    88568821.02306
      1132.151  
  23302564.094   124696727.11407     -4581.051    23302570.424    96986366.06506
     -3563.047  
 20 09 28 07 46 15.0000000  0 16G20G24G15G18G21G32G10G13R 3R 4R 2R18
                                R12R11R19R17
  19973375.461   104960797.31649       424.234    19973375.014    81787631.28748
       330.569  
  20822117.742   109420970.04649      1343.641    20822120.836    85263104.73348
      1046.987  
  21518471.427   113080327.89149     -2670.538    21518471.309    88114546.82347
     -2080.945  
  21725807.582   114169883.30448     -2857.409    21725808.832    88963550.75847
     -2226.559  
  24471966.033   128601037.05346      2552.074    24471965.056   100208599.61743
      1988.629  
  24645497.566   129512961.03747      3340.566    24645502.280   100919204.35345
      2603.038  
  21812940.025   114627774.75349      2438.222    21812942.100    89320351.67448
      1899.914  
  24195880.516   127150209.87045     -3530.109    24195885.174    99078106.65041
     -2750.734  
  19880824.147   106423607.48309      1507.769    19880827.019    82773929.81708
      1172.707  
  23447269.857   125559065.67205      3423.112    23447273.492    97657065.14803
      2662.422  
  20030310.904   106885577.05209     -1886.562    20030315.662    83133241.65507
     -1467.332  
  20870389.822   111407553.72808     -2438.691    20870395.476    86650346.48707
     -1896.765  
  20999272.765   112174346.07808      1722.104    20999278.474    87246735.50007
      1339.409  
  22209278.988   118679653.39206     -1969.441    22209283.025    92306411.28105
     -1531.792  
  21286218.728   113866931.85005      1450.852    21286222.615    88563170.15106
      1128.437  
  23306844.921   124719634.15507     -4581.605    23306851.232    97004182.64406
     -3563.480  
 20 09 28 07 46 20.0000000  0 16G20G24G15G18G21G32G10G13R 3R 4R 2R18
                                R12R11R19R17
  19972972.895   104958681.88349       421.473    19972972.467    81785982.89448
       328.418  
  20820840.665   109414259.18149      1340.328    20820843.748    85257875.48748
      1044.405  
  21521012.961   113093683.58349     -2672.250    21521012.737    88124953.85947
     -2082.273  
  21728527.285   114184175.34448     -2859.656    21728528.539    88974687.40947
     -2228.309  
  24469538.262   128588278.87247      2550.512    24469537.186   100198658.14543
      1987.406  
  24642319.241   129496258.54846      3340.191    24642323.755   100906189.44945
      2602.746  
  21810620.639   114615586.17349      2436.816    21810622.685    89310854.09048
      1898.815  
  24199239.608   127167861.95545     -3531.565    24199247.709    99091861.45141
     -2751.883  
  19879416.680   106416073.16909      1505.655    19879419.517    82768069.79908
      1171.062  
  23444073.361   125541948.79905      3423.175    23444076.988    97643752.04104
      2662.468  
  20032079.309   106895013.16309     -1888.433    20032083.955    83140580.85107
     -1468.785  
  20872675.819   111419756.41008     -2442.500    20872681.381    86659837.45707
     -1899.726  
  20997662.832   112165746.07408      1717.555    20997668.505    87240046.61007
      1335.875  
  22211123.227   118689509.22306     -1973.265    22211127.457    92314076.93905
     -1534.761  
  21284864.820   113859689.51205      1446.288    21284868.661    88557537.22306
      1124.887  
  23311126.324   124742544.36706     -4582.460    23311132.651    97022001.66606
     -3564.145  
 20 09 28 07 46 25.0000000  0 16G20G24G15G18G21G32G10G13R 3R 4R 2R18
                                R12R11R19R17
  19972572.747   104956579.05849       419.469    19972572.305    81784344.32848
       326.854  
  20819566.734   109407564.78249      1337.379    20819569.768    85252659.06748
      1042.109  
  21523555.864   113107046.47449     -2672.983    21523555.540    88135366.49447
     -2082.848  
  21731248.959   114198477.99648     -2861.300    21731250.242    88985832.32847
     -2229.589  
  24467111.827   128575527.68147      2549.851    24467110.760   100188722.17844
      1986.901  
  24639141.205   129479558.04446      3340.487    24639145.633   100893176.06844
      2602.972  
  21808302.450   114603403.91649      2436.227    21808304.494    89301361.42248
      1898.359  
  24202598.976   127185515.27004     -3530.098           0.000           0.0000 
         0.000  
  19878010.949   106408548.27709      1504.206    19878013.774    82762217.10408
      1169.933  
  23440877.169   125524833.55605      3423.453    23440880.765    97630440.19504
      2662.688  
  20033849.359   106904458.17509     -1889.559    20033853.932    83147926.97507
     -1469.655  
  20874965.317   111431977.91008     -2445.897    20874970.826    86669343.06407
     -1902.371  
  20996056.722   112157166.46008      1714.281    20996062.312    87233373.59307
      1333.327  
  22212971.125   118699384.33106     -1976.304    22212975.484    92321757.57006
     -1537.128  
  21283515.008   113852469.08205      1441.848    21283518.781    88551921.33506
      1121.437  
  23315408.101   124765456.42906     -4582.847    23315414.488    97039822.15306
     -3564.440  
 20 09 28 07 46 30.0000000  0 16G20G24G15G18G21G32G10G13R 3R 4R 2R18
                                R12R11R19R17
  19972175.001   104954488.79449       416.680    19972174.525    81782715.54648
       324.679  
  20818295.900   109400886.69149      1333.925    20818298.924    85247455.36048
      1039.418  
  21526100.146   113120416.54749     -2674.781    21526099.696    88145784.73047
     -2084.250  
  21733972.653   114212791.22748     -2863.726    21733973.981    88996985.49347
     -2231.499  
  24464686.721   128562783.51047      2547.940    24464685.690   100178791.67343
      1985.410  
  24635963.486   129462859.54846      3339.469    24635967.842   100880164.26445
      2602.183  
  21805985.446   114591227.97649      2434.492    21805987.527    89291873.67448
      1897.004  
  24205958.506   127203169.87505     -3530.793           0.000           0.0000 
         0.000  
  19876607.025   106401032.93209      1502.128    19876609.813    82756371.83307
      1168.324  
  23437681.201   125507719.91504      3422.854    23437684.969    97617129.60004
      2662.222  
  20035620.923   106913911.39409     -1891.672    20035625.466    83155279.47007
     -1471.305  
  20877258.374   111444218.18208     -2449.883    20877263.786    86678863.26407
     -1905.469  
  20994454.434   112148607.13708      1709.852    20994459.937    87226716.34307
      1329.882  
  22214822.523   118709278.54607     -1980.695    22214826.997    92329453.06105
     -1540.542  
  21282169.284   113845270.58805      1437.438    21282173.052    88546322.49906
      1118.003  
  23319690.269   124788370.29906     -4582.711    23319696.692    97057644.03906
     -3564.335  
 20 09 28 07 46 35.0000000  0 16G20G24G15G18G21G32G10G13R 3R 4R 2R18
                                R12R11R19R17
  19971779.672   104952411.29949       414.105    19971779.190    81781096.71748
       322.675  
  20817028.240   109394225.09449      1330.565    20817031.250    85242264.50948
      1036.804  
  21528645.859   113133793.98649     -2676.218    21528645.261    88156208.70747
     -2085.371  
  21736698.379   114227115.23448     -2866.035    21736699.742    89008147.05747
     -2233.277  
  24462262.960   128550046.52947      2546.792    24462261.844   100168866.77443
      1984.519  
  24632786.207   129446163.20746      3338.679    24632790.438   100867154.14044
      2601.569  
  21803669.671   114579058.53049      2433.132    21803671.823    89282391.00548
      1895.948  
  24209318.282   127220825.95944     -3531.578    24209326.615    99133124.07254
     -2751.878  
  19875204.910   106393527.26709      1500.093    19875207.656    82750534.09908
      1166.737  
  23434485.794   125490607.96905      3422.214    23434489.480    97603820.31504
      2661.722  
  20037394.182   106923373.68809     -1893.473    20037398.709    83162639.02407
     -1472.703  
  20879555.001   111456477.39208     -2453.871    20879560.322    86688398.18907
     -1908.570  
  20992855.947   112140068.33508      1705.492    20992861.403    87220075.05307
      1326.492  
  22216677.689   118719192.14607     -1984.809    22216682.124    92337163.64006
     -1543.742  
  21280827.778   113838094.02905      1432.729    21280831.432    88540740.73106
      1114.347  
  23323972.849   124811286.24906     -4583.245    23323979.226    97075467.54806
     -3564.749  
 20 09 28 07 46 40.0000000  0 15G20G24G15G18G21G32G10R 3R 4R 2R18R12
                                R11R19R17
  19971387.526   104950350.46349       410.480    19971387.011    81779490.87048
       319.851  
  20815764.480   109387584.05349      1326.020    20815767.493    85237089.66848
      1033.257  
  21531193.704   113147182.69149     -2678.898    21531192.970    88166641.46247
     -2087.456  
  21739426.862   114241453.85048     -2869.109    21739428.280    89019319.99547
     -2235.671  
  24459841.324   128537320.71347      2543.769    24459840.379   100158950.56043
      1982.156  
  24629610.008   129429472.95046      3337.547    24629614.148   100854148.73043
      2600.684  
  21801355.876   114566899.48849      2430.772    21801358.096    89272916.42948
      1894.108  
  19873805.334   106386035.35109      1496.976    19873808.074    82744707.05508
      1164.315  
  23431291.347   125473501.72604      3420.769    23431295.233    97590515.48104
      2660.598  
  20039169.729   106932848.31108     -1896.191    20039174.249    83170008.17507
     -1474.819  
  20881855.873   111468759.38408     -2458.836    20881861.134    86697950.83307
     -1912.433  
  20991262.015   112131554.02708      1700.272    20991267.499    87213452.81607
      1322.433  
  22218537.213   118729128.97207     -1989.789    22218541.652    92344892.28806
     -1547.612  
  21279491.169   113830943.54005      1428.218    21279494.740    88535179.24406
      1110.832  
  23328256.429   124834208.11106     -4584.616    23328262.820    97093295.65706
     -3565.815  
 20 09 28 07 46 45.0000000  0 15G20G24G15G18G21G32G10R 3R 4R 2R18R12
                                R11R19R17
  19970997.628   104948301.50249       408.520    19970997.083    81777894.27448
       318.323  
  20814503.717   109380958.73049      1323.293    20814506.711    85231927.07148
      1031.133  
  21533742.759   113160577.87849     -2679.745    21533741.918    88177079.26147
     -2088.117  
  21742157.240   114255802.33648     -2870.707    21742158.680    89030500.62347
     -2236.917  
  24457420.843   128524601.24947      2543.187    24457420.135   100149039.28243
      1981.699  
  24626434.092   129412784.02646      3337.531    24626438.331   100841144.41945
      2600.672  
  21799043.166   114554746.08049      2429.977    21799045.442    89263446.24648
      1893.488  
  19872407.389   106378552.13609      1495.683    19872410.117    82738886.78108
      1163.309  
  23428096.962   125456396.50304      3420.042    23428101.039    97577211.43404
      2660.038  
  20040946.764   106942330.75608     -1897.410    20040951.270    83177383.40807
     -1475.766  
  20884160.124   111481059.37908     -2461.965    20884165.345    86707517.49207
     -1914.866  
  20989671.793   112123059.34608      1696.781    20989677.276    87206845.83807
      1319.719  
  22220400.228   118739084.23507     -1993.125    22220404.646    92352635.28106
     -1550.207  
  21278158.503   113823814.33205      1423.789    21278162.033    88529634.30606
      1107.391  
  23332540.198   124857130.96005     -4584.738    23332546.603    97111124.52106
     -3565.909  
 20 09 28 07 46 50.0000000  0 15G20G24G15G18G21G32G10R 3R 4R 2R18R12
                                R11R19R17
  19970610.210   104946265.54749       406.008    19970609.623    81776307.81548
       316.367  
  20813246.164   109374350.21649      1320.219    20813249.181    85226777.57048
      1028.737  
  21536293.241   113173980.65749     -2681.253    21536292.290    88187522.98347
     -2089.289  
  21744889.718   114270161.76048     -2872.719    21744891.163    89041689.77647
     -2238.484  
  24455001.838   128511889.29247      2541.710    24455000.940   100139133.83443
      1980.550  
  24623258.715   129396097.46346      3336.789    24623263.279   100828141.88945
      2600.093  
  21796731.748   114542599.43449      2428.718    21796734.058    89253981.32748
      1892.508  
  19871011.292   106371078.84309      1493.870    19871014.012    82733074.21408
      1161.894  
  23424902.984   125439293.14304      3420.136    23424907.188    97563908.84204
      2660.105  
  20042725.413   106951822.21608     -1899.030    20042729.966    83184765.65507
     -1477.026  
  20886467.908   111493378.45508     -2465.554    20886473.166    86717098.98607
     -1917.656  
  20988085.430   112114585.40108      1692.940    20988090.908    87200255.00007
      1316.729  
  22222266.892   118749059.09207     -1996.637    22222271.274    92360393.49906
     -1552.944  
  21276829.999   113816707.48105      1418.879    21276833.536    88524106.76106
      1103.574  
  23336824.387   124880055.98906     -4585.031    23336830.719    97128955.08306
     -3566.140  
 20 09 28 07 46 55.0000000  0 15G20G24G15G18G21G32G10R 3R 4R 2R18R12
                                R11R19R17
  19970225.430   104944243.44949       402.594    19970224.777    81774732.15448
       313.706  
  20811992.002   109367759.48449      1315.987    20811995.035    85221641.92448
      1025.440  
  21538845.318   113187391.81849     -2683.546    21538844.289    88197973.23947
     -2091.077  
  21747624.427   114284532.96948     -2875.964    21747625.895    89052888.11047
     -2241.016  
  24452584.387   128499185.69147      2539.328    24452583.571   100129234.95744
      1978.694  
  24620083.916   129379414.12646      3335.991    24620088.751   100815141.91644
      2599.472  
  21794421.784   114530460.36549      2426.563    21794424.117    89244522.31748
      1890.828  
  19869617.236   106363616.35309      1490.972    19869619.926    82727270.05408
      1159.644  
  23421709.493   125422192.64704      3419.479    23421713.816    97550608.46704
      2659.597  
  20044505.852   106961323.23408     -1901.621    20044510.504    83192155.33108
     -1479.042  
  20888779.432   111505717.49708     -2470.358    20888784.742    86726696.01107
     -1921.395  
  20986503.209   112106133.21308      1687.772    20986508.618    87193681.07707
      1312.711  
  22224137.383   118759054.27207     -2001.897    22224141.714    92368167.53106
     -1557.030  
  21275505.794   113809623.84505      1413.843    21275509.400    88518597.26906
      1099.655  
  23341109.060   124902984.10706     -4586.655    23341115.322    97146788.04906
     -3567.401  
 20 09 28 07 47  0.0000000  0 15G20G24G15G18G21G32G10R 3R 4R 2R18R12
                                R11R19R17
  19969843.200   104942234.78849       400.660    19969842.510    81773166.96248
       312.199  
  20810741.113   109361186.02249      1313.460    20810744.184    85216519.74348
      1023.472  
  21541398.926   113200810.96249     -2684.375    21541397.799    88208429.71747
     -2091.723  
  21750361.318   114298915.52248     -2877.324    21750362.772    89064095.28947
     -2242.073  
  24450168.431   128486490.00747      2538.663    24450167.621   100119342.20142
      1978.175  
  24616909.719   129362733.76346      3335.910    24616914.598   100802144.22944
      2599.409  
  21792113.188   114518328.51949      2425.926    21792115.556    89235068.92848
      1890.327  
  19868225.112   106356164.30009      1489.699    19868227.804    82721474.01108
      1158.651  
  23418516.545   125405094.77204      3419.680    23418520.904    97537310.13504
      2659.749  
  20046288.057   106970833.63608     -1902.726    20046292.779    83199552.30707
     -1479.901  
  20891094.569   111518076.10708     -2473.440    20891099.977    86736308.25307
     -1923.792  
  20984924.935   112097702.23108      1684.285    20984930.306    87187123.64707
      1310.000  
  22226011.604   118769069.48007     -2004.683    22226015.861    92375957.12606
     -1559.203  
  21274185.888   113802563.01905      1409.921    21274189.558    88513105.51506
      1096.601  
  23345394.144   124925914.80106     -4585.960    23345400.315    97164623.01006
     -3566.866  
 20 09 28 07 47  5.0000000  0 15G20G24G15G18G21G32G10R 3R 4R 2R18R12
                                R11R19R17
  19969463.118   104940237.35149       398.405    19969462.387    81771610.51348
       310.441  
  20809493.060   109354627.45949      1310.246    20809496.168    85211409.17148
      1020.968  
  21543953.643   113214235.87249     -2685.703    21543952.458    88218890.68147
     -2092.758  
  21753099.911   114313307.23948     -2879.304    21753101.353    89075309.60147
     -2243.617  
  24447753.545   128473800.03547      2537.769    24447752.777   100109453.94443
      1977.480  
  24613735.595   129346053.94146      3335.944    24613740.522   100789146.94844
      2599.433  
  21789805.525   114506201.66649      2424.741    21789807.932    89225619.43548
      1889.405  
  19866834.515   106348720.38909      1487.980    19866837.234    82715684.30208
      1157.315  
  23415323.526   125387996.95704      3418.991    23415327.976    97524011.85804
      2659.219  
  20048071.594   106980351.15008     -1904.272    20048076.409    83206954.81607
     -1481.105  
  20893412.969   111530451.88308     -2476.980    20893418.435    86745933.84807
     -1926.543  
  20983350.201   112089290.28508      1680.477    20983355.550    87180581.02407
      1307.038  
  22227889.211   118779102.40607     -2008.301    22227893.347    92383760.50706
     -1562.016  
  21272869.871   113795522.71705      1406.003    21272873.517    88507629.73006
      1093.558  
  23349679.320   124948845.76706     -4586.328    23349685.339    97182458.19806
     -3567.148  
 20 09 28 07 47 10.0000000  0 15G20G24G15G18G21G32G10R 3R 4R 2R18R12
                                R11R19R17
  19969085.571   104938253.23249       395.086    19969084.800    81770064.45148
       307.858  
  20808248.255   109348085.93149      1306.319    20808251.364    85206311.87548
      1017.905  
  21546509.826   113227668.57949     -2687.582    21546508.640    88229357.72847
     -2094.223  
  21755840.626   114327710.13648     -2881.918    21755842.108    89086532.62947
     -2245.652  
  24445340.062   128461117.85146      2535.409    24445339.636   100099571.75344
      1975.652  
  24610561.984   129329376.93846      3335.063    24610567.069   100776151.91045
      2598.745  
  21787499.186   114494081.86749      2423.179    21787501.612    89216175.44148
      1888.191  
