     2.11           OBSERVATION DATA    M                   RINEX VERSION / TYPE
LEICA GEO OFFICE 8.4                    29-9-20 09:30       PGM / RUN BY / DATE
                                                            OBSERVER / AGENCY
vas2                                                        MARKER NAME
vas2                                                        MARKER NUMBER
468317              LEICA GX1220GG      5.62                REC # / TYPE / VERS
                    LEIAX1202GG                             ANT # / TYPE
 -1187771.2864  3858860.7629  4921922.3970                  APPROX POSITION XYZ
        1.3670        0.0000        0.0000                  ANTENNA: DELTA H/E/N
L1PhaOff:   0.0644  L2PhaOff:   0.0640                      COMMENT
     1     1                                                WAVELENGTH FACT L1/2
     6    C1    L1    D1    P2    L2    D2                  # / TYPES OF OBSERV
  2020     9    28     9    19   30.0000000     GPS         TIME OF FIRST OBS
  2020     9    28    10    44   40.0000000     GPS         TIME OF LAST OBS
    18                                                      LEAP SECONDS
    21                                                      # OF SATELLITES
          C1    L1    D1    P2    L2    D2                  COMMENT
   G 1   617   617   617   600   600   600                  PRN / # OF OBS
   G 2     0     0     0     0     0     0                  PRN / # OF OBS
   G 3     0     0     0     0     0     0                  PRN / # OF OBS
   G 4     0     0     0     0     0     0                  PRN / # OF OBS
   G 5     0     0     0     0     0     0                  PRN / # OF OBS
   G 6     0     0     0     0     0     0                  PRN / # OF OBS
   G 7     0     0     0     0     0     0                  PRN / # OF OBS
   G 8     0     0     0     0     0     0                  PRN / # OF OBS
   G 9     0     0     0     0     0     0                  PRN / # OF OBS
   G10  1023  1023  1023  1023  1023  1023                  PRN / # OF OBS
   G11   434   434   434   395   395   395                  PRN / # OF OBS
   G12  1023  1023  1023  1023  1023  1023                  PRN / # OF OBS
   G13     0     0     0     0     0     0                  PRN / # OF OBS
   G14     0     0     0     0     0     0                  PRN / # OF OBS
   G15     0     0     0     0     0     0                  PRN / # OF OBS
   G16     0     0     0     0     0     0                  PRN / # OF OBS
   G17     0     0     0     0     0     0                  PRN / # OF OBS
   G18     0     0     0     0     0     0                  PRN / # OF OBS
   G19     0     0     0     0     0     0                  PRN / # OF OBS
   G20   997   997   997   997   997   997                  PRN / # OF OBS
   G21  1006  1006  1006  1001  1001  1001                  PRN / # OF OBS
   G22   227   227   227   173   173   173                  PRN / # OF OBS
   G23     0     0     0     0     0     0                  PRN / # OF OBS
   G24   876   876   876   872   872   872                  PRN / # OF OBS
   G25   997   997   997   997   997   997                  PRN / # OF OBS
   G26     0     0     0     0     0     0                  PRN / # OF OBS
   G27     0     0     0     0     0     0                  PRN / # OF OBS
   G28     0     0     0     0     0     0                  PRN / # OF OBS
   G29     0     0     0     0     0     0                  PRN / # OF OBS
   G30     0     0     0     0     0     0                  PRN / # OF OBS
   G31   783   783   783   781   781   781                  PRN / # OF OBS
   G32  1023  1023  1023  1023  1023  1023                  PRN / # OF OBS
   R 1     0     0     0     0     0     0                  PRN / # OF OBS
   R 2   173   173   173   173   173   173                  PRN / # OF OBS
   R 3  1023  1023  1023  1023  1023  1023                  PRN / # OF OBS
   R 4  1023  1023  1023  1023  1023  1023                  PRN / # OF OBS
   R 5   708   708   708   708   708   708                  PRN / # OF OBS
   R 6     0     0     0     0     0     0                  PRN / # OF OBS
   R 7     0     0     0     0     0     0                  PRN / # OF OBS
   R 8     0     0     0     0     0     0                  PRN / # OF OBS
   R 9     0     0     0     0     0     0                  PRN / # OF OBS
   R10     0     0     0     0     0     0                  PRN / # OF OBS
   R11     0     0     0     0     0     0                  PRN / # OF OBS
   R12   489   489   489   486   486   486                  PRN / # OF OBS
   R13  1017  1017  1017  1007  1007  1007                  PRN / # OF OBS
   R14  1023  1023  1023  1023  1023  1023                  PRN / # OF OBS
   R15   352   352   352   350   350   350                  PRN / # OF OBS
   R16     0     0     0     0     0     0                  PRN / # OF OBS
   R17     0     0     0     0     0     0                  PRN / # OF OBS
   R18     0     0     0     0     0     0                  PRN / # OF OBS
   R19   162   162   162   162   162   162                  PRN / # OF OBS
   R20     0     0     0     0     0     0                  PRN / # OF OBS
   R21   302   302   302   298   298   298                  PRN / # OF OBS
   R22     0     0     0     0     0     0                  PRN / # OF OBS
   R23     0     0     0     0     0     0                  PRN / # OF OBS
   R24     0     0     0     0     0     0                  PRN / # OF OBS
                                                            END OF HEADER
 20 09 28 09 19 30.0000000  0 13G20G24G21G32G12G10R 3R 4R 2R13R12R14
                                R19
  21160457.193   111198940.98749     -2592.426    21160457.030    86648519.63847
     -2020.073  
  21439912.451   112667508.90448     -2319.605    21439914.977    87792876.80746
     -1807.488  
  23016145.789   120950671.03548       -59.714    23016145.316    94247278.64546
       -46.535  
  21579437.575   113400748.22449      2256.348    21579439.646    88364243.53547
      1758.184  
  23462176.765   123294587.63047      2911.706    23462180.414    96073698.93744
      2268.863  
  20382533.242   107110943.78449       -51.519    20382535.686    83463082.55948
       -40.144  
  19607941.114   104962846.74309     -1081.354    19607943.688    81637783.45308
      -841.058  
  20316505.297   108793958.88909      2334.444    20316507.980    84617552.79408
      1815.675  
  22900338.807   122200589.28006     -3424.429    22900346.090    95044935.72406
     -2663.453  
  19909162.371   106313814.12306      1005.913    19909166.833    82688543.57906
       782.379  
  21797869.980   116440309.80804     -3031.535    21797876.190    90564709.54105
     -2357.863  
  22176784.270   118214734.95307      4279.120    22176790.859    91944829.57506
      3328.206  
  22425420.381   119960873.80904     -3280.550    22425424.074    93302916.16505
     -2551.543  
 20 09 28 09 19 35.0000000  0 13G20G24G21G32G12G10R 3R 4R 2R13R12R14
                                R19
  21162926.065   111211915.02749     -2596.055    21162925.919    86658629.26547
     -2022.902  
  21442121.366   112679116.95648     -2323.102    21442123.872    87801922.05047
     -1810.210  
  23016204.850   120950981.52648       -63.742    23016204.391    94247520.61246
       -49.667  
  21577292.365   113389475.22449      2253.741    21577294.449    88355459.37647
      1756.160  
  23459407.644   123280035.55447      2909.495    23459411.276    96062359.62045
      2267.132  
  20382584.491   107111213.12949       -55.425    20382586.921    83463292.41949
       -43.191  
  19608953.480   104968265.95609     -1085.249    19608956.069    81641998.38108
      -844.085  
  20314327.357   108782295.99608      2331.573    20314330.056    84608481.66408
      1813.444  
  22903548.375   122217716.27706     -3426.214    22903555.758    95058256.72505
     -2664.836  
  19908223.601   106308801.42205      1000.371    19908228.149    82684644.79606
       778.062  
  21800710.874   116455484.97708     -3036.840    21800717.045    90576512.48507
     -2361.988  
  22172772.267   118193348.84407      4276.382    22172778.715    91928195.90906
      3326.070  
  22428488.294   119977285.79504     -3285.039    22428492.102    93315681.05505
     -2555.030  
 20 09 28 09 19 40.0000000  0 13G20G24G21G32G12G10R 3R 4R 2R13R12R14
                                R19
  21165397.167   111224900.63049     -2598.074    21165396.995    86668747.90547
     -2024.477  
  21444332.634   112690737.43548     -2325.066    21444335.073    87810976.95547
     -1811.742  
  23016266.559   120951305.87148       -65.980    23016266.056    94247773.33946
       -51.418  
  21575148.501   113378209.26849      2252.738    21575150.618    88346680.71347
      1755.375  
  23456640.332   123265492.75947      2907.577    23456643.837    96051027.57945
      2265.641  
  20382638.546   107111497.12549       -58.046    20382640.942    83463513.71948
       -45.234  
  19609968.184   104973697.80509     -1087.387    19609970.770    81646223.15608
      -845.745  
  20312151.016   108770641.78908      2330.335    20312153.719    84599417.29708
      1812.484  
  22906758.791   122234847.92306     -3426.925    22906766.250    95071581.33406
     -2665.390  
  19907289.092   106303811.72805       996.140    19907293.757    82680763.93306
       774.777  
  21803554.807   116470676.10308     -3039.512    21803560.881    90588327.78807
     -2364.070  
  22168761.628   118171970.44507      4275.253    22168768.037    91911568.29206
      3325.198  
  22431558.755   119993711.37404     -3286.055    22431562.656    93328456.48605
     -2555.823  
 20 09 28 09 19 45.0000000  0 13G20G24G21G32G12G10R 3R 4R 2R13R12R14
                                R19
  21167869.919   111237895.00149     -2599.565    21167869.719    86678873.39147
     -2025.640  
  21446545.733   112702367.56748     -2326.969    21446548.060    87820039.39447
     -1813.226  
  23016330.385   120951641.37448       -68.195    23016329.832    94248034.77346
       -53.145  
  21573005.483   113366947.63149      2251.879    21573007.637    88337905.40847
      1754.711  
  23453874.278   123250956.42447      2906.632    23453877.500    96039700.57945
      2264.910  
  20382694.860   107111793.05849       -60.273    20382697.233    83463744.31649
       -46.968  
  19610984.725   104979139.49509     -1089.285    19610987.300    81650455.57908
      -847.227  
  20309975.741   108758993.22808      2329.237    20309978.404    84590357.31008
      1811.628  
  22909969.588   122251981.50806     -3426.733    22909977.101    95084907.46206
     -2665.241  
  19906358.464   106298842.16405       991.836    19906363.126    82676898.72106
       771.430  
  21806401.027   116485880.09608     -3041.969    21806407.123    90600153.11507
     -2365.979  
  22164752.016   118150597.11407      4274.437    22164758.287    91894944.61406
      3324.562  
  22434631.322   120010147.91604     -3289.155    22434635.309    93341240.46405
     -2558.237  
 20 09 28 09 19 50.0000000  0 13G20G24G21G32G12G10R 3R 4R 2R13R12R14
                                R19
  21170344.477   111250898.91949     -2601.511    21170344.235    86689006.30847
     -2027.155  
  21448760.796   112714008.02148     -2328.934    21448763.060    87829109.88447
     -1814.753  
  23016396.439   120951988.70848       -70.469    23016395.807    94248305.42946
       -54.910  
  21570863.392   113355690.99249      2251.070    21570865.625    88329134.01047
      1754.081  
  23451109.718   123236427.40648      2905.203    23451112.585    96028379.27545
      2263.793  
  20382753.598   107112101.63449       -62.780    20382755.914    83463984.76149
       -48.925  
  19612003.237   104984591.79409     -1091.383    19612005.790    81654696.25708
      -848.855  
  20307801.723   108747351.33608      2327.956    20307804.350    84581302.51208
      1810.633  
  22913180.976   122269117.77706     -3427.362    22913188.417    95098235.65006
     -2665.729  
  19905431.699   106293893.38705       988.183    19905436.380    82673049.67506
       768.586  
  21809249.785   116501097.71108     -3044.882    21809255.899    90611989.03407
     -2368.246  
  22160743.435   118129229.46307      4273.229    22160749.623    91878325.34806
      3323.629  
  22437706.220   120026596.10404     -3289.992    22437710.152    93354033.48805
     -2558.887  
 20 09 28 09 19 55.0000000  0 13G20G24G21G32G12G10R 3R 4R 2R13R12R14
                                R19
  21172821.229   111263914.34249     -2604.648    21172820.940    86699148.18847
     -2029.602  
  21450978.216   112725660.73548     -2332.382    21450980.437    87838189.92347
     -1817.445  
  23016465.127   120952349.85448       -74.129    23016464.483    94248586.83246
       -57.765  
  21568722.644   113344441.38149      2248.652    21568724.920    88320368.08847
      1752.198  
  23448346.897   123221907.59148      2902.492    23448349.419    96017065.13645
      2261.683  
  20382815.128   107112424.85249       -66.555    20382817.398    83464236.62049
       -51.862  
  19613024.095   104990056.61709     -1094.827    19613026.666    81658946.67908
      -851.530  
  20305629.280   108735718.03208      2325.344    20305631.899    84572254.39508
      1808.602  
  22916393.299   122286258.84606     -3429.198    22916400.615    95111567.58606
     -2667.160  
  19904509.125   106288967.51805       982.597    19904513.902    82669218.45006
       764.241  
  21812101.518   116516330.87708     -3048.815    21812107.570    90623837.04107
     -2371.304  
  22156736.213   118107869.59007      4270.878    22156742.446    91861712.11806
      3321.792  
  22440783.615   120043057.96904     -3293.684    22440787.545    93366837.15505
     -2561.758  
 20 09 28 09 20  0.0000000  0 13G20G24G21G32G12G10R 3R 4R 2R13R12R14
                                R19
  21175300.215   111276941.59249     -2605.999    21175299.911    86709299.28647
     -2030.651  
  21453198.077   112737326.18348     -2333.897    21453200.305    87847279.88347
     -1818.621  
  23016536.485   120952725.15248       -75.632    23016535.803    94248879.28045
       -58.933  
  21566583.297   113333199.13049      2248.159    21566585.615    88311607.89647
      1751.813  
  23445585.898   123207397.44548      2901.734    23445588.178    96005758.53545
      2261.089  
  20382879.497   107112763.05049       -68.609    20382881.724    83464500.15349
       -53.464  
  19614047.363   104995534.41009     -1096.335    19614049.955    81663207.18008
      -852.710  
  20303458.520   108724093.70908      2324.469    20303461.125    84563213.26208
      1807.921  
  22919606.484   122303404.73406     -3429.020    22919613.702    95124903.28106
     -2667.020  
  19903591.069   106284064.99405       978.847    19903595.817    82665405.37706
       761.324  
  21814956.163   116531579.97008     -3050.918    21814962.231    90635697.44207
     -2372.940  
  22152730.602   118086517.83407      4270.323    22152736.817    91845105.21306
      3321.362  
  22443863.567   120059533.76404     -3296.343    22443867.541    93379651.65005
     -2563.828  
 20 09 28 09 20  5.0000000  0 13G20G24G21G32G12G10R 3R 4R 2R13R12R14
                                R19
  21177781.183   111289979.19949     -2608.796    21177780.838    86719458.45647
     -2032.832  
  21455420.082   112749002.92948     -2336.608    21455422.355    87856378.64647
     -1820.737  
  23016610.251   120953113.17048       -79.198    23016609.609    94249181.63045
       -61.714  
  21564445.087   113321962.76249      2246.483    21564447.392    88302852.29147
      1750.507  
  23442826.430   123192895.52848      2899.538    23442828.469    95994458.35945
      2259.382  
  20382946.446   107113114.77549       -72.034    20382948.624    83464774.22248
       -56.136  
  19615072.783   105001023.68709     -1099.284    19615075.421    81667476.61808
      -855.004  
  20301289.116   108712476.80608      2322.445    20301291.752    84554177.89708
      1806.347  
  22922820.392   122320554.17107     -3430.358    22922827.396    95138241.70906
     -2668.063  
  19902677.032   106279184.33606       973.695    19902681.805    82661609.31206
       757.320  
  21817813.575   116546843.50708     -3054.391    21817819.597    90647569.08407
     -2375.641  
  22148726.209   118065172.76307      4268.315    22148732.486    91828503.50106
      3319.801  
  22446945.788   120076021.97004     -3299.835    22446949.871    93392475.79505
     -2566.542  
 20 09 28 09 20 10.0000000  0 13G20G24G21G32G12G10R 3R 4R 2R13R12R14
                                R19
  21180264.609   111303029.75549     -2611.402    21180264.235    86729627.70847
     -2034.862  
  21457644.686   112760693.33448     -2339.503    21457646.993    87865488.04547
     -1822.991  
  23016686.908   120953516.41348       -82.292    23016686.341    94249495.83545
       -64.128  
  21562308.489   113310734.89249      2244.766    21562310.763    88294103.30947
      1749.167  
  23440068.990   123178404.42747      2896.979    23440070.760    95983166.59845
      2257.387  
  20383016.445   107113482.59549       -75.199    20383018.580    83465060.83548
       -58.598  
  19616100.795   105006526.96309     -1101.983    19616103.495    81671756.94708
      -857.098  
  20299121.630   108700870.04808      2320.270    20299124.294    84545150.41808
      1804.651  
  22926035.451   122337709.81206     -3431.726    22926042.270    95151584.97306
     -2669.124  
  19901767.567   106274328.15505       969.285    19901772.354    82657832.28706
       753.886  
  21820674.173   116562124.08808     -3057.953    21820680.167    90659453.97107
     -2378.409  
  22144723.519   118043837.01406      4266.262    22144729.933    91811909.03706
      3318.202  
  22450030.994   120092525.21104     -3301.609    22450034.966    93405311.63005
     -2567.921  
 20 09 28 09 20 15.0000000  0 13G20G24G21G32G12G10R 3R 4R 2R13R12R14
                                R19
  21182750.309   111316092.25749     -2613.184    21182749.899    86739806.27347
     -2036.249  
  21459871.709   112772396.57648     -2341.344    21459874.077    87874607.45447
     -1824.425  
  23016766.308   120953933.97748       -84.565    23016765.823    94249821.20446
       -65.897  
  21560173.299   113299514.52249      2243.753    21560175.584    88285360.17047
      1748.378  
  23437313.364   123163923.14047      2895.585    23437315.052    95971882.49645
      2256.301  
  20383089.319   107113865.54849       -77.621    20383091.445    83465359.23749
       -60.488  
  19617131.313   105012043.31409     -1104.039    19617134.019    81676047.44708
      -858.695  
  20296955.793   108689272.37408      2319.102    20296958.533    84536130.00808
      1803.741  
  22929251.532   122354870.46406     -3432.269    22929258.080    95164932.12106
     -2669.550  
  19900862.572   106269495.40706       964.617    19900867.307    82654073.49006
       750.258  
  21823537.748   116577420.66708     -3060.288    21823543.725    90671351.30507
     -2380.229  
  22140722.462   118022509.53907      4265.272    22140728.932    91795321.01006
      3317.433  
  22453118.952   120109042.58004     -3304.359    22453122.665    93418158.45705
     -2570.062  
 20 09 28 09 20 20.0000000  0 13G20G24G21G32G12G10R 3R 4R 2R13R12R14
                                R19
  21185238.116   111329165.86749     -2615.773    21185237.685    86749993.49847
     -2038.269  
  21462101.037   112784111.74148     -2344.098    21462103.432    87883736.16547
     -1826.570  
  23016848.269   120954364.96448       -87.390    23016847.903    94250157.02946
       -68.102  
  21558039.380   113288300.79649      2242.152    21558041.659    88276622.19847
      1747.128  
  23434559.407   123149450.77947      2893.749    23434560.988    95960605.34545
      2254.870  
  20383164.890   107114262.77149       -80.879    20383167.019    83465668.76149
       -63.026  
  19618164.102   105017571.88509     -1106.906    19618166.825    81680347.44708
      -860.930  
  20294791.489   108677682.96708      2317.172    20294794.310    84527116.03208
      1802.246  
  22932468.352   122372035.44006     -3433.483    22932474.690    95178282.65306
     -2670.491  
  19899961.796   106264685.15705       960.249    19899966.472    82650332.18806
       746.859  
  21826404.253   116592732.33108     -3063.891    21826410.072    90683260.38307
     -2383.027  
  22136722.785   118001189.59907      4263.237    22136729.353    91778738.84406
      3315.851  
  22456209.262   120125573.12604     -3306.983    22456212.803    93431015.52605
     -2572.104  
 20 09 28 09 20 25.0000000  0 13G20G24G21G32G12G10R 3R 4R 2R13R12R14
                                R19
  21187728.048   111342250.61149     -2618.109    21187727.628    86760189.39847
     -2040.090  
  21464332.621   112795838.89048     -2346.781    21464335.063    87892874.19547
     -1828.663  
  23016932.808   120954809.43948       -90.503    23016932.521    94250503.36746
       -70.526  
  21555906.744   113277093.77649      2240.589    21555909.057    88267889.45747
      1745.914  
  23431807.176   123134987.49247      2891.581    23431808.680    95949335.26346
      2253.180  
  20383243.197   107114674.30749       -83.816    20383245.324    83465989.43949
       -65.315  
  19619199.236   105023112.75509     -1109.386    19619201.928    81684657.00908
      -862.858  
  20292628.700   108666101.83008      2315.331    20292631.591    84518108.48007
      1800.812  
  22935685.905   122389204.72907     -3434.270    22935692.087    95191636.51706
     -2671.104  
  19899065.255   106259897.46105       955.628    19899069.877    82646608.43006
       743.266  
  21829273.605   116608059.17708     -3066.965    21829279.232    90695181.27506
     -2385.417  
  22132724.457   117979877.14007      4261.242    22132731.176    91762162.49206
      3314.300  
  22459301.977   120142116.72204     -3309.980    22459305.398    93443882.75305
     -2574.433  
 20 09 28 09 20 30.0000000  0 13G20G24G21G32G12G10R 3R 4R 2R13R12R14
                                R19
  21190220.429   111355348.22349     -2620.694    21190219.997    86770395.32647
     -2042.104  
  21466566.821   112807579.75248     -2349.487    21466569.290    87902022.92247
     -1830.772  
  23017020.256   120955269.16748       -93.301    23017020.084    94250861.61446
       -72.707  
  21553775.701   113265895.19849      2238.937    21553778.025    88259163.29847
      1744.624  
  23429056.922   123120534.99547      2889.648    23429058.402    95938073.58245
      2251.675  
  20383324.551   107115101.92049       -87.062    20383326.689    83466322.64649
       -67.839  
  19620236.925   105028667.55809     -1112.246    19620239.627    81688977.41208
      -865.081  
  20290467.851   108654530.83008      2313.262    20290470.737    84509108.81807
      1799.202  
  22938904.668   122406380.26107     -3436.090    22938910.734    95204995.25106
     -2672.520  
  19898173.285   106255134.13905       950.179    19898177.860    82642903.62506
       739.022  
  21832146.094   116623402.90508     -3070.479    21832151.580    90707115.28506
     -2388.152  
  22128727.964   117958574.04807      4259.910    22128734.796    91745593.43306
      3313.262  
  22462397.536   120158675.27804     -3313.586    22462400.797    93456761.62005
     -2577.238  
 20 09 28 09 20 35.0000000  0 13G20G24G21G32G12G10R 3R 4R 2R13R12R14
                                R19
  21192714.996   111368457.25949     -2622.762    21192714.561    86780610.14847
     -2043.715  
  21468803.313   112819332.87948     -2351.699    21468805.849    87911181.19147
     -1832.495  
  23017110.350   120955742.71248       -95.938    23017110.337    94251230.61946
       -74.757  
  21551646.009   113254703.68349      2237.707    21551648.366    88250442.64147
      1743.668  
  23426308.489   123106091.94547      2887.992    23426309.880    95926819.28346
      2250.387  
  20383408.688   107115544.21849       -89.800    20383410.847    83466667.29249
       -69.976  
  19621276.983   105034234.94209     -1114.530    19621279.653    81693307.59708
      -866.862  
  20288308.659   108642968.52108      2311.698    20288311.491    84500115.91308
      1797.987  
  22942124.206   122423560.08407     -3436.242    22942130.196    95218357.30906
     -2672.641  
  19897285.670   106250393.82905       946.054    19897290.159    82639216.71506
       735.815  
  21835021.427   116638762.13408     -3073.262    21835026.822    90719061.35106
     -2390.316  
  22124732.926   117937278.81107      4258.319    22124739.890    91729030.48806
      3312.027  
  22465495.386   120175247.34204     -3315.652    22465498.708    93469650.99405
     -2578.844  
 20 09 28 09 20 40.0000000  0 13G20G24G21G32G12G10R 3R 4R 2R13R12R14
                                R19
  21195211.605   111381577.03149     -2625.335    21195211.231    86790833.34447
     -2045.719  
  21471042.035   112831097.47548     -2354.413    21471044.600    87920348.41047
     -1834.608  
  23017202.904   120956229.36748       -98.827    23017203.036    94251609.83446
       -77.008  
  21549517.536   113243518.51349      2236.203    21549519.925    88241726.93748
      1742.495  
  23423561.683   123091657.60047      2885.944    23423563.002    95915571.74645
      2248.788  
  20383495.488   107116000.48249       -92.831    20383497.664    83467022.82449
       -72.339  
  19622319.292   105039814.25709     -1117.461    19622321.908    81697647.06308
      -869.141  
  20286150.957   108631414.15508      2309.707    20286153.743    84491129.19007
      1796.438  
  22945344.582   122440743.97307     -3437.512    22945350.499    95231722.54306
     -2673.624  
  19896402.136   106245675.83705       940.909    19896406.595    82635547.17406
       731.820  
  21837899.529   116654136.13107     -3076.359    21837904.821    90731018.90306
     -2392.726  
  22120739.331   117915990.86007      4256.565    22120746.326    91712473.19906
      3310.664  
  22468595.597   120191832.10104     -3317.824    22468599.008    93482550.25205
     -2580.534  
 20 09 28 09 20 45.0000000  0 13G20G24G21G32G12G10R 3R 4R 2R13R12R14
                                R19
  21197710.557   111394709.14149     -2627.633    21197710.226    86801066.15547
     -2047.512  
  21473283.269   112842875.23648     -2356.749    21473285.862    87929525.88047
     -1836.433  
  23017298.240   120956730.73548      -101.562    23017298.521    94252000.51546
       -79.140  
  21547390.593   113232341.28849      2234.722    21547393.039    88233017.41347
      1741.344  
  23420816.858   123077233.60547      2883.797    23420818.264    95904332.28445
      2247.112  
  20383585.257   107116472.31249       -95.929    20383587.458    83467390.48249
       -74.753  
  19623364.068   105045407.05309     -1119.746    19623366.681    81701997.01208
      -870.917  
  20283995.049   108619869.33408      2308.077    20283997.808    84482149.89008
      1795.171  
  22948565.954   122457933.29807     -3438.566    22948571.828    95245092.00306
     -2674.445  
  19895523.134   106240981.76306       936.245    19895527.516    82631896.22706
       728.176  
  21840780.686   116669526.44008     -3079.891    21840785.836    90742989.14306
     -2395.469  
  22116747.457   117894711.73807      4255.046    22116754.419    91695922.77906
      3309.479  
  22471698.592   120208431.22204     -3320.851    22471702.038    93495460.67305
     -2582.887  
 20 09 28 09 20 50.0000000  0 13G20G24G21G32G12G10R 3R 4R 2R13R12R14
                                R19
  21200211.256   111407850.49649     -2629.734    21200211.011    86811306.16947
     -2049.147  
  21475526.421   112854663.04748     -2359.039    21475529.048    87938711.19347
     -1838.214  
  23017395.845   120957243.77748      -104.223    23017396.177    94252400.30546
       -81.211  
  21545264.593   113221168.95949      2233.421    21545267.086    88224311.70747
      1740.327  
  23418073.472   123062816.88747      2882.000    23418074.792    95893098.50545
      2245.718  
  20383677.398   107116956.64549       -98.620    20383679.623    83467767.88248
       -76.848  
  19624410.815   105051010.24609     -1122.190    19624413.389    81706355.04708
      -872.819  
  20281840.349   108608331.04108      2306.563    20281843.108    84473175.67007
      1793.992  
  22951787.693   122475125.14506     -3439.285    22951793.676    95258463.43006
     -2675.004  
  19894648.034   106236308.49505       932.229    19894652.296    82628261.46606
       725.066  
  21843664.318   116684929.94007     -3082.535    21843669.338    90754969.65106
     -2397.527  
  22112756.616   117873438.43207      4253.742    22112763.612    91679376.89006
      3308.465  
  22474803.572   120225041.42804     -3324.457    22474807.145    93508379.71105
     -2585.690  
 20 09 28 09 20 55.0000000  0 13G20G24G21G32G12G10R 3R 4R 2R13R12R14
                                R19
  21202714.128   111421003.17749     -2631.843    21202713.943    86821555.00947
     -2050.792  
  21477771.877   112866462.87648     -2361.210    21477774.472    87947905.86347
     -1839.910  
  23017496.024   120957770.44347      -106.546    23017496.435    94252810.69045
       -83.022  
  21543139.907   113210003.50249      2232.379    21543142.447    88215611.35548
      1739.516  
  23415331.835   123048409.45947      2880.620    23415333.115    95881871.95146
      2244.641  
  20383772.293   107117455.47849      -101.354    20383774.563    83468156.58549
       -78.976  
  19625459.877   105056625.86309     -1124.383    19625462.402    81710722.74208
      -874.522  
  20279687.239   108596801.20608      2304.964    20279690.018    84464208.03308
      1792.749  
  22955010.244   122492321.26307     -3439.734    22955016.385    95271838.18006
     -2675.351  
  19893777.117   106231658.06505       927.819    19893781.338    82624644.46806
       721.632  
  21846550.798   116700348.62607     -3085.219    21846555.691    90766961.97406
     -2399.612  
  22108767.275   117852172.97307      4252.258    22108774.263    91662837.10406
      3307.312  
  22477911.280   120241665.00604     -3326.374    22477914.746    93521309.15505
     -2587.183  
 20 09 28 09 21  0.0000000  0 13G20G24G21G32G12G10R 3R 4R 2R13R12R14
                                R19
  21205219.371   111434168.38449     -2634.796    21205219.249    86831813.59847
     -2053.094  
  21480019.832   112878276.05148     -2364.457    21480022.420    87957110.92547
     -1842.437  
  23017599.044   120958312.06348      -110.043    23017599.535    94253232.74046
       -85.745  
  21541016.790   113198846.26349      2230.132    21541019.373    88206917.40748
      1737.761  
  23412592.241   123034012.63848      2877.586    23412593.533    95870653.66545
      2242.272  
  20383870.207   107117970.11449      -104.929    20383872.503    83468557.60249
       -81.765  
  19626511.485   105062255.23809     -1127.711    19626513.977    81715101.14108
      -877.112  
  20277535.937   108585281.30108      2302.461    20277538.750    84455248.11108
      1790.804  
  22958233.932   122509523.17007     -3441.507    22958240.157    95285217.43906
     -2676.730  
  19892910.806   106227031.73605       922.296    19892914.894    82621046.21806
       717.344  
  21849440.313   116715783.86507     -3089.144    21849445.155    90778967.15906
     -2402.667  
  22104779.677   117830916.67507      4249.910    22104786.607    91646304.43606
      3305.484  
  22481021.468   120258302.97604     -3329.699    22481024.977    93534249.79105
     -2589.770  
 20 09 28 09 21  5.0000000  0 13G20G24G21G32G12G10R 3R 4R 2R13R12R14
                                R19
  21207727.046   111447346.20949     -2636.062    21207726.967    86842082.03647
     -2054.078  
  21482270.375   112890102.64048     -2366.015    21482272.888    87966326.43647
     -1843.652  
  23017704.937   120958868.78548      -112.206    23017705.484    94253666.55345
       -87.434  
  21538895.260   113187697.32449      2229.827    21538897.877    88198229.92347
      1737.527  
  23409854.727   123019626.56148      2877.183    23409856.020    95859443.75945
      2241.965  
  20383971.157   107118500.70049      -107.034    20383973.477    83468971.04348
       -83.405  
  19627565.660   105067898.41009     -1129.249    19627568.125    81719490.27608
      -878.308  
  20275386.519   108573771.32908      2301.805    20275389.316    84446295.91707
      1790.292  
  22961458.737   122526731.03307     -3441.094    22961465.043    95298601.32006
     -2676.409  
  19892048.892   106222429.59706       918.776    19892053.009    82617466.78106
       714.605  
  21852332.905   116731235.72807     -3091.504    21852337.760    90790985.27206
     -2404.508  
  22100793.784   117809669.65007      4249.180    22100800.679    91629778.99306
      3304.917  
  22484134.711   120274955.63504     -3330.879    22484137.946    93547201.85005
     -2590.687  
 20 09 28 09 21 10.0000000  0 13G20G24G21G32G12G10R 3R 4R 2R13R12R14
                                R19
  21210236.113   111460531.38349     -2638.910    21210236.068    86852356.19447
     -2056.297  
  21484522.483   112901937.45648     -2368.897    21484524.910    87975548.37247
     -1845.898  
  23017812.707   120959435.27748      -115.519    23017813.253    94254107.97646
       -90.019  
  21536774.314   113176551.43149      2227.770    21536776.930    88189544.81648
      1735.926  
  23407118.280   123005245.99548      2874.598    23407119.561    95848238.13346
      2239.944  
  20384074.134   107119041.94249      -110.434    20384076.481    83469392.79549
       -86.051  
  19628621.424   105073550.15509     -1132.339    19628623.896    81723886.07808
      -880.707  
  20273237.957   108562265.96808      2299.461    20273240.756    84437347.30407
      1788.464  
  22964683.624   122543939.17707     -3442.809    22964689.946    95311985.42606
     -2677.741  
  19891190.610   106217846.42005       913.605    19891194.692    82613902.09606
       710.582  
  21855227.606   116746698.88907     -3095.112    21855232.486    90803012.16206
     -2407.313  
  22096808.718   117788426.59807      4247.101    22096815.479    91613256.62906
      3303.301  
  22487249.464   120291617.49304     -3334.363    22487252.594    93560161.05005
     -2593.398  
 20 09 28 09 21 15.0000000  0 13G20G24G21G32G12G10R 3R 4R 2R13R12R14
                                R19
  21212747.769   111473730.03849     -2641.229    21212747.715    86862640.84747
     -2058.105  
  21486777.354   112913786.57149     -2371.347    21486779.656    87984781.45847
     -1847.804  
  23017923.512   120960017.68848      -118.382    23017924.079    94254561.78946
       -92.250  
  21534655.105   113165414.72449      2226.257    21534657.702    88180866.86748
      1734.745  
  23404384.053   122990877.07148      2872.371    23404385.326    95837041.58746
      2238.211  
  20384180.301   107119599.97849      -113.395    20384182.679    83469827.62849
       -88.363  
  19629679.933   105079216.52809     -1135.020    19629682.391    81728293.25408
      -882.796  
  20271091.440   108550771.49708      2297.601    20271094.229    84428407.15507
      1787.019  
  22967909.733   122561154.25507     -3443.897    22967916.170    95325374.92206
     -2678.590  
  19890336.963   106213288.40205       909.358    19890341.093    82610356.97806
       707.218  
  21858125.549   116762179.46007     -3098.063    21858130.472    90815052.59806
     -2409.608  
  22092825.519   117767193.75107      4245.488    22092832.188    91596742.21206
      3302.047  
  22490366.990   120308294.77804     -3336.461    22490370.112    93573132.25105
     -2595.031  
 20 09 28 09 21 20.0000000  0 13G20G24G21G32G12G10R 3R 4R 2R13R12R14
                                R19
  21215261.565   111486939.99949     -2643.261    21215261.554    86872934.31647
     -2059.688  
  21489034.533   112925647.78449     -2373.602    21489036.702    87994023.96547
     -1849.558  
  23018036.910   120960613.81648      -120.742    23018037.481    94255026.30946
       -94.090  
  21532537.250   113154285.00949      2225.160    21532539.780    88172194.36148
      1733.891  
  23401651.612   122976517.62248      2871.022    23401652.924    95825852.41745
      2237.159  
  20384289.251   107120172.64349      -116.059    20384291.677    83470273.85949
       -90.433  
  19630740.820   105084895.44609     -1137.151    19630743.261    81732710.19008
      -884.456  
  20268946.527   108539285.65108      2296.211    20268949.321    84419473.72107
      1785.937  
  22971136.738   122578373.63607     -3444.429    22971143.156    95338767.76806
     -2679.003  
  19889487.756   106208753.27405       904.288    19889491.779    82606829.65406
       703.335  
  21861026.390   116777675.23107     -3101.038    21861031.343    90827104.86506
     -2411.922  
  22088843.914   117745968.93407      4244.070    22088850.394    91580234.03706
      3300.944  
  22493487.083   120324985.39504     -3338.347    22493490.159    93586113.82005
     -2596.495  
 20 09 28 09 21 25.0000000  0 13G20G24G21G32G12G10R 3R 4R 2R13R12R14
                                R19
  21217777.603   111500161.74349     -2645.301    21217777.583    86883236.97147
     -2061.276  
  21491294.061   112937521.36748     -2375.820    21491296.108    88003276.10747
     -1851.292  
  23018153.018   120961224.15748      -123.358    23018153.534    94255501.90346
       -96.124  
  21530420.798   113143162.76149      2223.819    21530423.288    88163527.68047
      1732.848  
  23398921.081   122962168.11548      2869.141    23398922.360    95814670.99645
      2235.694  
  20384401.060   107120760.35849      -118.832    20384403.539    83470731.82349
       -92.597  
  19631804.147   105090587.48709     -1139.550    19631806.597    81737137.33408
      -886.319  
  20266803.336   108527809.01908      2294.620    20266806.134    84410547.45607
      1784.703  
  22974364.614   122595598.01607     -3445.199    22974371.018    95352164.50206
     -2679.602  
  19888642.830   106204241.54405       900.191    19888646.885    82603320.53406
       700.148  
  21863930.137   116793186.71307     -3103.694    21863935.191    90839169.34706
     -2413.987  
  22084863.869   117724752.55107      4242.800    22084870.197    91563732.41706
      3299.957  
  22496609.670   120341689.56604     -3340.987    22496612.749    93599105.94205
     -2598.550  
 20 09 28 09 21 30.0000000  0 12G20G24G21G32G12G10R 3R 4R 2R13R12R14
  21220296.236   111513397.03049     -2648.179    21220296.211    86893550.17547
     -2063.520  
  21493556.294   112949409.36048     -2378.891    21493558.258    88012539.48347
     -1853.684  
  23018272.222   120961850.48148      -126.694    23018272.689    94255989.94446
       -98.723  
  21528306.098   113132049.78249      2221.831    21528308.566    88154868.21848
      1731.297  
  23396192.751   122947830.36148      2866.648    23396194.020    95803498.74345
      2233.753  
  20384516.098   107121364.97949      -122.433    20384518.618    83471202.95849
       -95.402  
  19632870.216   105096294.23809     -1142.659    19632872.705    81741575.92508
      -888.734  
  20264662.168   108516343.25608      2292.319    20264665.007    84401629.64107
      1782.910  
  22977593.774   122612829.30907     -3446.645    22977600.175    95365566.60706
     -2680.727  
  19887802.593   106199755.06605       894.789    19887806.750    82599831.05206
       695.945  
  21866837.134   116808715.65307     -3107.440    21866842.269    90851247.40106
     -2416.902  
  22080885.766   117703546.52407      4240.336    22080891.966    91547238.85306
      3298.039  
 20 09 28 09 21 35.0000000  0 12G20G24G21G32G12G10R 3R 4R 2R13R12R14
  21222816.616   111526641.55849     -2649.444    21222816.567    86903870.57947
     -2064.507  
  21495820.437   112961307.44948     -2380.159    21495822.328    88021810.72047
     -1854.671  
  23018393.690   120962488.52048      -128.121    23018394.062    94256487.13447
       -99.835  
  21526192.336   113120941.79349      2221.496    21526194.788    88146212.64948
      1731.034  
  23393465.842   122933500.10648      2865.375    23393467.163    95792332.31645
      2232.758  
  20384633.532   107121982.19449      -124.316    20384636.093    83471683.90649
       -96.870  
  19633938.218   105102011.40009     -1144.047    19633940.773    81746022.61208
      -889.812  
  20262522.265   108504884.17608      2291.503    20262525.135    84392717.02507
      1782.276  
  22980823.364   122630062.98707     -3446.441    22980829.741    95378970.56706
     -2680.570  
  19886966.278   106195289.37905       891.723    19886970.502    82596357.74706
       693.562  
  21869746.646   116824257.67707     -3109.265    21869751.739    90863335.64406
     -2418.319  
  22076908.775   117682346.55307      4239.926    22076914.863    91530749.99906
      3297.719  
 20 09 28 09 21 40.0000000  0 13G20G24G25G21G32G12G10R 3R 4R 2R13R12
                                R14
  21225338.962   111539896.45549     -2652.054    21225338.889    86914199.06747
     -2066.539  
  21498086.690   112973216.62348     -2383.085    21498088.548    88031090.60647
     -1856.948  
  24573270.280   129133410.89957      3700.414    24573275.350   100623454.48954
      2883.440  
  23018517.597   120963139.37348      -131.292    23018517.899    94256994.29146
      -102.305  
  21524079.713   113109839.88449      2219.722    21524082.181    88137561.81548
      1729.652  
  23390740.520   122919178.41248      2863.496    23390741.905    95781172.58845
      2231.300  
  20384753.590   107122613.10149      -127.675    20384756.174    83472175.52349
       -99.488  
  19635008.426   105107740.18009     -1146.983    19635011.039    81750478.32708
      -892.101  
  20260383.812   108493432.79408      2289.387    20260386.672    84383810.40307
      1780.633  
  22984053.681   122647300.20207     -3447.968    22984059.923    95392377.27306
     -2681.758  
  19886134.083   106190845.75505       886.366    19886138.384    82592901.59706
       689.395  
  21872658.812   116839813.91507     -3112.698    21872663.823    90875434.93706
     -2420.992  
  22072933.077   117661153.75007      4237.797    22072939.150    91514266.71906
      3296.063  
 20 09 28 09 21 45.0000000  0 13G20G24G25G21G32G12G10R 3R 4R 2R13R12
                                R14
  21227863.478   111553162.75049     -2654.422    21227863.350    86924536.43647
     -2068.383  
  21500355.240   112985137.87548     -2385.425    21500357.085    88040379.88647
     -1858.776  
  24569750.129   129114910.66346      3699.734    24569754.036   100609038.76644
      2882.918  
  23018644.145   120963804.10948      -134.292    23018644.352    94257512.28046
      -104.645  
  21521968.455   113098745.14949      2218.269    21521970.932    88128916.57048
      1728.522  
  23388017.052   122904866.46047      2861.379    23388018.306    95770020.43945
      2229.648  
  20384876.469   107123258.80449      -130.620    20384879.071    83472678.67149
      -101.785  
  19636081.013   105113481.69809     -1149.645    19636083.685    81754943.95208
      -894.168  
  20258247.016   108481990.31508      2287.632    20258249.842    84374910.70607
      1779.270  
  22987284.846   122664542.10106     -3448.702    22987290.956    95405787.63306
     -2682.328  
  19885306.321   106186425.36305       881.687    19885310.608    82589463.51006
       685.753  
  21875573.788   116855385.44407     -3115.972    21875578.765    90887546.13006
     -2423.535  
  22068958.928   117639969.14307      4235.941    22068965.012    91497789.81506
      3294.621  
 20 09 28 09 21 50.0000000  0 14G20G24G25G21G32G12G10R 3R 4R 2R13R12
                                R14R19
  21230390.087   111566440.13649     -2656.819    21230389.927    86934882.44147
     -2070.254  
  21502626.079   112997071.08648     -2387.983    21502627.929    88049678.48947
     -1860.769  
  24566229.754   129096411.47046      3699.438    24566233.625   100594623.83544
      2882.679  
  23018773.281   120964482.43948      -137.055    23018773.472    94258040.84846
      -106.796  
  21519858.512   113087657.32149      2216.801    21519860.981    88120276.70648
      1727.378  
  23385295.338   122890563.91247      2859.594    23385296.530    95758875.62645
      2228.258  
  20385002.116   107123919.02249      -133.608    20385004.720    83473193.12149
      -104.113  
  19637155.896   105119235.44209     -1152.151    19637158.623    81759419.08508
      -896.120  
  20256111.811   108470556.42308      2285.727    20256114.593    84366017.68807
      1777.788  
  22990516.722   122681788.26007     -3449.831    22990522.779    95419201.30706
     -2683.206  
  19884482.839   106182027.92105       876.930    19884487.132    82586043.28006
       682.051  
  21878491.528   116870971.89607     -3118.727    21878496.522    90899668.93106
     -2425.675  
  22064986.247   117618792.51707      4234.715    22064992.403    91481319.12206
      3293.667  
  22512259.737   120425408.65214     -3355.078    22512263.334    93664220.99415
     -2609.507  
 20 09 28 09 21 55.0000000  0 14G20G24G25G21G32G12G10R 3R 4R 2R13R12
                                R14R19
  21232918.839   111579728.75849     -2658.715    21232918.675    86945237.21047
     -2071.730  
  21504899.225   113009016.36048     -2390.117    21504901.046    88058986.49147
     -1862.434  
  24562709.391   129077913.27446      3699.772    24562714.019   100580209.69945
      2882.949  
  23018905.031   120965174.48248      -139.636    23018905.209    94258580.10146
      -108.809  
  21517749.924   113076576.52349      2215.598    21517752.347    88111642.32547
      1726.440  
  23382575.428   122876270.96947      2858.159    23382576.504    95747738.29245
      2227.141  
  20385130.539   107124593.85749      -136.327    20385133.153    83473718.97049
      -106.230  
  19638233.130   105125001.77609     -1154.351    19638235.912    81763904.01008
      -897.831  
  20253978.228   108459131.21308      2284.387    20253980.963    84357131.41507
      1776.746  
  22993749.513   122699038.95606     -3450.370    22993755.443    95432618.49706
     -2683.624  
  19883663.516   106177653.44205       872.723    19883667.971    82582640.91006
       678.784  
  21881412.164   116886573.56607     -3121.813    21881417.136    90911803.57106
     -2428.078  
  22061015.108   117597624.04907      4232.949    22061021.338    91464854.77106
      3292.292  
  22515396.827   120442190.71504     -3357.519    22515400.733    93677273.69606
     -2611.406  
 20 09 28 09 22  0.0000000  0 14G20G24G25G21G32G12G10R 3R 4R 2R13R12
                                R14R19
  21235449.845   111593029.28349     -2661.238    21235449.663    86955601.24847
     -2073.694  
  21507174.748   113020974.25448     -2392.769    21507176.557    88068304.32847
     -1864.500  
  24559189.687   129059416.98045      3699.371    24559195.329   100565797.00245
      2882.625  
  23019039.507   120965880.90848      -142.640    23019039.637    94259130.56346
      -111.151  
  21515642.799   113065503.41249      2213.941    21515645.150    88103013.92747
      1725.147  
  23379857.486   122861988.27447      2855.558    23379858.509    95736608.93245
      2225.108  
  20385261.880   107125283.99949      -139.492    20385264.484    83474256.74749
      -108.695  
  19639312.844   105130781.38009     -1157.030    19639315.682    81768399.26408
      -899.914  
  20251846.385   108447715.41708      2282.258    20251849.107    84348252.46707
      1775.089  
  22996983.269   122716294.86806     -3451.547    22996989.115    95446039.75106
     -2684.539  
  19882848.612   106173302.48905       867.937    19882853.208    82579256.83906
       675.062  
  21884335.735   116902190.94507     -3124.879    21884340.750    90923950.42106
     -2430.465  
  22057045.607   117576464.37507      4231.125    22057051.945    91448397.25806
      3290.875  
  22518536.614   120458986.55604     -3360.683    22518540.717    93690337.11906
     -2613.867  
 20 09 28 09 22  5.0000000  0 14G20G24G25G21G32G12G10R 3R 4R 2R13R12
                                R14R19
  21237982.973   111606340.86849     -2663.539    21237982.774    86965973.91047
     -2075.488  
  21509452.485   113032943.78348     -2395.152    21509454.277    88077631.24347
     -1866.351  
  24555669.967   129040921.66046      3698.602    24555675.684   100551385.11344
      2882.031  
  23019176.565   120966600.90048      -145.426    23019176.731    94259691.59646
      -113.324  
  21513537.006   113054437.17549      2212.484    21513539.293    88094390.88748
      1724.012  
  23377141.291   122847715.04647      2854.417    23377142.367    95725486.97446
      2224.226  
  20385395.981   107125988.64049      -142.531    20385398.565    83474805.81848
      -111.065  
  19640394.862   105136573.25909     -1159.757    19640397.699    81772904.05708
      -902.038  
  20249716.160   108436308.15908      2280.507    20249718.883    84339380.15907
      1773.727  
  23000217.761   122733555.04906     -3452.894    23000223.635    95459464.33306
     -2685.590  
  19882038.128   106168974.39905       862.777    19882042.714    82575890.55806
       671.050  
  21887262.125   116917823.22608     -3127.969    21887267.192    90936108.86706
     -2432.866  
  22053077.645   117555312.75007      4229.421    22053084.048    91431946.00706
      3289.551  
  22521678.904   120475795.19004     -3363.547    22521683.132    93703410.50506
     -2616.097  
 20 09 28 09 22 10.0000000  0 14G20G24G25G21G32G12G10R 3R 4R 2R13R12
                                R14R19
  21240518.299   111619664.09649     -2665.503    21240518.105    86976355.63947
     -2077.019  
  21511732.592   113044925.76248     -2397.257    21511734.331    88086967.83947
     -1867.995  
  24552150.522   129022427.82545      3699.145    24552156.402   100536974.33545
      2882.453  
  23019316.315   120967335.01148      -147.934    23019316.521    94260263.63746
      -115.273  
  21511432.632   113043378.37049      2211.409    21511434.833    88085773.63347
      1723.171  
  23374427.066   122833451.88247      2851.956    23374428.080    95714372.82845
      2222.304  
  20385532.952   107126708.30449      -145.086    20385535.505    83475366.59749
      -113.055  
  19641479.268   105142378.01509     -1161.878    19641482.090    81777418.86508
      -903.688  
  20247587.668   108424910.08809      2278.976    20247590.414    84330515.00207
      1772.539  
  23003453.189   122750820.22806     -3453.320    23003459.141    95472892.79006
     -2685.917  
  19881232.005   106164669.62005       858.973    19881236.524    82572542.40606
       668.090  
  21890191.456   116933470.90607     -3130.733    21890196.522    90948279.28106
     -2435.020  
  22049111.250   117534169.69507      4228.245    22049117.749    91415501.41506
      3288.637  
  22524823.582   120492617.18504     -3365.105    22524828.042    93716494.26806
     -2617.309  
 20 09 28 09 22 15.0000000  0 14G20G24G25G21G32G12G10R 3R 4R 2R13R12
                                R14R19
  21243055.803   111632998.67349     -2668.445    21243055.575    86986746.21747
     -2079.312  
  21514014.987   113056919.82948     -2400.465    21514016.710    88096313.86147
     -1870.496  
  24548631.369   129003935.42245      3697.602    24548637.310   100522564.64645
      2881.242  
  23019458.658   120968082.90448      -151.218    23019458.917    94260846.41346
      -117.831  
  21509329.609   113032326.72049      2209.276    21509331.753    88077161.96548
      1721.516  
  23371714.659   122819198.46347      2849.112    23371715.667    95703266.29345
      2220.093  
  20385672.727   107127442.73449      -148.758    20385675.246    83475938.87749
      -115.917  
  19642566.055   105148195.45009     -1164.957    19642568.821    81781943.53608
      -906.081  
  20245460.860   108413520.90909      2276.656    20245463.612    84321656.76107
      1770.733  
  23006689.334   122768089.69806     -3454.608    23006695.401    95486324.59806
     -2686.921  
  19880430.249   106160387.88005       853.469    19880434.677    82569212.16606
       663.809  
  21893123.603   116949133.78107     -3134.324    21893128.712    90960461.51106
     -2437.813  
  22045146.416   117513034.98907      4225.706    22045152.993    91399063.31307
      3286.660  
  22527970.853   120509452.31205     -3369.316    22527975.355    93729588.25006
     -2620.581  
 20 09 28 09 22 20.0000000  0 14G20G24G25G21G32G12G10R 3R 4R 2R13R12
                                R14R19
  21245595.881   111646346.84648     -2670.745    21245595.671    86997147.38847
     -2081.102  
  21516300.141   113068928.29748     -2402.836    21516301.793    88105671.11447
     -1872.339  
  24545112.980   128985446.47646      3697.983    24545118.500   100508157.74045
      2881.554  
  23019604.043   120968846.93948      -154.230    23019604.415    94261441.76446
      -120.180  
  21507228.364   113021284.50649      2207.815    21507230.483    88068557.64848
      1720.375  
  23369004.556   122804957.05747      2847.219    23369005.606    95692169.11146
      2218.616  
  20385815.745   107128194.20149      -151.714    20385818.231    83476524.43749
      -118.218  
  19643655.607   105154027.78009     -1167.500    19643658.319    81786479.79108
      -908.058  
  20243336.121   108402142.90209      2274.815    20243338.866    84312807.20707
      1769.301  
  23009926.915   122785366.33006     -3455.680    23009933.054    95499761.96606
     -2687.754  
  19879633.228   106156131.51805       848.964    19879637.553    82565901.66506
       660.304  
  21896059.038   116964814.06607     -3137.702    21896064.152    90972657.27907
     -2440.441  
  22041183.631   117491910.99007      4223.987    22041190.218    91382633.55007
      3285.323  
  22531121.153   120526302.88405     -3370.852    22531125.482    93742694.25206
     -2621.773  
 20 09 28 09 22 25.0000000  0 14G20G24G25G21G32G12G10R 3R 4R 2R13R12
                                R14R19
  21248137.763   111659704.61648     -2672.952    21248137.593    87007556.04347
     -2082.820  
  21518587.272   113080947.12948     -2405.276    21518588.894    88115036.44047
     -1874.241  
  24541594.620   128966957.12044      3698.141    24541599.721   100493750.42846
      2881.671  
  23019751.758   120969623.12048      -157.069    23019752.230    94262046.57646
      -122.394  
  21505128.150   113010247.74949      2206.386    21505130.252    88059957.58248
      1719.261  
  23366295.991   122790723.73348      2845.687    23366297.138    95681078.23045
      2217.417  
  20385961.247   107128958.72649      -154.805    20385963.700    83477120.17149
      -120.632  
  19644747.192   105159871.02609     -1170.171    19644749.856    81791024.53608
      -910.136  
  20241212.741   108390771.98709      2272.996    20241215.429    84303963.16507
      1767.886  
  23013164.930   122802645.68906     -3456.628    23013171.188    95513201.45506
     -2688.491  
  19878840.178   106151896.58406       844.597    19878844.443    82562607.83706
       656.909  
  21898996.897   116980507.71007     -3140.293    21899002.056    90984863.44206
     -2442.453  
  22037222.093   117470793.54707      4222.156    22037228.672    91366208.88007
      3283.897  
  22534273.376   120543164.68304     -3374.215    22534277.611    93755808.98706
     -2624.395  
 20 09 28 09 22 30.0000000  0 14G20G24G25G21G32G12G10R 3R 4R 2R13R12
                                R14R19
  21250681.648   111673072.75948     -2674.793    21250681.467    87017972.78047
     -2084.254  
  21520876.500   113092976.97848     -2407.382    21520878.083    88124410.34947
     -1875.882  
  24538076.283   128948468.32145      3697.218    24538081.650   100479343.60944
      2880.945  
  23019901.895   120970412.15848      -159.413    23019902.416    94262661.40446
      -124.222  
  21503029.102   112999217.20449      2205.358    21503031.196    88051362.36148
      1718.421  
  23363589.136   122776499.24148      2843.730    23363590.352    95669994.23846
      2215.897  
  20386109.388   107129737.08549      -157.328    20386111.801    83477726.68449
      -122.594  
  19645840.951   105165726.06609     -1172.414    19645843.582    81795578.46008
      -911.878  
  20239090.826   108379409.00509      2271.554    20239093.473    84295125.29407
      1766.765  
  23016403.691   122819928.71106     -3457.237    23016410.041    95526643.80206
     -2688.968  
  19878051.186   106147683.88005       840.530    19878055.518    82559331.29806
       653.745  
  21901937.441   116996215.53307     -3143.168    21901942.579    90997080.64006
     -2444.690  
  22033261.896   117449683.53207      4220.996    22033268.527    91349789.99207
      3282.995  
  22537427.940   120560038.53305     -3376.402    22537431.914    93768933.08205
     -2626.094  
 20 09 28 09 22 35.0000000  0 14G20G24G25G21G32G12G10R 3R 4R 2R13R12
                                R14R19
  21253227.665   111686452.07649     -2676.983    21253227.473    87028398.22047
     -2085.960  
  21523168.010   113105018.75848     -2409.620    21523169.535    88133793.55547
     -1877.624  
  24534558.182   128929980.63946      3697.890    24534563.529   100464937.64944
      2881.473  
  23020054.666   120971214.94648      -162.191    23020055.198    94263286.96046
      -126.383  
  21500931.392   112988193.72949      2203.870    21500933.485    88042772.64848
      1717.300  
  23360884.148   122762284.49548      2841.679    23360885.462    95658917.85246
      2214.301  
  20386260.319   107130530.11149      -160.108    20386262.702    83478344.62849
      -124.762  
  19646937.029   105171593.52409     -1174.863    19646939.637    81800142.04608
      -913.780  
  20236970.542   108368054.85709      2269.883    20236973.181    84286294.28907
      1765.460  
  23019643.231   122837216.08006     -3458.230    23019649.685    95540089.52806
     -2689.737  
  19877266.540   106143494.10005       835.276    19877270.884    82556072.57806
       649.659  
  21904880.763   117011938.26507     -3146.258    21904885.930    91009309.43206
     -2447.094  
  22029303.252   117428581.82507      4219.522    22029309.924    91333377.55607
      3281.851  
  22540584.717   120576925.10304     -3378.152    22540588.533    93782067.06505
     -2627.456  
 20 09 28 09 22 40.0000000  0 14G20G24G25G21G32G12G10R 3R 4R 2R13R12
                                R14R19
  21255776.327   111699845.29049     -2679.964    21255776.119    87038834.49747
     -2088.284  
  21525462.328   113117075.22848     -2412.633    21525463.768    88143188.21247
     -1879.972  
  24531040.944   128911496.96246      3696.289    24531046.527   100450534.80145
      2880.230  
  23020210.600   120972034.16548      -165.468    23020211.077    94263925.32146
      -128.937  
  21498835.552   112977180.04749      2201.991    21498837.659    88034190.56148
      1715.839  
  23358181.532   122748082.12247      2839.585    23358182.887    95647851.10146
      2212.668  
  20386414.548   107131340.52949      -163.727    20386416.911    83478976.12249
      -127.582  
  19648035.955   105177476.31409     -1177.953    19648038.592    81804717.54908
      -916.187  
  20234852.439   108356712.32409      2267.590    20234855.080    84277472.32007
      1763.679  
  23022884.206   122854510.97906     -3459.628    23022890.702    95553541.10906
     -2690.922  
  19876486.756   106139330.09805       830.652    19876491.078    82552833.91406
       646.063  
  21907827.436   117027678.77007     -3149.651    21907832.628    91021552.03406
